     2.11           OBSERVATION DATA    M (MIXED)           RINEX VERSION / TYPE
CONVBIN 2.4.2                           20180503 130236 UTC PGM / RUN BY / DATE 
log: 090405.ubx                                             COMMENT             
format: u-blox                                              COMMENT             
                                                            MARKER NAME         
                                                            MARKER NUMBER       
                                                            OBSERVER / AGENCY   
                                                            REC # / TYPE / VERS 
                                                            ANT # / TYPE        
  4139276.0872   613677.6187  4797652.4633                  APPROX POSITION XYZ 
        0.0000        0.0000        0.0000                  ANTENNA: DELTA H/E/N
     1     1                                                WAVELENGTH FACT L1/2
     4    C1    L1    C2    L2                              # / TYPES OF OBSERV 
  2018     3    23     9     4   21.0010000     GPS         TIME OF FIRST OBS   
  2018     3    23     9    12    2.0010000     GPS         TIME OF LAST OBS    
                                                            END OF HEADER       
 18  3 23  9  4 21.0010000  0  9G30S23G28G20S20G15G 5G 7G13
  21243284.538      159762.9722                                 
  38914181.046      119929.1502                                 
  21708880.620       94753.2802                                 
  23080094.440       70220.7542                                 
  39150613.436      122710.8242                                 
  23491464.634       55559.2012                                 
  21442442.826      173249.5262                                 
  23013036.673      171713.5852                                 
  21252633.579       79878.7872                                 
 18  3 23  9  4 22.0010000  0  9G30S23G28G20S20G15G 5G 7G13
  21244797.908      167716.5462                                 
  38915349.722      126071.9282                                 
  21709790.597       99538.2012                                 
  23080810.387       73980.7493                                 
  39151796.857      128926.6922                                 
  23492032.464       58545.0982                                 
  21443958.918      181222.6202                                 
  23014729.100      180608.9882                                 
  21253441.716       84125.6772                                 
 18  3 23  9  4 23.0010000  0  9G30S23G28G20S20G15G 5G 7G13
  21246309.166      175658.3862                                 
  38916516.514      132202.5532                                 
  21710698.811      104311.6152                                 
  23081523.246       77729.1472                                 
  39152976.684      135130.1762                                 
  23492598.601       61519.1322                                 
  21445473.737      189184.1512                                 
  23016419.520      189492.4332                                 
  21254247.567       88360.7652                                 
 18  3 23  9  4 24.0010000  0  9G30S23G28G20S20G15G 5G 7G13
  21247820.704      183601.8652                                 
  38917683.200      138334.4612                                 
  21711607.374      109086.8032                                 
  23082236.925       81479.3452                                 
  39154156.999      141334.8092                                 
  23493164.634       64494.4672                                 
  21446989.480      197147.5362                                 
  23018109.748      198377.3422                                 
  21255053.732       92597.4752                                 
 18  3 23  9  4 25.0010000  0  9G30S23G28G20S20G15G 5G 7G13
  21249330.637      191538.713                                  
  38918848.491      144459.8752                                 
  21712514.698      113856.065                                  
  23082949.243       85223.4903                                 
  39155336.198      147532.9042                                 
  23493730.073       67463.038                                  
  21448503.478      205104.942                                  
  23019799.540      207255.897                                  
  21255858.449       96828.004                                  
 18  3 23  9  4 26.0010000  0  9G30S23G28G20S20G15G 5G 7G13
  21250839.016      199464.234                                  
  38920011.792      150573.0272                                 
  21713419.858      118613.700                                  
  23083659.659       88955.9062                                 
  39156513.738      153718.9292                                 
  23494292.860       70420.096                                  
  21450015.557      213050.722                                  
  23021486.225      216122.456                                  
  21256660.758      101046.699                                  
 18  3 23  9  4 27.0010000  0  9G30S23G28S20G15G 5G20G 7G13
  21252346.087      207382.952                                  
  38921173.035      156678.9992                                 
  21714323.745      123364.719                                  
  39157688.923      159897.8432                                 
  23494853.832       73370.075                                  
  21451526.362      220989.882                                  
  23084369.446       92681.5952                                 
  23023172.545      224981.991                                  
  21257462.019      105258.484                                  
 18  3 23  9  4 28.0010000  0  9G30S23G28S20G15G 5G20G 7G13
  21253852.983      215302.246                                  
  38922334.905      162785.1752                                 
  21715227.544      128116.526                                  
  39158865.173      166077.0442                                 
  23495415.188       76320.473                                  
  21453036.888      228929.800                                  
  23085079.391       96408.0292                                 
  23024858.218      233841.908                                  
  21258263.560      109470.818                                  
 18  3 23  9  4 29.0010000  0  9G30S23G28S20G15G 5G20G 7G13
  21255358.972      223216.515                                  
  38923495.065      168885.9332                                 
  21716130.959      132863.434                                  
  39160040.096      172250.7822                                 
  23495975.916       79265.553                                  
  21454546.803      236864.872                                  
  23085787.172      100129.5432                                 
  23026542.356      242696.581                                  
  21259063.949      113678.083                                  
 18  3 23  9  4 30.0010000  0  9G30S23G28S20G15G 5G 7G20G13
  21256860.510      231110.131                                  
  38924651.858      174965.6832                                 
  21717030.099      137589.904                                  
  39161210.744      178403.2452                                 
  23496532.177       82189.829                                  
  21456052.443      244779.531                                  
  23028223.667      251530.468                                  
  23086491.532      103830.5532                                 
  21259860.517      117864.653                                  
 18  3 23  9  4 31.0010000  0  9G30S23G28S20G15G 5G 7G20G13
  21258361.404      238997.072                                  
  38925807.516      181038.3502                                 
  21717928.070      142309.885                                  
  39162380.240      184548.6372                                 
  23497087.094       85107.125                                  
  21457557.594      252687.671                                  
  23029903.041      260357.473                                  
  23087193.973      107524.9252                                 
  21260656.317      122044.467                                  
 18  3 23  9  4 32.0010000  0  9G30S23G28S20G15G 5G 7G20G13
  21259862.768      246887.327                                  
  38926963.977      187113.9702                                 
  21718826.110      147033.371                                  
  39163550.382      190697.0812                                 
  23497642.255       88027.602                                  
  21459063.041      260599.294                                  
  23031583.567      269187.561                                  
  23087897.688      111222.7162                                 
  21261451.645      126227.589                                  
 18  3 23  9  4 33.0010000  0  9G30S23G28S20G15G 5G 7G20G13
  21261364.080      254777.868                                  
  38928120.088      193189.4412                                 
  21719725.006      151757.346                                  
  39164720.035      196845.7082                                 
  23498197.922       90948.128                                  
  21460568.786      268511.415                                  
  23033263.849      278017.797                                  
  23088601.595      114920.9342                                 
  21262247.759      130410.945                                  
 18  3 23  9  4 34.0010000  0  9G30S23G28S20G15G 5G 7G20G13
  21262861.762      262651.572                                  
  38929272.518      199247.7162                                 
  21720620.568      156464.680                                  
  39165886.634      202976.9892                                 
  23498750.518       93851.608                                  
  21462070.866      276406.889                                  
  23034940.692      286830.947                                  
  23089302.256      118602.4382                                 
  21263040.121      134577.422                                  
 18  3 23  9  4 35.0010000  0  9G30S23G28S20G15G 5G 7G20G13
  21264357.089      270509.421                                  
  38930422.383      205289.7602                                 
  21721513.269      161156.355                                  
  39167050.442      209091.9442                                 
  23499300.026       96739.020                                  
  21463570.485      284286.697                                  
  23036614.622      295628.063                                  
  23089999.550      122268.1892                                 
  21263829.848      138727.995                                  
 18  3 23  9  4 36.0010000  0  9G30S23G28S20G15G 5G 7G20G13
  21265852.939      278370.542                                  
  38931572.911      211334.7122                                 
  21722406.511      165851.476                                  
  39168214.964      215209.6322                                 
  23499850.056       99629.500                                  
  21465071.081      292169.946                                  
  23038289.721      304428.251                                  
  23090698.047      125937.3672                                 
  21264620.361      142881.788                                  
 18  3 23  9  4 37.0010000  0  9G30S23G28S20G15G 5G 7G20G13
  21267350.063      286236.287                                  
  38932724.433      217383.9112                                 
  21723301.306      170551.409                                  
  39169379.627      221331.5472                                 
  23500400.716      102524.381                                  
  21466572.010      300058.015                                  
  23039964.837      313232.854                                  
  23091396.544      129610.730                                  
  21265411.501      147040.153                                  
 18  3 23  9  4 38.0010000  0  9G30S23G28S20G15G 5G 7G20G13
  21268843.610      294088.471                                  
  38933872.797      223419.1592                                 
  21724193.117      175237.989                                  
  39170541.602      227439.4522                                 
  23500948.583      105405.514                                  
  21468070.163      307932.707                                  
  23041637.545      322023.723                                  
  23092093.000      133271.193                                  
  21266200.251      151184.928                                  
 18  3 23  9  4 39.0010000  0  9G30S23G28S20G15G 5G 7G20G13
  21270335.289      301924.658                                  
  38935017.322      229438.0022                                 
  21725082.013      179908.748                                  
  39171701.099      233531.1572                                 
  23501493.413      108270.425                                  
  21469565.664      315791.602                                  
  23043307.478      330798.425                                  
  23092786.262      136915.721                                  
  21266985.895      155313.658                                  
 18  3 23  9  4 40.0010000  0  9G30S23G28S20G15G 5G 7G20G13
  21271826.550      309762.737                                  
  38936163.313      235458.3382                                 
  21725971.381      184581.595                                  
  39172860.823      239624.3882                                 
  23502038.663      111137.011                                  
  21471061.218      323652.557                                  
  23044977.412      339574.761                                  
  23093480.536      140562.259                                  
  21267771.817      159444.224                                  
 18  3 23  9  4 41.0010000  0  9G30S23G28S20G15G 5G 7G20G13
  21273319.695      317608.160                                  
  38937309.914      241485.6342                                 
  21726862.145      189261.985                                  
  39174021.350      245724.5302                                 
  23502586.024      114010.740                                  
  21472558.551      331521.072                                  
  23046648.654      348358.285                                  
  23094175.945      144216.275                                  
  21268559.241      163582.104                                  
 18  3 23  9  4 42.0010000  0  9G30S23G28S20G15G 5G 7G20G13
  21274810.851      325446.049                                  
  38938455.207      247505.0372                                 
  21727751.146      193935.027                                  
  39175180.481      251816.7832                                 
  23503131.203      116876.719                                  
  21474054.349      339382.214                                  
  23048318.378      357134.067                                  
  23094870.185      147862.881                                  
  21269345.007      167712.393                                  
 18  3 23  9  4 43.0010000  0  9G30S23G28S20G15G 5G 7G20G13
  21276299.861      333269.775                                  
  38939598.109      253509.8542                                 
  21728637.879      198594.087                                  
  39176336.558      257894.3642                                 
  23503674.202      119728.305                                  
  21475547.215      347229.391                                  
  23049985.415      365895.496                                  
  23095561.248      151495.412                                  
  21270128.452      171828.477                                  
 18  3 23  9  4 44.0010000  0  9G30S23G28S20G15G 5G 7G20G13
  21277788.068      341092.382                                  
  38940740.557      259513.1452                                 
  21729524.071      203252.237                                  
  39177492.983      263970.2132                                 
  23504216.345      122578.566                                  
  21477040.273      355075.637                                  
  23051652.504      374655.616                                  
  23096252.242      155126.950                                  
  21270911.321      175943.398                                  
 18  3 23  9  4 45.0010000  0  9G30S23G28S20G15G 5G 7G20G13
  21279278.002      348922.355                                  
  38941884.366      265523.4882                                 
  21730411.938      207917.930                                  
  39178650.125      270053.1642                                 
  23504760.286      125435.958                                  
  21478535.146      362929.439                                  
  23053320.640      383422.921                                  
  23096945.172      158765.970                                  
  21271695.691      180065.652                                  
 18  3 23  9  4 46.0010000  0  9G30S23G28S20G15G 5G 7G20G13
  21280767.693      356750.602                                  
  38943027.443      271531.6862                                 
  21731299.561      212582.074                                  
  39179807.912      276134.1482                                 
  23505303.930      128291.431                                  
  21480029.338      370781.693                                  
  23054988.392      392188.269                                  
  23097637.335      162403.358                                  
  21272480.008      184186.114                                  
 18  3 23  9  4 47.0010000  0  9G30S23G28S20G15G 5G 7G20G13
  21282255.236      364568.597                                  
  38944168.408      277529.2732                                 
  21732184.897      217236.176                                  
  39180962.226      282204.7492                                 
  23505845.026      131136.468                                  
  21481521.367      378623.892                                  
  23056654.365      400943.205                                  
  23098328.032      166030.657                                  
  21273262.145      188296.295                                  
 18  3 23  9  4 48.0010000  0  9G30S23G28S20G15G 5G 7G20G13
  21283742.257      372382.725                                  
  38945308.605      283522.5932                                 
  21733069.746      221886.602                                  
  39182115.947      288271.0292                                 
  23506385.721      133977.420                                  
  21483013.151      386462.412                                  
  23058319.046      409694.091                                  
  23099017.333      169654.135                                  
  21274043.810      192402.561                                  
 18  3 23  9  4 49.0010000  0  9G30S23G28S20G15G 5G 7G20G13
  21285230.691      380205.455                                  
  38946451.280      289524.1192                                 
  21733956.932      226545.806                                  
  39183272.181      294345.3842                                 
  23506927.865      136826.730                                  
  21484506.872      394309.714                                  
  23059985.419      418453.348                                  
  23099708.484      173286.354                                  
  21274826.941      196517.372                                  
 18  3 23  9  4 50.0010000  0  9G30S23G28S20G15G 5G 7G20G13
  21286719.421      388029.993                                  
  38947593.799      295527.0352                                 
  21734843.490      231207.020                                  
  39184428.625      300421.1322                                 
  23507470.287      139677.660                                  
  21486000.524      402159.014                                  
  23061652.334      427214.236                                  
  23100400.316      176920.480                                  
  21275609.862      200633.956                                  
 18  3 23  9  4 51.0010000  0  9G30S23G28S20G15G 5G 7G20G13
  21288207.663      395849.943                                  
  38948735.252      301524.9972                                 
  21735729.962      235863.848                                  
  39185583.620      306491.8812                                 
  23508011.960      142523.767                                  
  21487493.163      410003.917                                  
  23063318.289      435970.333                                  
  23101091.048      180550.149                                  
  21276392.208      204745.906                                  
 18  3 23  9  4 52.0010000  0  9G30S23G28S20G15G 5G 7G20G13
  21289695.835      403670.630                                  
  38949876.357      307523.3382                                 
  21736616.467      240521.613                                  
  39186739.069      312562.8202                                 
  23508553.946      145370.445                                  
  21488986.081      417849.751                                  
  23064984.872      444726.970                                  
  23101782.268      184180.669                                  
  21277174.955      208858.572                                  
 18  3 23  9  4 53.0010000  0  9G30S23G28S20G15G 5G 7G20G13
  21291185.630      411499.303                                  
  38951019.206      313529.2812                                 
  21737503.916      245187.550                                  
  39187895.774      318641.3292                                 
  23509096.840      148224.876                                  
  21490480.378      425703.759                                  
  23066652.746      453491.419                                  
  23102474.553      187819.293                                  
  21277959.098      212979.171                                  
 18  3 23  9  4 54.0010000  0  9G30S23G28S20G15G 5G 7G20G13
  21292675.774      419330.925                                  
  38952162.998      319537.7932                                 
  21738392.411      249856.626                                  
  39189052.653      324722.4402                                 
  23509640.396      151082.010                                  
  21491975.531      433560.897                                  
  23068321.074      462258.620                                  
  23103167.676      191460.977                                  
  21278743.921      217102.661                                  
 18  3 23  9  4 55.0010000  0  9G30S23G28S20G15G 5G 7G20G13
  21294165.272      427158.381                                  
  38953305.272      325541.8032                                 
  21739280.348      254521.717                                  
  39190209.707      330799.0082                                 
  23510182.679      153934.846                                  
  21493469.810      441414.064                                  
  23069988.198      471021.440                                  
  23103859.298      195098.621                                  
  21279527.366      221221.949                                  
 18  3 23  9  4 56.0010000  0  9G30S23G28S20G15G 5G 7G20G13
  21295654.369      434984.444                                  
  38954446.761      331544.0412                                 
  21740167.726      259185.637                                  
  39191365.418      336873.9432                                 
  23510725.434      156786.035                                  
  21494964.072      449266.023                                  
  23071655.567      479782.693                                  
  23104551.478      198734.990                                  
  21280310.986      225339.807                                  
 18  3 23  9  4 57.0010000  0  9G30S23G28S20G15G 5G 7G20G13
  21297145.629      442818.343                                  
  38955590.064      337553.7202                                 
  21741057.112      263857.560                                  
  39192523.327      342956.3892                                 
  23511268.606      159644.835                                  
  21496459.870      457126.005                                  
  23073323.877      488551.573                                  
  23105244.880      202379.283                                  
  21281095.617      229465.457                                  
 18  3 23  9  4 58.0010000  0  9G30S23G28S20G15G 5G 7G20G13
  21298636.803      450657.240                                  
  38956734.711      343567.9572                                 
  21741946.985      268534.684                                  
  39193681.236      349043.3402                                 
  23511813.978      162508.429                                  
  21497956.453      464991.179                                  
  23074993.444      497325.275                                  
  23105939.259      206028.702                                  
  21281881.994      233596.051                                  
 18  3 23  9  4 59.0010000  0  9G30S23G28S20G15G 5G 7G20G13
  21300125.847      458483.307                                  
  38957876.549      349569.0392                                 
  21742834.713      273199.162                                  
  39194836.563      355116.9182                                 
  23512356.453      165358.983                                  
  21499450.017      472843.712                                  
  23076660.429      506085.944                                  
  23106630.776      209665.388                                  
  21282665.177      237713.780                                  
 18  3 23  9  5  0.0010000  0  9G30S23G28S20G15G 5G 7G20G13
  21301613.095      466297.966                                  
  38959016.467      355558.3142                                 
  21743720.294      277852.435                                  
  39195990.057      361178.7582                                 
  23512896.712      168197.920                                  
  21500942.220      480685.040                                  
  23078325.947      514835.033                                  
  23107320.950      213290.837                                  
  21283446.580      241820.065                                  
 18  3 23  9  5  1.0010000  0  9G30S23G28S20G15G 5G 7G20G13
  21303101.406      474119.437                                  
  38960157.153      361553.9862                                 
  21744607.009      282512.697                                  
  39197145.349      367247.1192                                 
  23513437.389      171043.445                                  
  21502435.592      488533.333                                  
  23079992.199      523590.704                                  
  23108011.560      216923.139                                  
  21284228.472      245933.097                                  
 18  3 23  9  5  2.0010000  0  9G30S23G28S20G15G 5G 7G20G13
  21304591.602      481950.274                                  
  38961299.845      367558.6672                                 
  21745495.819      287182.545                                  
  39198302.141      373324.5382                                 
  23513980.545      173898.135                                  
  21503931.251      496391.211                                  
  23081659.794      532355.565                                  
  23108704.229      220564.972                                  
  21285013.837      250055.466                                  
 18  3 23  9  5  3.0000000  0  9G30S23G28S20G15G 5G 7G20G13
  21006287.406      489773.111                                  
  38662648.163      373554.9542                                 
  21446590.079      291844.573                                  
  38899664.838      379393.5542                                 
  23214729.186      176744.642                                  
  21205632.150      504241.270                                  
  22783533.293      541112.220                                  
  22809603.919      224198.930                                  
  20986003.657      254169.790                                  
 18  3 23  9  5  4.0000000  0  9G30S23G28S20G15G 5G 7G20G13
  21007774.060      497584.491                                  
  38663787.104      379539.4332                                 
  21447475.206      296495.341                                  
  38900817.006      385450.7262                                 
  23215268.642      179579.467                                  
  21207124.039      512080.049                                  
  22785197.416      549857.212                                  
  22810293.569      227821.544                                  
  20986784.450      258272.608                                  
 18  3 23  9  5  5.0000000  0  9G30S23G28S20G15G 5G 7G20G13
  21009261.255      505400.776                                  
  38664926.533      385528.3812                                 
  21448361.346      301151.204                                  
  38901970.605      391512.2272                                 
  23215808.831      182418.982                                  
  21208617.080      519923.934                                  
  22786862.743      558606.935                                  
  22810983.603      231449.160                                  
  20987566.342      262380.288                                  
 18  3 23  9  5  6.0000000  0  9G30S23G28S20G15G 5G 7G20G13
  21010750.788      513228.456                                  
  38666068.022      391528.3692                                 
  21449249.300      305818.646                                  
  38903126.071      397584.6022                                 
  23216350.835      185269.667                                  
  21210111.883      527779.389                                  
  22788529.936      567367.857                                  
  22811676.080      235088.295                                  
  20988350.275      266499.328                                  
 18  3 23  9  5  7.0000000  0  9G30S23G28S20G15G 5G 7G20G13
  21012240.321      521052.993                                  
  38667209.057      397524.8292                                 
  21450136.853      310483.144                                  
  38904280.648      403653.6542                                 
  23216892.367      188117.034                                  
  21211605.813      535631.893                                  
  22790196.328      576125.438                                  
  22812368.016      238724.390                                  
  20989133.110      270615.178                                  
 18  3 23  9  5  8.0000000  0  9G30S23G28S20G15G 5G 7G20G13
  21013727.237      528868.051                                  
  38668348.504      403511.4422                                 
  21451022.556      315138.350                                  
  38905433.723      409713.0272                                 
  23217432.539      190954.680                                  
  21213098.906      543475.093                                  
  22791860.764      584873.324                                  
  22813058.242      242351.123                                  
  20989914.408      274721.492                                  
 18  3 23  9  5  9.0000000  0  9G30S23G28S20G15G 5G 7G20G13
  21015214.763      536686.339                                  
  38669488.247      409500.8852                                 
  21451909.097      319797.002                                  
  38906587.776      415775.3192                                 
  23217972.798      193795.364                                  
  21214592.052      551321.739                                  
  22793525.829      593624.287                                  
  22813749.009      245981.224                                  
  20990696.579      278831.018                                  
 18  3 23  9  5 10.0000000  0  9G30S23G28S20G15G 5G 7G20G13
  21016705.012      544516.943                                  
  38670630.538      415502.2912                                 
  21452797.767      324468.151                                  
  38907743.399      421849.4952                                 
  23218515.464      196648.165                                  
  21216087.448      559180.867                                  
  22795193.738      602387.354                                  
  22814442.027      249623.760                                  
  20991481.193      282952.806                                  
 18  3 23  9  5 11.0000000  0  9G30S23G28S20G15G 5G 7G20G13
  21018195.749      552349.730                                  
  38671773.405      421505.4792                                 
  21453687.152      329141.686                                  
  38908899.354      427925.3482                                 
  23219058.969      199502.910                                  
  21217583.176      567042.369                                  
  22796861.421      611152.407                                  
  22815135.900      253268.603                                  
  20992265.773      287076.739                                  
 18  3 23  9  5 12.0000000  0  9G30S23G28S20G15G 5G 7G20G13
  21019685.492      560176.766                                  
  38672914.248      427502.5992                                 
  21454574.967      333809.672                                  
  38910054.296      433994.8122                                 
  23219600.693      202351.736                                  
  21219077.822      574898.320                                  
  22798528.161      619911.536                                  
  22815828.726      256907.804                                  
  20993049.253      291194.888                                  
 18  3 23  9  5 13.0000000  0  9G30S23G28S20G15G 5G 7G20G13
  21021175.269      568007.310                                  
  38674056.243      433502.7742                                 
  21455463.829      338481.326                                  
  38911209.832      440067.4012                                 
  23220143.692      205203.817                                  
  21220573.480      582757.955                                  
  22800195.826      628673.959                                  
  22816522.215      260550.630                                  
  20993833.727      295316.483                                  
 18  3 23  9  5 14.0000000  0  9G30S23G28S20G15G 5G 7G20G13
  21022667.629      575850.293                                  
  38675200.314      439515.0172                                 
  21456355.413      343165.644                                  
  38912367.846      446152.4212                                 
  23220688.400      208068.166                                  
  21222071.756      590630.207                                  
  22801865.306      637448.631                                  
  22817217.344      264205.989                                  
  20994620.243      299450.479                                  
 18  3 23  9  5 15.0000000  0  9G30S23G28S20G15G 5G 7G20G13
  21024161.071      583698.625                                  
  38676345.153      445532.2152                                 
  21457247.450      347855.492                                  
  38913527.640      452242.3202                                 
  23221234.488      210937.643                                  
  21223570.712      598508.007                                  
  22803536.496      646228.465                                  
  22817913.346      267866.830                                  
  20995407.667      303589.780                                  
 18  3 23  9  5 16.0000000  0  9G30S23G28S20G15G 5G 7G20G13
  21025654.635      591546.548                                  
  38677490.062      451548.6632                                 
  21458139.837      352545.105                                  
  38914685.602      458331.4302                                 
  23221780.365      213806.472                                  
  21225069.878      606385.589                                  
  22805207.668      655007.686                                  
  22818609.994      271527.352                                  
  20996195.370      307728.635                                  
 18  3 23  9  5 17.0000000  0  9G30S23G28S20G15G 5G 7G20G13
  21027148.828      599398.289                                  
  38678635.669      457568.4422                                 
  21459032.835      357238.758                                  
  38915845.936      464424.1432                                 
  23222326.836      216678.958                                  
  21226570.056      614267.175                                  
  22806879.120      663790.510                                  
  22819307.671      275191.862                                  
  20996983.840      311871.275                                  
 18  3 23  9  5 18.0000000  0  9G30S23G28S20G15G 5G 7G20G13
  21028645.254      607261.111                                  
  38679782.602      463598.9862                                 
  21459927.734      361943.706                                  
  38917007.126      470527.4802                                 
  23222875.576      219562.303                                  
  21228071.315      622160.047                                  
  22808552.473      672584.250                                  
  22820006.901      278867.581                                  
  20997774.649      316024.971                                  
 18  3 23  9  5 19.0000000  0  9G30S23G28S20G15G 5G 7G20G13
  21030142.517      615129.489                                  
  38680931.699      469634.6752                                 
  21460824.623      366654.369                                  
  38918169.311      476635.6612                                 
  23223425.327      222450.970                                  
  21229575.001      630058.643                                  
  22810226.926      681383.332                                  
  22820707.649      282548.920                                  
  20998566.261      320184.157                                  
 18  3 23  9  5 20.0000000  0  9G30S23G28S20G15G 5G 7G20G13
  21031639.606      622996.506                                  
  38682079.609      475668.5872                                 
  21461720.500      371363.891                                  
  38919330.815      482742.0532                                 
  23223974.817      225338.078                                  
  21231077.517      637956.071                                  
  22811900.961      690180.866                                  
  22821408.049      286229.029                                  
  20999357.244      324341.962                                  
 18  3 23  9  5 21.0000000  0  9G30S23G28S20G15G 5G 7G20G13
  21033136.818      630865.332                                  
  38683227.781      481703.9392                                 
  21462616.935      376075.416                                  
  38920492.894      488849.8822                                 
  23224524.691      228226.806                                  
  21232580.242      645855.492                                  
  22813575.484      698980.016                                  
  22822109.233      289911.062                                  
  21000148.647      328501.520                                  
 18  3 23  9  5 22.0000000  0  9G30S23G28S20G15G 5G 7G20G13
  21034636.472      638745.005                                  
  38684378.221      487749.7972                                 
  21463515.796      380797.970                                  
  38921656.929      494968.2882                                 
  23225075.560      231126.172                                  
  21234085.480      653765.963                                  
  22815251.874      707789.793                                  
  22822811.657      293604.078                                  
  21000942.352      332671.890                                  
 18  3 23  9  5 23.0000000  0  9G30S23G28S20G15G 5G 7G20G13
  21036137.208      646632.442                                  
  38685530.005      493803.0052                                 
  21464415.791      385528.493                                  
  38922822.673      501094.1192                                 
  23225628.470      234033.075                                  
  21235592.569      661684.379                                  
  22816929.415      716607.157                                  
  22823516.419      297304.973                                  
  21001737.664      336849.983                                  
 18  3 23  9  5 24.0000000  0  9G30S23G28S20G15G 5G 7G20G13
  21037637.578      654517.425                                  
  38686681.458      499853.4122                                 
  21465315.646      390256.760                                  
  38923988.208      507217.1532                                 
  23226181.083      236937.338                                  
  21237098.714      669600.520                                  
  22818606.975      725421.889                                  
  22824220.064      301003.537                                  
  21002532.434      341025.602                                  
 18  3 23  9  5 25.0000000  0  9G30S23G28S20G15G 5G 7G20G13
  21039136.778      662395.142                                  
  38687831.986      505896.1862                                 
  21466214.053      394977.936                                  
  38925151.544      513332.6552                                 
  23226732.912      239834.125                                  
  21238604.249      677509.583                                  
  22820282.876      734229.145                                  
  22824923.064      304694.933                                  
  21003325.459      345193.898                                  
 18  3 23  9  5 26.0000000  0  9G30S23G28S20G15G 5G 7G20G13
  21040638.073      670283.410                                  
  38688983.543      511949.0772                                 
  21467114.519      399709.881                                  
  38926316.434      519458.2872                                 
  23227286.171      242741.254                                  
  21240111.145      685429.389                                  
  22821959.912      743046.777                                  
  22825627.738      308397.020                                  
  21004120.473      349372.702                                  
 18  3 23  9  5 27.0000000  0  9G30S23G28S20G15G 5G 7G20G13
  21042140.955      678182.021                                  
  38690137.282      518011.8882                                 
  21468016.783      404452.346                                  
  38927483.696      525593.6952                                 
  23227841.105      245658.504                                  
  21241620.083      693359.719                                  
  22823639.792      751874.531                                  
  22826334.524      312109.570                                  
  21004917.669      353561.815                                  
 18  3 23  9  5 28.0000000  0  9G30S23G28S20G15G 5G 7G20G13
  21043642.407      686073.267                                  
  38691289.258      524066.9142                                 
  21468918.261      409187.652                                  
  38928649.754      531721.3792                                 
  23228394.870      248568.202                                  
  21243127.485      701282.875                                  
  22825318.451      760694.745                                  
  22827039.478      315814.856                                  
  21005713.259      357743.517                                  
 18  3 23  9  5 29.0000000  0  9G30S23G28S20G15G 5G 7G20G13
  21045142.271      693955.148                                  
  38692439.978      530112.2382                                 
  21469817.680      413913.798                                  
  38929814.295      537839.3962                                 
  23228946.838      251468.327                                  
  21244633.910      709196.871                                  
  22826994.980      769505.392                                  
  22827742.251      319510.929                                  
  21006507.576      361915.820                                  
 18  3 23  9  5 30.0000000  0  9G30S23G28S20G15G 5G 7G20G13
  21046643.356      701845.495                                  
  38693591.936      536165.6932                                 
  21470719.036      418648.609                                  
  38930979.847      543965.2872                                 
  23229500.289      254376.704                                  
  21246141.260      717119.523                                  
  22828673.080      778324.327                                  
  22828446.943      323215.571                                  
  21007302.800      366096.564                                  
 18  3 23  9  5 31.0000000  0  9G30S23G28S20G15G 5G 7G20G13
  21048147.809      709750.019                                  
  38694746.704      542232.9332                                 
  21471622.661      423397.765                                  
  38932148.087      550104.8652                                 
  23230056.829      257299.071                                  
  21247651.978      725056.524                                  
  22830353.798      787157.237                                  
  22829155.108      326934.509                                  
  21008101.217      370291.418                                  
 18  3 23  9  5 32.0000000  0  9G30S23G28S20G15G 5G 7G20G13
  21049651.983      717652.351                                  
  38695900.460      548297.5732                                 
  21472526.303      428144.950                                  
  38933316.030      556242.1812                                 
  23230612.269      260219.013                                  
  21249161.648      732991.515                                  
  22832033.975      795987.746                                  
  22829862.644      330651.355                                  
  21008899.373      374484.063                                  
 18  3 23  9  5 33.0000000  0  9G30S23G28S20G15G 5G 7G20G13
  21051153.975      725547.081                                  
  38697052.576      554354.2532                                 
  21473428.078      432884.744                                  
  38934482.158      562371.7222                                 
  23231166.576      263131.186                                  
  21250670.115      740919.107                                  
  22833712.424      804810.473                                  
  22830568.593      334360.759                                  
  21009695.068      378669.056                                  
 18  3 23  9  5 34.0000000  0  9G30S23G28S20G15G 5G 7G20G13
  21052657.730      733448.464                                  
  38698206.454      560417.2012                                 
  21474331.685      437631.353                                  
  38935650.101      568507.3502                                 
  23231722.208      266049.741                                  
  21252179.821      748853.526                                  
  22835392.618      813639.656                                  
  22831275.589      338076.896                                  
  21010492.804      382860.642                                  
 18  3 23  9  5 35.0000000  0  9G30S23G28S20G15G 5G 7G20G13
  21054164.051      741364.840                                  
  38699362.950      566494.7072                                 
  21475238.014      442393.160                                  
  38936821.116      574657.4882                                 
  23232280.423      268983.104                                  
  21253692.964      756803.132                                  
  22837076.006      822483.653                                  
  22831985.516      341808.151                                  
  21011293.228      387067.211                                  
 18  3 23  9  5 36.0000000  0  9G30S23G28S20G15G 5G 7G20G13
  21055670.947      749282.563                                  
  38700519.917      572573.2382                                 
  21476144.169      447156.527                                  
  38937991.746      580808.6722                                 
  23232838.987      271918.1293                                 
  21255206.439      764754.268                                  
  22838759.027      831328.792                                  
  22832696.176      345540.886                                  
  21012094.054      391275.079                                  
 18  3 23  9  5 37.0000000  0  9G30S23G28S20G15G 5G 7G20G13
  21057176.168      757192.495                                  
  38701675.034      578643.5752                                 
  21477049.120      451912.274                                  
  38939160.387      586951.4822                                 
  23233395.562      274844.6572                                 
  21256717.331      772697.798                                  
  22840440.478      840165.935                                  
  22833404.498      349265.944                                  
  21012893.204      395475.117                                  
 18  3 23  9  5 38.0000000  0  9G30S23G28S20G15G 5G 7G20G13
  21058682.244      765107.274                                  
  38702831.582      584718.4522                                 
  21477955.222      456673.088                                  
  38940330.546      593098.7892                                 
  23233953.079      277775.8302                                 
  21258229.811      780646.375                                  
  22842123.377      849007.740                                  
  22834114.530      352995.992                                  
  21013693.453      399679.975                                  
 18  3 23  9  5 39.0000000  0  9G30S23G28S20G15G 5G 7G20G13
  21060191.775      773036.256                                  
  38703990.312      590807.1052                                 
  21478863.524      461448.292                                  
  38941502.747      599260.0122                                 
  23234512.829      280721.0092                                 
  21259745.572      788609.331                                  
  22843808.509      857863.559                                  
  22834826.498      356740.359                                  
  21014495.849      403898.997                                  
 18  3 23  9  5 40.0000000  0  9G30S23G28S20G15G 5G 7G20G13
  21061701.306      780970.331                                  
  38705149.163      596900.4542                                 
  21479773.814      466228.784                                  
  38942676.536      605425.8292                                 
  23235074.046      283671.0672                                 
  21261261.682      796577.576                                  
  22845494.829      866724.263                                  
  22835540.474      360489.931                                  
  21015299.920      408123.069                                  
 18  3 23  9  5 41.0000000  0  9G30S23G28S20G15G 5G 7G20G13
  21063210.628      788901.601                                  
  38706307.997      602990.6472                                 
  21480682.849      471006.662                                  
  38943848.789      611588.6282                                 
  23235634.791      286618.1452                                 
  21262777.355      804543.198                                  
  22847179.822      875581.975                                  
  22836253.577      364236.831                                  
  21016103.067      412344.293                                  
 18  3 23  9  5 42.0000000  0  9G30S23G28S20G15G 5G 7G20G13
  21064720.874      796839.358                                  
  38707468.576      609086.9512                                 
  21481593.174      475791.207                                  
  38945022.491      617757.5932                                 
  23236196.932      289571.4932                                 
  21264294.285      812515.497                                  
  22848866.909      884445.992                                  
  22836967.605      367990.350                                  
  21016907.295      416571.986                                  
 18  3 23  9  5 43.0000000  0  9G30S23G28S20G15G 5G 7G20G13
  21066234.192      804791.054                                  
  38708631.232      615196.8182                                 
  21482506.379      480589.903                                  
  38946199.177      623940.0842                                 
  23236762.058      292538.056                                  
  21265814.007      820501.954                                  
  22850556.142      893323.767                                  
  22837684.321      371757.939                                  
  21017714.961      420813.579                                  
 18  3 23  9  5 44.0000000  0  9G30S23G28S20G15G 5G 7G20G13
  21067748.504      812750.278                                  
  38709795.475      621313.8042                                 
  21483421.381      485396.330                                  
  38947376.857      630129.6232                                 
  23237327.881      295512.483                                  
  21267334.933      828496.100                                  
  22852247.016      902208.814                                  
  22838402.362      375533.158                                  
  21018523.290      425062.656                                  
 18  3 23  9  5 45.0000000  0  9G30S23G28S20G15G 5G 7G20G13
  21069263.148      820710.199                                  
  38710959.527      627431.1102                                 
  21484335.197      490203.603                                  
  38948554.904      636319.5352                                 
  23237893.286      298487.351                                  
  21268855.964      836491.131                                  
  22853938.623      911094.377                                  
  22839120.613      379309.165                                  
  21019331.706      429312.379                                  
 18  3 23  9  5 46.0000000  0  9G30S23G28S20G15G 5G 7G20G13
  21070779.398      828676.888                                  
  38712125.114      633554.7272                                 
  21485251.857      495017.871                                  
  38949733.875      642515.8132                                 
  23238460.226      301468.772                                  
  21270378.461      844493.101                                  
  22855631.154      919986.539                                  
  22839839.876      383092.075                                  
  21020142.146      433568.817                                  
 18  3 23  9  5 47.0000000  0  9G30S23G28S20G15G 5G 7G20G13
  21072298.143      836657.260                                  
  38713292.691      639691.7072                                 
  21486171.256      499846.022                                  
  38950915.342      648725.3592                                 
  23239031.110      304463.664                                  
  21271903.941      852508.960                                  
  22857325.780      928892.188                                  
  22840562.071      386888.793                                  
  21020954.646      437838.910                                  
 18  3 23  9  5 48.0000000  0  9G30S23G28S20G15G 5G 7G20G13
  21073817.899      844645.429                                  
  38714461.733      645836.1292                                 
  21487091.528      504682.185                                  
  38952098.188      654942.2852                                 
  23239602.726      307466.174                                  
  21273430.643      860532.809                                  
  22859021.714      937805.461                                  
  22841285.976      390693.440                                  
  21021768.524      442116.789                                  
 18  3 23  9  5 49.0000000  0  9G30S23G28S20G15G 5G 7G20G13
  21075337.761      852633.707                                  
  38715629.903      651980.2262                                 
  21488011.800      509518.630                                  
  38953281.033      661159.0442                                 
  23240173.872      310468.591                                  
  21274957.206      868556.936                                  
  22860717.753      946718.599                                  
  22842010.230      394498.307                                  
  21022582.437      446394.717                                  
 18  3 23  9  5 50.0000000  0  9G30S23G28S20G15G 5G 7G20G13
  21076859.437      860627.043                                  
  38716800.237      658129.0502                                 
  21488933.765      514360.358                                  
  38954465.066      667380.2992                                 
  23240745.977      313475.808                                  
  21276485.601      876586.320                                  
  22862415.101      955636.652                                  
  22842735.181      398308.379                                  
  21023397.607      450677.682                                  
 18  3 23  9  5 51.0000000  0  9G30S23G28S20G15G 5G 7G20G13
  21078382.859      868632.809                                  
  38717972.700      664289.9202                                 
  21489857.737      519214.717                                  
  38955651.297      673613.8412                                 
  23241320.945      316495.311                                  
  21278016.055      884628.321                                  
  22864114.961      964566.939                                  
  22843462.297      402131.006                                  
  21024215.045      454973.040                                  
 18  3 23  9  5 52.0000000  0  9G30S23G28S20G15G 5G 7G20G13
  21079907.921      876646.077                                  
  38719145.913      670457.9172                                 
  21490782.441      524076.793                                  
  38956838.958      679854.4662                                 
  23241897.238      319522.098                                  
  21279547.241      892678.038                                  
  22865815.258      973504.531                                  
  22844191.489      405961.254                                  
  21025034.071      459275.853                                  
 18  3 23  9  5 53.0000000  0  9G30S23G28S20G15G 5G 7G20G13
  21081432.250      884659.380                                  
  38720319.231      676625.4522                                 
  21491707.181      528939.071                                  
  38958025.713      686094.6972                                 
  23242472.781      322548.721                                  
  21281078.481      900727.944                                  
  22867516.148      982441.934                                  
  22844921.240      409791.607                                  
  21025852.678      463578.658                                  
 18  3 23  9  5 54.0000000  0  9G30S23G28S20G15G 5G 7G20G13
  21082958.306      892677.350                                  
  38721494.520      682797.4042                                 
  21492633.648      533806.231                                  
  38959214.020      692339.0352                                 
  23243049.930      325579.761                                  
  21282611.535      908782.725                                  
  22869217.859      991383.837                                  
  22845651.706      413626.843                                  
  21026672.751      467886.133                                  
 18  3 23  9  5 55.0000000  0  9G30S23G28S20G15G 5G 7G20G13
  21084486.491      900707.777                                  
  38722671.485      688981.3932                                 
  21493562.366      538686.053                                  
  38960404.230      698595.5092                                 
  23243629.294      328623.096                                  
  21284146.752      916850.140                                  
  22870921.070     1000338.005                                  
  22846384.598      417474.653                                  
  21027493.923      472205.989                                  
 18  3 23  9  5 56.0000000  0  9G30S23G28S20G15G 5G 7G20G13
  21086016.282      908747.548                                  
  38723849.462      695174.3712                                 
  21494492.811      543575.407                                  
  38961596.429      704860.9672                                 
  23244209.828      331675.499                                  
  21285683.628      924927.103                                  
  22872627.073     1009301.302                                  
  22847118.589      421332.4323                                 
  21028318.149      476535.182                                  
 18  3 23  9  5 57.0000000  0  9G30S23G28S20G15G 5G 7G20G13
  21087545.986      916787.692                                  
  38725027.980      701367.3112                                 
  21495423.623      548465.316                                  
  38962789.064      711126.3742                                 
  23244790.310      334728.129                                  
  21287220.765      933004.610                                  
  22874332.570     1018264.779                                  
  22847852.266      425190.1512                                 
  21029141.904      480864.674                                  
 18  3 23  9  5 58.0000000  0  9G30S23G28S20G15G 5G 7G20G13
  21089077.138      924831.283                                  
  38726207.213      707563.2962                                 
  21496355.081      553358.881                                  
  38963981.873      717394.9302                                 
  23245372.205      337783.991                                  
  21288759.368      941085.751                                  
  22876039.236     1027231.503                                  
  22848585.978      429051.4802                                 
  21029966.881      485197.603                                  
 18  3 23  9  5 59.0000000  0  9G30S23G28S20G15G 5G 7G20G13
  21090609.982      932887.068                                  
  38727388.576      713771.0772                                 
  21497288.319      558264.842                                  
  38965176.585      723675.2512                                 
  23245956.385      340851.880                                  
  21290299.245      949179.279                                  
  22877747.839     1036210.232                                  
  22849322.831      432925.0462                                 
  21030794.178      489542.666                                  
 18  3 23  9  6  0.0000000  0  9G30S23G28S20G15G 5G 7G20G13
  21092144.938      940952.811                                  
  38728571.945      719988.4492                                 
  21498224.471      563180.964                                  
  38966373.705      729965.2002                                 
  23246541.997      343929.491                                  
  21291841.356      957282.942                                  
  22879458.414     1045198.738                                  
  22850061.428      436808.7942                                 
  21031622.680      493897.638                                  
 18  3 23  9  6  1.0000000  0  9G30S23G28S20G15G 5G 7G20G13
  21093678.237      949011.735                                  
  38729752.591      726198.6762                                 
  21499157.987      568090.477                                  
  38967569.656      736247.7952                                 
  23247125.742      347000.082                                  
  21293381.809      965379.983                                  
  22881167.541     1054180.221                                  
  22850799.259      440685.8182                                 
  21032450.029      498245.858                                  
 18  3 23  9  6  2.0000000  0  9G30S23G28S20G15G 5G 7G20G13
  21095210.697      957064.211                                  
  38730933.605      732402.0742                                 
  21500090.544      572993.735                                  
  38968764.001      742523.4292                                 
  23247708.963      350064.099                                  
  21294921.599      973470.782                                  
  22882875.376     1063155.086                                  
  22851535.937      444556.5062                                 
  21033275.948      502587.574                                  
 18  3 23  9  6  3.0000000  0  9G30S23G28S20G15G 5G 7G20G13
  21096745.409      965129.612                                  
  38732116.328      738617.9662                                 
  21501026.155      577910.110                                  
  38969960.650      748811.6782                                 
  23248294.278      353140.678                                  
  21296463.919      981574.666                                  
  22884585.428     1072142.641                                  
  22852275.303      448440.2062                                 
  21034104.921      506942.027                                  
 18  3 23  9  6  4.0000000  0  9G30S23G28S20G15G 5G 7G20G13
  21098283.017      973209.342                                  
  38733301.564      744847.8412                                 
  21501964.750      582841.007                                  
  38971159.811      755114.1332                                 
  23248882.194      356231.9803                                 
  21298009.048      989693.070                                  
  22886298.237     1081144.349                                  
  22853017.530      452338.3932                                 
  21034936.738      511310.852                                  
 18  3 23  9  6  5.0000000  0  9G30S23G28S20G15G 5G 7G20G13
  21099819.579      981285.468                                  
  38734486.347      751073.6932                                 
  21502902.403      587768.519                                  
  38972358.868      761412.7632                                 
  23249469.830      359319.0223                                 
  21299552.782      997808.064                                  
  22888010.661     1090142.284                                  
  22853758.885      456233.1232                                 
  21035767.490      515676.056                                  
 18  3 23  9  6  6.0000000  0  9G30S23G28S20G15G 5G 7G20G13
  21101355.826      989356.990                                  
  38735669.856      757294.5662                                 
  21503839.846      592691.645                                  
  38973556.424      767706.5052                                 
  23250056.087      362401.2512                                 
  21301096.219     1005918.636                                  
  22889722.702     1099135.404                                  
  22854498.426      460123.3472                                 
  21036596.969      520036.641                                  
 18  3 23  9  6  7.0000000  0  9G30S23G28S20G15G 5G 7G20G13
  21102893.976      997441.060                                  
  38736855.964      763527.6792                                 
  21504778.668      597627.490                                  
  38974756.266      774012.1362                                 
  23250644.317      365495.8022                                 
  21302642.308     1014041.953                                  
  22891437.029     1108140.898                                  
  22855240.688      464025.777                                  
  21037429.623      524409.677                                  
 18  3 23  9  6  8.0000000  0  9G30S23G28S20G15G 5G 7G20G13
  21104435.493     1005540.944                                  
  38738044.568      769776.1842                                 
  21505721.136      602579.366                                  
  38975959.162      780332.8812                                 
  23251236.123      368605.9232                                 
  21304190.962     1022181.259                                  
  22893153.345     1117162.003                                  
  22855986.563      467944.606                                  
  21038265.210      528798.500                                  
 18  3 23  9  6  9.0000000  0  9G30S23G28S20G15G 5G 7G20G13
  21105976.138     1013640.326                                  
  38739233.801      776023.8702                                 
  21506663.361      607530.945                                  
  38977161.569      786652.6662                                 
  23251827.372      371715.3823                                 
  21305739.652     1030320.263                                  
  22894869.626     1126182.410                                  
  22856732.088      471863.082                                  
  21039100.499      533186.801                                  
 18  3 23  9  6 10.0000000  0  9G30S23G28S20G15G 5G 7G20G13
  21107516.853     1021734.197                                  
  38740421.009      782265.5682                                 
  21507604.922      612477.192                                  
  38978362.563      792966.6652                                 
  23252418.637      374819.1302                                 
  21307287.713     1038453.937                                  
  22896584.634     1135197.123                                  
  22857476.392      475776.166                                  
  21039934.253      537569.578                                  
 18  3 23  9  6 11.0000000  0  9G30S23G28S20G15G 5G 7G20G13
  21109058.701     1029837.798                                  
  38741610.869      788516.6892                                 
  21508548.229      617433.380                                  
  38979565.180      799290.1802                                 
  23253011.194      377932.3372                                 
  21308837.449     1046597.514                                  
  22898302.171     1144221.341                                  
  22858222.354      479699.124                                  
  21040769.595      541962.022                                  
 18  3 23  9  6 12.0000000  0  9G30S23G28S20G15G 5G 7G20G13
  21110604.023     1037956.983                                  
  38742803.801      794782.9732                                 
  21509494.205      622405.363                                  
  38980772.229      805628.9212                                 
  23253606.578      381061.0352                                 
  21310390.449     1054756.887                                  
  22900022.362     1153260.966                                  
  22858971.370      483637.732                                  
  21041608.288      546370.017                                  
 18  3 23  9  6 13.0000000  0  9G30S23G28S20G15G 5G 7G20G13
  21112148.960     1046077.298                                  
  38743996.070      801050.0532                                 
  21510440.670      627378.663                                  
  38981978.911      811968.3692                                 
  23254201.544      384190.5833                                 
  21311943.012     1062917.548                                  
  22901743.180     1162301.532                                  
  22859721.119      487577.671                                  
  21042447.259      550779.056                                  
 18  3 23  9  6 14.0000000  0  9G30S23G28S20G15G 5G 7G20G13
  21113693.601     1054192.423                                  
  38745187.588      807311.5122                                 
  21511385.966      632346.972                                  
  38983183.727      818302.2682                                 
  23254796.893      387314.6982                                 
  21313495.907     1071073.212                                  
  22903461.939     1171336.709                                  
  22860470.291      491512.494                                  
  21043284.346      555182.877                                  
 18  3 23  9  6 15.0000000  0  9G30S23G28S20G15G 5G 7G20G13
  21115239.411     1062316.798                                  
  38746381.916      813581.7992                                 
  21512332.745      637324.739                                  
  38984389.903      824645.0802                                 
  23255393.516      390447.9852                                 
  21315049.465     1079238.332                                  
  22905183.386     1180380.919                                  
  22861221.715      495456.685                                  
  21044124.120      559595.928                                  
 18  3 23  9  6 16.0000000  0  9G30S23G28S20G15G 5G 7G20G13
  21116788.555     1070456.368                                  
  38747578.076      819866.9152                                 
  21513283.188      642317.904                                  
  38985599.605      831002.7812                                 
  23255992.494      393596.2402                                 
  21316606.408     1087418.813                                  
  22906907.275     1189440.183                                  
  22861976.123      499416.146                                  
  21044966.948      564024.203                                  
 18  3 23  9  6 17.0000000  0  9G30S23G28S20G15G 5G 7G20G13
  21118338.012     1078598.681                                  
  38748774.742      826154.4162                                 
  21514234.173      647314.032                                  
  38986810.161      837362.7262                                 
  23256592.101      396747.0022                                 
  21318163.509     1095602.260                                  
  22908631.514     1198501.927                                  
  22862730.182      503378.631                                  
  21045810.056      568455.211                                  
 18  3 23  9  6 18.0000000  0  9G30S23G28S20G15G 5G 7G20G13
  21119887.120     1086739.895                                  
  38749970.501      832440.4332                                 
  21515184.739      652309.264                                  
  38988019.950      843721.2372                                 
  23257191.080      399896.4962                                 
  21319721.272     1103784.808                                  
  22910355.997     1207562.463                                  
  22863483.071      507340.085                                  
  21046652.831      572885.025                                  
 18  3 23  9  6 19.0000000  0  9G30S23G28S20G15G 5G 7G20G13
  21121438.654     1094890.791                                  
  38751168.214      838735.7162                                 
  21516137.398      657314.321                                  
  38989231.379      850088.9562                                 
  23257792.746      403055.4262                                 
  21321280.170     1111977.169                                  
  22912082.155     1216632.381                                  
  22864239.242      511311.325                                  
  21047497.719      577324.469                                  
 18  3 23  9  6 20.0000000  0  9G30S23G28S20G15G 5G 7G20G13
  21122992.718     1103057.697                                  
  38752368.370      845046.6952                                 
  21517092.920      662335.659                                  
  38990446.350      856472.2672                                 
  23258396.838      406230.1622                                 
  21322842.593     1120185.774                                  
  22913810.686     1225718.202                                  
  22864998.117      515298.725                                  
  21048345.677      581779.961                                  
 18  3 23  9  6 21.0000000  0  9G30S23G28S20G15G 5G 7G20G13
  21124548.370     1111233.827                                  
  38753571.127      851366.5222                                 
  21518050.274      667366.394                                  
  38991663.014      862864.4552                                 
  23259002.413      409413.9482                                 
  21324406.342     1128403.778                                  
  22915541.207     1234813.032                                  
  22865758.126      519295.450                                  
  21049195.206      586244.595                                  
 18  3 23  9  6 22.0000000  0  9G30S23G28S20G15G 5G 7G20G13
  21126104.406     1119412.637                                  
  38754773.918      857688.5642                                 
  21519008.064      672400.005                                  
  38992880.184      869259.2052                                 
  23259608.773      412600.2153                                 
  21325970.806     1136624.638                                  
  22917273.019     1243910.350                                  
  22866519.060      523294.990                                  
  21050044.735      590711.890                                  
 18  3 23  9  6 23.0000000  0  9G30S23G28S20G15G 5G 7G20G13
  21127663.181     1127600.182                                  
  38755978.192      864019.0072                                 
  21519967.512      677442.540                                  
  38994098.855      875662.1372                                 
  23260216.686      415794.9832                                 
  21327536.963     1144854.413                                  
  22919006.122     1253016.165                                  
  22867282.281      527303.380                                  
  21050896.742      595187.854                                  
 18  3 23  9  6 24.0000000  0  9G30S23G28S20G15G 5G 7G20G13
  21129223.527     1135801.354                                  
  38757186.044      870362.7032                                 
  21520929.420      682498.920                                  
  38995320.074      882078.1722                                 
  23260827.339      419003.2032                                 
  21329105.546     1153098.027                                  
  22920741.441     1262135.469                                  
  22868047.507      531325.577                                  
  21051751.401      599677.441                                  
 18  3 23  9  6 25.0000000  0  9G30S23G28S20G15G 5G 7G20G13
  21130785.427     1144010.435                                  
  38758395.292      876713.9482                                 
  21521893.370      687563.414                                  
  38996542.566      888501.8452                                 
  23261439.196      422219.1402                                 
  21330675.001     1161349.717                                  
  22922478.576     1271262.463                                  
  22868814.026      535355.726                                  
  21052607.160      604174.882                                  
 18  3 23  9  6 26.0000000  0  9G30S23G28S20G15G 5G 7G20G13
  21132347.570     1152221.432                                  
  38759604.557      883066.7652                                 
  21522857.425      692630.043                                  
  38997765.338      894926.9462                                 
  23262051.192      425436.7682                                 
  21332245.137     1169603.545                                  
  22924215.326     1280391.200                                  
  22869581.120      539387.975                                  
  21053463.302      608674.251                                  
 18  3 23  9  6 27.0000000  0  9G30S23G28S20G15G 5G 7G20G13
  21133911.406     1160439.301                                  
  38760814.154      889426.0242                                 
  21523823.294      697703.765                                  
  38998989.436      901358.5092                                 
  23262665.458      428661.0932                                 
  21333817.139     1177864.432                                  
  22925952.914     1289526.613                                  
  22870348.982      543427.251                                  
  21054320.876      613180.448                                  
 18  3 23  9  6 28.0000000  0  9G30S23G28S20G15G 5G 7G20G13
  21135477.860     1168670.809                                  
  38762025.862      895798.5672                                 
  21524791.101      702791.310                                  
  39000215.907      907803.2952                                 
  23263281.136      431898.8602                                 
  21335391.707     1186139.165                                  
  22927693.678     1298675.476                                  
  22871120.508      547480.280                                  
  21055181.398      617700.255                                  
 18  3 23  9  6 29.0000000  0  9G30S23G28S20G15G 5G 7G20G13
  21137045.797     1176911.531                                  
  38763240.816      902179.9292                                 
  21525761.333      707888.240                                  
  39001444.210      914256.9502                                 
  23263898.996      435145.6402                                 
  21336968.439     1194423.266                                  
  22929436.833     1307833.327                                  
  22871893.658      551542.630                                  
  21056043.212      622229.215                                  
 18  3 23  9  6 30.0000000  0  9G30S23G28S20G15G 5G 7G20G13
  21138614.222     1185153.581                                  
  38764455.316      908562.1892                                 
  21526731.600      712986.726                                  
  39002672.165      920711.6002                                 
  23264517.414      438393.5152                                 
  21338544.752     1202708.874                                  
  22931179.673     1316992.315                                  
  22872666.894      555606.420                                  
  21056904.991      626759.489                                  
 18  3 23  9  6 31.0000000  0  9G30S23G28S20G15G 5G 7G20G13
  21140183.870     1193402.447                                  
  38765671.055      914950.8702                                 
  21527702.687      718092.205                                  
  39003901.323      927172.8422                                 
  23265137.386      441647.533                                  
  21340123.160     1211001.490                                  
  22932923.369     1326157.965                                  
  22873441.283      559677.208                                  
  21057768.289      631296.554                                  
 18  3 23  9  6 32.0000000  0  9G30S23G28S20G15G 5G 7G20G13
  21141756.501     1201665.590                                  
  38766889.133      921353.5232                                 
  21528676.968      723212.182                                  
  39005133.553      933647.8122                                 
  23265759.154      444916.096                                  
  21341704.585     1219308.594                                  
  22934669.926     1335337.657                                  
  22874219.178      563762.337                                  
  21058634.971      635847.858                                  
 18  3 23  9  6 33.0000000  0  9G30S23G28S20G15G 5G 7G20G13
  21143330.580     1209937.340                                  
  38768109.461      927764.3892                                 
  21529652.923      728340.960                                  
  39006367.336      940130.9792                                 
  23266383.174      448193.099                                  
  21343286.622     1227624.481                                  
  22936418.979     1344525.750                                  
  22874998.174      567856.263                                  
  21059502.805      640407.736                                  
 18  3 23  9  6 34.0000000  0  9G30S23G28S20G15G 5G 7G20G13
  21144904.974     1218212.663                                  
  38769330.034      934178.4062                                 
  21530629.926      733473.514                                  
  39007601.659      946617.2282                                 
  23267008.206      451473.461                                  
  21344869.776     1235944.104                                  
  22938167.944     1353717.260                                  
  22875778.303      571953.840                                  
  21060370.814      644971.135                                  
 18  3 23  9  6 35.0000000  0  9G30S23G28S20G15G 5G 7G20G13
  21146480.466     1226494.413                                  
  38770551.637      940598.4762                                 
  21531607.610      738612.709                                  
  39008837.501      953109.5752                                 
  23267634.163      454760.079                                  
  21346454.395     1244270.368                                  
  22939917.800     1362914.989                                  
  22876559.811      576058.007                                  
  21061240.323      649540.956                                  
 18  3 23  9  6 36.0000000  0  9G30S23G28S20G15G 5G 7G20G13
  21148059.362     1234788.999                                  
  38771775.944      947030.9982                                 
  21532588.225      743764.930                                  
  39010075.437      959614.3562                                 
  23268261.585      458059.289                                  
  21348041.213     1252609.635                                  
  22941670.761     1372125.350                                  
  22877342.715      580175.117                                  
  21062112.607      654123.560                                  
 18  3 23  9  6 37.0000000  0  9G30S23G28S20G15G 5G 7G20G13
  21149639.479     1243093.174                                  
  38773001.857      953472.7992                                 
  21533570.445      748926.944                                  
  39011315.135      966128.4592                                 
  23268891.102      461367.937                                  
  21349630.178     1260958.696                                  
  22943425.032     1381345.130                                  
  22878128.132      584301.971                                  
  21062986.096      658715.743                                  
 18  3 23  9  6 38.0000000  0  9G30S23G28S20G15G 5G 7G20G13
  21151218.445     1251392.674                                  
  38774226.757      959909.4762                                 
  21534551.200      754084.493                                  
  39012554.118      972637.6192                                 
  23269520.113      464671.691                                  
  21351217.833     1269303.257                                  
  22945177.592     1390560.030                                  
  22878912.763      588424.257                                  
  21063858.921      663303.200                                  
 18  3 23  9  6 39.0000000  0  9G30S23G28S20G15G 5G 7G20G13
  21152797.236     1259689.240                                  
  38775450.820      966342.8552                                 
  21535532.635      759239.308                                  
  39013791.880      979143.4972                                 
  23270148.285      467972.290                                  
  21352805.158     1277645.067                                  
  22946931.147     1399771.796                                  
  22879696.767      592543.742                                  
  21064731.658      667887.688                                  
 18  3 23  9  6 40.0000000  0  9G30S23G28S20G15G 5G 7G20G13
  21154378.784     1267999.073                                  
  38776677.832      972789.1242                                 
  21536515.780      764407.589                                  
  39015032.433      985662.1452                                 
  23270779.146      471286.009                                  
  21354395.239     1286000.341                                  
  22948685.801     1408996.627                                  
  22880483.684      596676.652                                  
  21065606.316      672485.420                                  
 18  3 23  9  6 41.0000000  0  9G30S23G28S20G15G 5G 7G20G13
  21155962.845     1276323.194                                  
  38777907.130      979249.2392                                 
  21537502.084      769590.361                                  
  39016275.325      992194.6842                                 
  23271412.466      474613.767                                  
  21355988.199     1294370.079                                  
  22950444.120     1418235.592                                  
  22881272.958      600823.959                                  
  21066483.992      677097.398                                  
 18  3 23  9  6 42.0000000  0  9G30S23G28S20G15G 5G 7G20G13
  21157546.470     1284646.438                                  
  38779136.324      985708.1312                                 
  21538488.440      774772.461                                  
  39017518.077      998725.9652                                 
  23272045.403      477940.506                                  
  21357580.759     1302739.143                                  
  22952202.090     1427473.474                                  
  22882061.865      604970.513                                  
  21067361.214      681708.478                                  
 18  3 23  9  6 43.0000000  0  9G30S23G28S20G15G 5G 7G20G13
  21159129.920     1292966.162                                  
  38780364.994      992163.1612                                 
  21539473.574      779951.258                                  
  39018760.271     1005253.2932                                 
  23272677.991      481263.507                                  
  21359172.934     1311104.886                                  
  22953958.699     1436707.637                                  
  22882850.353      609113.699                                  
  21068238.122      686316.011                                  
 18  3 23  9  6 44.0000000  0  9G30S23G28S20G15G 5G 7G20G13
  21160715.272     1301297.261                                  
  38781595.147      998629.1352                                 
  21540461.170      785141.606                                  
  39020003.634     1011791.6412                                 
  23273311.940      484597.631                                  
  21360766.750     1319482.171                                  
  22955717.750     1445952.951                                  
  22883640.673      613268.367                                  
  21069116.776      690934.880                                  
 18  3 23  9  6 45.0010000  0  9G30S23G28S20G15G 5G 7G20G13
  21162305.371     1309652.349                                  
  38782829.610     1005116.9752                                 
  21541453.232      790353.028                                  
  39021252.005     1018351.7682                                 
  23273949.903      487950.614                                  
  21362365.766     1327883.688                                  
  22957481.427     1455223.010                                  
  22884435.252      617442.962                                  
  21069999.600      695573.993                                  
 18  3 23  9  6 46.0010000  0  9G30S23G28S20G15G 5G 7G20G13
  21163893.725     1318000.558                                  
  38784063.812     1011599.3722                                 
  21542444.265      795560.914                                  
  39022498.963     1024906.2082                                 
  23274588.494      491301.467                                  
  21363963.019     1336278.472                                  
  22959244.318     1464485.057                                  
  22885229.306      621615.003                                  
  21070882.023      700209.901                                  
 18  3 23  9  6 47.0010000  0  9G30S23G28S20G15G 5G 7G20G13
  21165482.026     1326346.393                                  
  38785296.844     1018079.0422                                 
  21543434.286      800766.601                                  
  39023746.549     1031457.9692                                 
  23275225.217      494649.762                                  
  21365560.273     1344671.038                                  
  22961005.987     1473744.525                                  
  22886023.030      625784.811                                  
  21071763.451      704843.401                                  
 18  3 23  9  6 48.0010000  0  9G30S23G28S20G15G 5G 7G20G13
  21167071.427     1334700.763                                  
  38786530.749     1024566.8622                                 
  21544426.348      805981.069                                  
  39024995.217     1038018.1062                                 
  23275863.459      498006.422                                  
  21367159.079     1353072.352                                  
  22962769.663     1483012.360                                  
  22886818.341      629963.281                                  
  21072647.304      709485.422                                  
 18  3 23  9  6 49.0010000  0  9G30S23G28S20G15G 5G 7G20G13
  21168664.807     1343070.721                                  
  38787767.970     1031069.8992                                 
  21545422.180      811211.315                                  
  39026246.135     1044593.4602                                 
  23276505.348      501378.447                                  
  21368760.712     1361489.458                                  
  22964536.131     1492295.597                                  
  22887616.095      634157.471                                  
  21073533.828      714143.008                                  
 18  3 23  9  6 50.0010000  0  9G30S23G28S20G15G 5G 7G20G13
  21170258.273     1351444.918                                  
  38789005.906     1037576.8202                                 
  21546417.994      816446.009                                  
  39027498.206     1051172.7302                                 
  23277147.847      504754.524                                  
  21370363.497     1369910.978                                  
  22966303.245     1501582.906                                  
  22888415.437      638356.028                                  
  21074420.962      718804.803                                  
 18  3 23  9  6 51.0010000  0  9G30S23G28S20G15G 5G 7G20G13
  21171851.373     1359817.990                                  
  38790244.033     1044082.1772                                 
  21547413.808      821679.779                                  
  39028749.491     1057750.2002                                 
  23277790.295      508129.268                                  
  21371965.078     1378331.542                                  
  22968070.882     1510868.823                                  
  22889214.046      642553.559                                  
  21075307.660      723465.431                                  
 18  3 23  9  6 52.0010000  0  9G30S23G28S20G15G 5G 7G20G13
  21173446.882     1368200.321                                  
  38791484.238     1050596.4482                                 
  21548411.873      826923.014                                  
  39030002.766     1064336.4522                                 
  23278434.243      511513.108                                  
  21373569.975     1386761.566                                  
  22969840.160     1520163.864                                  
  22890014.802      646760.533                                  
  21076196.434      728135.247                                  
 18  3 23  9  6 53.0010000  0  9G30S23G28S20G15G 5G 7G20G13
  21175045.461     1376598.275                                  
  38792727.705     1057125.9692                                 
  21549412.416      832182.095                                  
  39031259.182     1070938.1102                                 
  23279081.314      514912.354                                  
  21375176.773     1395207.410                                  
  22971612.578     1529474.310                                  
  22890817.843      650983.264                                  
  21077087.599      732820.698                                  
 18  3 23  9  6 54.0010000  0  9G30S23G28S20G15G 5G 7G20G13
  21176645.402     1385005.993                                  
  38793971.819     1063664.8982                                 
  21550415.367      837451.120                                  
  39032517.883     1077549.3612                                 
  23279729.520      518321.148                                  
  21376785.736     1403663.196                                  
  22973386.567     1538794.316                                  
  22891623.729      655215.867                                  
  21077981.365      737515.877                                  
 18  3 23  9  6 55.0010000  0  9G30S23G28S20G15G 5G 7G20G13
  21178245.482     1393418.008                                  
  38795216.525     1070207.7482                                 
  21551418.772      842724.651                                  
  39033776.323     1084164.5422                                 
  23280378.825      521734.109                                  
  21378395.518     1412123.473                                  
  22975160.731     1548118.449                                  
  22892429.982      659452.897                                  
  21078875.601      742215.324                                  
 18  3 23  9  6 56.0010000  0  9G30S23G28S20G15G 5G 7G20G13
  21179848.721     1401838.258                                  
  38796462.436     1076758.4492                                 
  21552423.573      848006.587                                  
  39035037.032     1090787.5632                                 
  23281029.369      525154.992                                  
  21380007.395     1420592.131                                  
  22976936.500     1557450.573                                  
  22893237.874      663698.288                                  
  21079771.460      746922.920                                  
 18  3 23  9  6 57.0010000  0  9G30S23G28S20G15G 5G 7G20G13
  21181453.792     1410273.223                                  
  38797712.221     1083323.4832                                 
  21553431.934      853303.483                                  
  39036300.200     1097424.7662                                 
  23281681.763      528590.505                                  
  21381621.976     1429075.739                                  
  22978715.218     1566797.252                                  
  22894048.786      667958.545                                  
  21080670.286      751645.264                                  
 18  3 23  9  6 58.0010000  0  9G30S23G28S20G15G 5G 7G20G13
  21183060.625     1418720.853                                  
  38798964.344     1089900.8872                                 
  21554442.372      858613.264                                  
  39037565.620     1104074.2362                                 
  23282338.013      532038.421                                  
  21383238.617     1437572.208                                  
  22980495.926     1576156.441                                  
  22894862.088      672231.603                                  
  21081571.450      756380.254                                  
 18  3 23  9  6 59.0010000  0  9G30S23G28S20G15G 5G 7G20G13
  21184667.389     1427165.970                                  
  38800215.280     1096475.3122                                 
  21555452.338      863920.717                                  
  39038830.238     1110720.7082                                 
  23282994.002      535483.697                                  
  21384854.699     1446066.341                                  
  22982277.209     1585512.910                                  
  22895674.850      676502.291                                  
  21082472.021      761112.655                                  
 18  3 23  9  7  0.0010000  0  9G30S23G28S20G15G 5G 7G20G13
  21186273.996     1435607.830                                  
  38801465.187     1103046.1752                                 
  21556461.728      869225.121                                  
  39040093.948     1117363.3372                                 
  23283649.397      538925.431                                  
  21386470.851     1454557.409                                  
  22984057.131     1594865.888                                  
  22896487.227      680769.827                                  
  21083372.034      765841.804                                  
 18  3 23  9  7  1.0010000  0  9G30S23G28S20G15G 5G 7G20G13
  21187882.871     1444061.726                                  
  38802717.676     1109628.6942                                 
  21557473.649      874541.760                                  
  39041360.450     1124017.6792                                 
  23284307.375      542379.109                                  
  21388088.643     1463060.689                                  
  22985839.374     1604230.748                                  
  22897301.873      685049.542                                  
  21084273.861      770582.945                                  
 18  3 23  9  7  2.0010000  0  9G30S23G28S20G15G 5G 7G20G13
  21189494.625     1452531.457                                  
  38803973.725     1116226.6582                                 
  21558488.135      879874.420                                  
  39042629.586     1130687.7582                                 
  23284967.604      545848.327                                  
  21389710.013     1471579.984                                  
  22987623.799     1613611.220                                  
  22898118.927      689345.234                                  
  21085179.283      775339.898                                  
 18  3 23  9  7  3.0010000  0  9G30S23G28S20G15G 5G 7G20G13
  21191106.415     1461002.276                                  
  38805229.181     1122825.3232                                 
  21559502.882      885208.400                                  
  39043899.317     1137358.6742                                 
  23285627.920      549318.487                                  
  21391331.208     1480100.567                                  
  22989408.991     1622992.616                                  
  22898936.976      693642.144                                  
  21086084.670      780097.910                                  
 18  3 23  9  7  4.0010000  0  9G30S23G28S20G15G 5G 7G20G13
  21192718.099     1469470.939                                  
  38806484.497     1129421.4732                                 
  21560517.805      890540.429                                  
  39045168.052     1144026.9812                                 
  23286287.137      552786.293                                  
  21392951.967     1488619.175                                  
  22991194.183     1632371.659                                  
  22899753.786      697937.044                                  
  21086989.603      784853.738                                  
 18  3 23  9  7  5.0010000  0  9G30S23G28S20G15G 5G 7G20G13
  21194332.105     1477950.565                                  
  38807741.733     1136028.1952                                 
  21561534.751      895883.639                                  
  39046438.794     1150705.6862                                 
  23286949.303      556264.887                                  
  21394575.343     1497148.941                                  
  22992980.963     1641761.459                                  
  22900573.545      702243.032                                  
  21087896.526      789620.500                                  
 18  3 23  9  7  6.0010000  0  9G30S23G28S20G15G 5G 7G20G13
  21195949.077     1486446.636                                  
  38809001.709     1142651.0242                                 
  21562554.838      901243.480                                  
  39047712.922     1157400.3972                                 
  23287614.575      559759.669                                  
  21396201.686     1505695.322                                  
  22994771.164     1651167.502                                  
  22901396.096      706565.585                                  
  21088807.148      794403.674                                  
 18  3 23  9  7  7.0010000  0  9G30S23G28S20G15G 5G 7G20G13
  21197566.503     1494947.377                                  
  38810262.976     1149278.1372                                 
  21563575.659      906608.203                                  
  39048988.097     1164099.5912                                 
  23288280.284      563258.951                                  
  21397829.180     1514246.571                                  
  22996562.184     1660578.031                                  
  22902218.873      710892.946                                  
  21089718.503      799191.484                                  
 18  3 23  9  7  8.0010000  0  9G30S23G28S20G15G 5G 7G20G13
  21199183.981     1503447.945                                  
  38811524.155     1155904.6682                                 
  21564596.095      911972.960                                  
  39050263.202     1170798.3962                                 
  23288946.079      566757.849                                  
  21399455.959     1522797.839                                  
  22998352.960     1669988.198                                  
  22903042.436      715220.269                                  
  21090629.195      803979.098                                  
 18  3 23  9  7  9.0010000  0  9G30S23G28S20G15G 5G 7G20G13
  21200803.780     1511958.403                                  
  38812786.818     1162540.7112                                 
  21565618.939      917347.799                                  
  39051539.319     1177506.6292                                 
  23289613.201      570266.486                                  
  21401085.321     1531359.172                                  
  23000145.551     1679408.050                                  
  22903867.884      719557.595                                  
  21091542.173      808776.563                                  
 18  3 23  9  7 10.0010000  0  9G30S23G28S20G15G 5G 7G20G13
  21202426.423     1520485.803                                  
  38814052.395     1169193.3452                                 
  21566645.693      922739.799                                  
  39052818.577     1184231.3262                                 
  23290284.075      573791.839                                  
  21402717.405     1539937.645                                  
  23001941.807     1688844.642                                  
  22904696.351      723912.026                                  
  21092458.397      813590.946                                  
 18  3 23  9  7 11.0010000  0  9G30S23G28S20G15G 5G 7G20G13
  21204051.231     1529023.689                                  
  38815320.450     1175856.0642                                 
  21567673.441      928142.494                                  
  39054100.557     1190966.0422                                 
  23290956.135      577327.514                                  
  21404351.758     1548526.796                                  
  23003739.162     1698291.546                                  
  22905527.138      728277.078                                  
  21093376.610      818415.801                                  
 18  3 23  9  7 12.0010000  0  9G30S23G28S20G15G 5G 7G20G13
  21205676.317     1537565.990                                  
  38816589.360     1182522.8542                                 
  21568702.567      933549.806                                  
  39055382.729     1197704.9112                                 
  23291629.190      580867.379                                  
  21405986.337     1557120.538                                  
  23005537.704     1707742.684                                  
  22906358.519      732646.656                                  
  21094295.032      823245.024                                  
 18  3 23  9  7 13.0010000  0  9G30S23G28S20G15G 5G 7G20G13
  21207303.777     1546117.089                                  
  38817858.863     1189198.0642                                 
  21569733.387      938966.129                                  
  39056667.065     1204452.1032                                 
  23292304.426      584415.839                                  
  21407623.499     1565723.283                                  
  23007338.095     1717202.400                                  
  22907191.452      737025.186                                  
  21095215.950      828083.025                                  
 18  3 23  9  7 14.0010000  0  9G30S23G28S20G15G 5G 7G20G13
  21208934.081     1554683.232                                  
  38819131.822     1195887.8912                                 
  21570766.998      944397.712                                  
  39057953.408     1211213.9372                                 
  23292982.995      587979.187                                  
  21409263.627     1574341.278                                  
  23009140.860     1726676.988                                  
  22908027.510      741418.888                                  
  21096139.259      832936.047                                  
 18  3 23  9  7 15.0010000  0  9G30S23G28S20G15G 5G 7G20G13
  21210565.571     1563259.765                                  
  38820406.473     1202587.7022                                 
  21571802.424      949839.857                                  
  39059242.386     1217985.7942                                 
  23293663.484      591552.730                                  
  21410905.222     1582969.805                                  
  23010945.997     1736161.739                                  
  22908865.469      745823.125                                  
  21097064.556      837799.421                                  
 18  3 23  9  7 16.0010000  0  9G30S23G28S20G15G 5G 7G20G13
  21212198.510     1571840.013                                  
  38821682.712     1209290.8862                                 
  21572838.775      955285.966                                  
  39060531.974     1224761.1192                                 
  23294344.077      595129.749                                  
  21412548.195     1591602.274                                  
  23012751.379     1745650.045                                  
  22909703.551      750231.217                                  
  21097991.006      842666.499                                  
 18  3 23  9  7 17.0010000  0  9G30S23G28S20G15G 5G 7G20G13
  21213832.671     1580427.304                                  
  38822959.667     1216000.7642                                 
  21573876.382      960739.308                                  
  39061822.732     1231543.0632                                 
  23295025.822      598713.692                                  
  21414192.162     1600241.946                                  
  23014558.070     1755145.192                                  
  22910543.657      754646.480                                  
  21098918.712      847540.573                                  
 18  3 23  9  7 18.0010000  0  9G30S23G28S20G15G 5G 7G20G13
  21215469.658     1589028.485                                  
  38824239.152     1222724.1212                                 
  21574916.712      966206.757                                  
  39063115.863     1238338.5242                                 
  23295710.220      602311.291                                  
  21415838.730     1608895.712                                  
  23016367.047     1764654.029                                  
  22911386.572      759075.775                                  
  21099848.669      852428.533                                  
 18  3 23  9  7 19.0010000  0  9G30S23G28S20G15G 5G 7G20G13
  21217108.740     1597641.901                                  
  38825520.765     1229459.3492                                 
  21575959.380      971686.636                                  
  39064411.716     1245145.6272                                 
  23296397.113      605920.879                                  
  21417487.758     1617561.889                                  
  23018179.113     1774174.916                                  
  22912231.756      763517.427                                  
  21100781.296      857328.680                                  
 18  3 23  9  7 20.0010000  0  9G30S23G28S20G15G 5G 7G20G13
  21218746.949     1606252.719                                  
  38826801.297     1236191.5952                                 
  21577001.333      977164.121                                  
  39065706.191     1251949.6452                                 
  23297083.709      609527.716                                  
  21419136.140     1626225.648                                  
  23019990.044     1783692.984                                  
  22913076.695      767956.605                                  
  21101713.033      862226.205                                  
 18  3 23  9  7 21.0010000  0  9G30S23G28S20G15G 5G 7G20G13
  21220384.896     1614860.338                                  
  38828082.073     1242920.2412                                 
  21578043.198      982638.624                                  
  39066999.932     1258750.1182                                 
  23297769.869      613131.153                                  
  21420784.401     1634886.410                                  
  23021800.923     1793207.690                                  
  22913921.269      772392.753                                  
  21102644.647      867120.507                                  
 18  3 23  9  7 22.0010000  0  9G30S23G28S20G15G 5G 7G20G13
  21222025.164     1623480.239                                  
  38829364.891     1249660.8462                                 
  21579087.471      988125.610                                  
  39068296.693     1265562.9242                                 
  23298458.175      616746.727                                  
  21422434.685     1643559.622                                  
  23023613.808     1802734.472                                  
  22914767.901      776841.292                                  
  21103578.286      872027.053                                  
 18  3 23  9  7 23.0010000  0  9G30S23G28S20G15G 5G 7G20G13
  21223668.032     1632114.799                                  
  38830650.082     1256415.7062                                 
  21580133.961      993627.487                                  
  39069596.141     1272390.1202                                 
  23299148.436      620376.742                                  
  21424087.832     1652247.701                                  
  23025428.945     1812275.733                                  
  22915617.081      781304.645                                  
  21104515.049      876948.239                                  
 18  3 23  9  7 24.0010000  0  9G30S23G28S20G15G 5G 7G20G13
  21225310.656     1640748.953                                  
  38831935.151     1263169.7892                                 
  21581180.695      999129.152                                  
  39070895.624     1279216.4652                                 
  23299838.941      624006.091                                  
  21425741.240     1660935.558                                  
  23027244.518     1821816.381                                  
  22916465.580      785767.715                                  
  21105451.114      881868.985                                  
 18  3 23  9  7 25.0010000  0  9G30S23G28S20G15G 5G 7G20G13
  21226953.629     1649380.122                                  
  38833219.941     1269920.5252                                 
  21582227.254     1004628.046                                  
  39072193.222     1286039.3702                                 
  23300528.644      627632.369                                  
  21427394.055     1669620.621                                  
  23029059.463     1831353.858                                  
  22917314.463      790227.946                                  
  21106386.829      886786.723                                  
 18  3 23  9  7 26.0010000  0  9G30S23G28S20G15G 5G 7G20G13
  21228597.510     1658022.440                                  
  38834507.261     1276682.0102                                 
  21583275.419     1010138.285                                  
  39073493.019     1292872.8562                                 
  23301220.754      631269.506                                  
  21429049.295     1678317.010                                  
  23030876.380     1840902.270                                  
  22918165.266      794699.471                                  
  21107324.848      891715.567                                  
 18  3 23  9  7 27.0010000  0  9G30S23G28S20G15G 5G 7G20G13
  21230245.229     1666681.247                                  
  38835797.216     1283459.6102                                 
  21584327.423     1015665.228                                  
  39074795.695     1299722.2492                                 
  23301915.587      634922.993                                  
  21430707.345     1687030.079                                  
  23032695.827     1850466.998                                  
  22919019.664      799187.607                                  
  21108266.061      896660.890                                  
 18  3 23  9  7 28.0010000  0  9G30S23G28S20G15G 5G 7G20G13
  21231893.995     1675344.593                                  
  38837087.764     1290241.3682                                 
  21585380.630     1021196.958                                  
  39076099.767     1306575.6992                                 
  23302611.589      638580.801                                  
  21432366.372     1695747.903                                  
  23034516.565     1860036.100                                  
  22919874.340      803680.453                                  
  21109207.936      901610.733                                  
 18  3 23  9  7 29.0010000  0  9G30S23G28S20G15G 5G 7G20G13
  21233542.325     1684006.128                                  
  38838378.156     1297020.8812                                 
  21586432.547     1026727.006                                  
  39077403.647     1313427.0272                                 
  23303307.259      642236.626                                  
  21434024.963     1704464.057                                  
  23036336.814     1869603.151                                  
  22920729.035      808171.581                                  
  21110149.061      906558.708                                  
 18  3 23  9  7 30.0010000  0  9G30S23G28S20G15G 5G 7G20G13
  21235192.401     1692676.431                                  
  38839670.170     1303808.8312                                 
  21587486.139     1032266.080                                  
  39078709.255     1320286.7932                                 
  23304004.483      645900.970                                  
  21435685.473     1713189.171                                  
  23038158.373     1879178.781                                  
  22921585.491      812671.644                                  
  21111092.071      911515.446                                  
 18  3 23  9  7 31.0010000  0  9G30S23G28S20G15G 5G 7G20G13
  21236845.285     1701362.613                                  
  38840964.749     1310612.2832                                 
  21588543.116     1037821.262                                  
  39080018.196     1327162.1962                                 
  23304704.778      649581.069                                  
  21437349.264     1721930.388                                  
  23039983.090     1888770.143                                  
  22922444.950      817187.721                                  
  21112038.204      916488.049                                  
 18  3 23  9  7 32.0010000  0  9G30S23G28S20G15G 5G 7G20G13
  21238499.810     1710056.720                                  
  38842260.340     1317423.2372                                 
  21589601.978     1043384.513                                  
  39081328.498     1334045.1892                                 
  23305406.486      653268.870                                  
  21439014.207     1730679.671                                  
  23041809.988     1898369.182                                  
  22923305.961      821711.838                                  
  21112985.961      921468.543                                  
 18  3 23  9  7 33.0010000  0  9G30S23G28S20G15G 5G 7G20G13
  21240154.562     1718753.850                                  
  38843556.909     1324236.9312                                 
  21590661.189     1048951.045                                  
  39082638.085     1340930.8842                                 
  23306108.508      656959.534                                  
  21440679.411     1739432.198                                  
  23043637.706     1907971.088                                  
  22924167.495      826239.125                                  
  21113934.136      926452.028                                  
 18  3 23  9  7 34.0010000  0  9G30S23G28S20G15G 5G 7G20G13
  21241811.512     1727460.274                                  
  38844854.978     1331059.5222                                 
  21591722.371     1054527.083                                  
  39083950.480     1347825.6282                                 
  23306812.223      660659.290                                  
  21442346.710     1748194.200                                  
  23045466.559     1917582.084                                  
  22925031.334      830775.878                                  
  21114884.160      931444.796                                  
 18  3 23  9  7 35.0010000  0  9G30S23G28S20G15G 5G 7G20G13
  21243471.168     1736183.134                                  
  38846156.276     1337898.1742                                 
  21592786.782     1060119.722                                  
  39085265.895     1354736.4492                                 
  23307519.498      664375.240                                  
  21444017.446     1756972.810                                  
  23047298.099     1927209.313                                  
  22925897.335      835329.140                                  
  21115837.448      936453.948                                  
 18  3 23  9  7 36.0010000  0  9G30S23G28S20G15G 5G 7G20G13
  21245133.004     1744915.660                                  
  38847459.249     1344746.1102                                 
  21593853.025     1065722.268                                  
  39086582.619     1361656.4402                                 
  23308228.779      668100.718                                  
  21445690.102     1765761.276                                  
  23049132.291     1936846.011                                  
  22926765.885      839892.248                                  
  21116792.952      941472.757                                  
 18  3 23  9  7 37.0010000  0  9G30S23G28S20G15G 5G 7G20G13
  21246795.644     1753652.129                                  
  38848762.955     1351597.6172                                 
  21594919.792     1071328.971                                  
  39087900.425     1368579.7882                                 
  23308939.003      671829.932                                  
  21447363.316     1774553.889                                  
  23050966.937     1946486.478                                  
  22927635.272      844459.426                                  
  21117748.457      946495.480                                  
 18  3 23  9  7 38.0010000  0  9G30S23G28S20G15G 5G 7G20G13
  21248459.557     1762396.514                                  
  38850068.109     1358456.6392                                 
  21595988.356     1076943.795                                  
  39089219.417     1375510.4542                                 
  23309650.379      675566.891                                  
  21449037.978     1783354.594                                  
  23052802.997     1956134.656                                  
  22928506.126      849034.639                                  
  21118706.107      951526.095                                  
 18  3 23  9  7 39.0010000  0  9G30S23G28S20G15G 5G 7G20G13
  21250126.349     1771154.427                                  
  38851375.392     1365328.8342                                 
  21597059.695     1082572.359                                  
  39090540.765     1382454.4172                                 
  23310364.215      679317.128                                  
  21450715.049     1792169.017                                  
  23054642.390     1965796.133                                  
  22929379.300      853623.531                                  
  21119666.288      956570.204                                  
 18  3 23  9  7 40.0010000  0  9G30S23G28S20G15G 5G 7G20G13
  21251795.096     1779923.431                                  
  38852685.345     1372211.7142                                 
  21598132.831     1088212.205                                  
  39091864.346     1389409.2242                                 
  23311079.482      683078.325                                  
  21452394.877     1800994.683                                  
  23056482.881     1975468.559                                  
  22930254.829      858223.691                                  
  21120628.091      961625.400                                  
 18  3 23  9  7 41.0010000  0  9G30S23G28S20G15G 5G 7G20G13
  21253462.517     1788689.702                                  
  38853994.862     1379091.5122                                 
  21599205.443     1093849.556                                  
  39093186.985     1396360.9212                                 
  23311794.469      686836.583                                  
  21454073.884     1809817.853                                  
  23058322.361     1985138.046                                  
  22931129.836      862821.206                                  
  21121589.005      966677.830                                  
 18  3 23  9  7 42.0010000  0  9G30S23G28S20G15G 5G 7G20G13
  21255131.089     1797454.205                                  
  38855302.755     1385969.1802                                 
  21600278.719     1099485.341                                  
  39094509.311     1403310.5342                                 
  23312509.300      690592.871                                  
  21455752.805     1818639.436                                  
  23060162.225     1994805.582                                  
  22932004.964      867417.147                                  
  21122551.036      971728.467                                  
 18  3 23  9  7 43.0010000  0  9G30S23G28S20G15G 5G 7G20G13
  21256801.145     1806231.568                                  
  38856614.680     1392859.3172                                 
  21601353.391     1105134.174                                  
  39095834.288     1410272.6842                                 
  23313227.028      694361.857                                  
  21457434.325     1827474.048                                  
  23062003.938     2004485.766                                  
  22932881.454      872026.051                                  
  21123513.921      976791.946                                  
 18  3 23  9  7 44.0010000  0  9G30S23G28S20G15G 5G 7G20G13
  21258474.010     1815023.083                                  
  38857928.734     1399763.2662                                 
  21602431.570     1110797.382                                  
  39097161.360     1417248.5492                                 
  23313947.303      698144.757                                  
  21459118.411     1836322.996                                  
  23063848.618     2014179.908                                  
  22933761.451      876649.245                                  
  21124480.768      981869.534                                  
 18  3 23  9  7 45.0010000  0  9G30S23G28S20G15G 5G 7G20G13
  21260146.980     1823813.440                                  
  38859242.805     1406665.6852                                 
  21603508.737     1116459.655                                  
  39098488.484     1424222.9072                                 
  23314666.845      701926.362                                  
  21460802.078     1845171.003                                  
  23065692.705     2023872.710                                  
  22934640.296      881271.441                                  
  21125446.323      986945.958                                  
 18  3 23  9  7 46.0010000  0  9G30S23G28S20G15G 5G 7G20G13
  21261819.444     1832600.807                                  
  38860555.777     1413564.7832                                 
  21604585.520     1122119.126                                  
  39099814.683     1431193.8052                                 
  23315386.248      705704.777                                  
  21462485.500     1854016.193                                  
  23067536.617     2033562.315                                  
  22935518.914      885890.767                                  
  21126412.123      992019.350                                  
 18  3 23  9  7 47.0010000  0  9G30S23G28S20G15G 5G 7G20G13
  21263493.530     1841400.905                                  
  38861870.372     1420476.1682                                 
  21605665.113     1127791.565                                  
  39101143.569     1438176.9772                                 
  23316107.779      709495.731                                  
  21464171.436     1862874.307                                  
  23069383.705     2043264.488                                  
  22936401.773      890522.984                                  
  21127379.773      997105.474                                  
 18  3 23  9  7 48.0010000  0  9G30S23G28S20G15G 5G 7G20G13
  21265171.595     1850218.074                                  
  38863188.317     1427404.2552                                 
  21606747.672     1133481.248                                  
  39102475.946     1445176.9222                                 
  23316832.016      713303.529                                  
  21465860.320     1871749.663                                  
  23071233.219     2052983.511                                  
  22937286.953      895172.405                                  
  21128350.546     1002208.620                                  
 18  3 23  9  7 49.0010000  0  8G30S23G28S20G 5G 7G20G13
  21266849.765     1859038.181                                  
  38864507.117     1434334.8862                                 
  21607831.330     1139174.091                                  
  39103808.183     1452179.1612                                 
  21467550.374     1880628.155                                  
  23073082.750     2062705.270                                  
  22938172.831      899824.811                                  
  21129322.279     1007314.847                                  
 18  3 23  9  7 50.0010000  0  8G30S23G28S20G 5G 7G20G13
  21268527.953     1867856.175                                  
  38865825.376     1441263.0472                                 
  21608914.291     1144865.073                                  
  39105140.315     1459179.3563                                 
  21469241.387     1889504.674                                  
  23074931.705     2072424.736                                  
  22939057.679      904475.8643                                 
  21130293.593     1012418.5763                                 
 18  3 23  9  7 51.0010000  0  9G30S23G28S20G15G 5G 7G20G13
  21270207.536     1876683.114                                  
  38867145.084     1448199.8452                                 
  21609999.241     1150565.196                                  
  39106473.773     1466188.1762                                 
  23319008.337      724740.0633                                 
  21470933.151     1898390.453                                  
  23076782.720     2082152.941                                  
  22939942.684      909135.5502                                 
  21131266.198     1017531.3972                                 
 18  3 23  9  7 52.0010000  0  9G30S23G28S20G15G 5G 7G20G13
  21271890.749     1885526.247                                  
  38868467.933     1455152.5282                                 
  21611086.267     1156281.625                                  
  39107810.512     1473212.5652                                 
  23319738.472      728572.8363                                 
  21472627.183     1907292.388                                  
  23078637.643     2091897.173                                  
  22940832.279      913811.4202                                 
  21132242.485     1022660.4452                                 
 18  3 23  9  7 53.0010000  0  9G30S23G28S20G15G 5G 7G20G13
  21273574.154     1894374.220                                  
  38869790.816     1462109.5512                                 
  21612175.370     1162003.225                                  
  39109147.496     1480241.4552                                 
  23320466.565      732410.5552                                 
  21474321.110     1916199.499                                  
  23080492.636     2101646.042                                  
  22941723.392      918492.3262                                 
  21133219.715     1027794.2532                                 
 18  3 23  9  7 54.0010000  0  9G30S23G28S20G15G 5G 7G20G13
  21275257.734     1903221.568                                  
  38871115.619     1469065.6172                                 
  21613264.037     1167724.344                                  
  39110484.095     1487269.3432                                 
  23321196.664      736247.4062                                 
  21476016.382     1925106.183                                  
  23082347.664     2111394.068                                  
  22942613.981      923172.7812                                 
  21134196.613     1032927.4692                                 
 18  3 23  9  7 55.0010000  0  9G30S23G28S20G15G 5G 7G20G13
  21276943.146     1912078.944                                  
  38872441.504     1476031.3302                                 
  21614355.164     1173455.724                                  
  39111822.980     1494306.7912                                 
  23321927.828      740094.1162                                 
  21477712.839     1934023.057                                  
  23084205.571     2121151.973                                  
  22943506.542      927863.3832                                 
  21135175.291     1038070.6792                                 
 18  3 23  9  7 56.0010000  0  9G30S23G28S20G15G 5G 7G20G13
  21278631.926     1920953.320                                  
  38873769.867     1483013.6392                                 
  21615448.996     1179204.275                                  
  39113165.426     1501360.7232                                 
  23322664.908      743957.5802                                 
  21479413.049     1942957.059                                  
  23086065.311     2130926.670                                  
  22944402.820      932571.0992                                 
  21136157.354     1043230.8032                                 
 18  3 23  9  7 57.0010000  0  8G30S23G28S20G 5G 7G20G13
  21280322.415     1929836.374                                  
  38875100.813     1490004.2352                                 
  21616544.678     1184961.751                                  
  39114509.494     1508423.2123                                 
  21481116.784     1951900.071                                  
  23087927.057     2140709.838                                  
  22945300.180      937287.7152                                 
  21137140.500     1048399.9442                                 
 18  3 23  9  7 58.0010000  0  8G30S23G28S20G 5G 7G20G13
  21282013.656     1938722.474                                  
  38876431.654     1496997.4992                                 
  21617640.953     1190722.467                                  
  39115853.422     1515488.4933                                 
  21482822.263     1960846.240                                  
  23089789.484     2150495.852                                  
  22946198.395      942007.5362                                 
  21138125.023     1053571.8122                                 
 18  3 23  9  7 59.0010000  0  8G30S23G28S20G 5G 7G20G13
  21283706.711     1947618.889                                  
  38877763.873     1504000.7502                                 
  21618739.374     1196493.708                                  
  39117199.515     1522563.4162                                 
  21484527.498     1969802.898                                  
  23091653.411     2160292.002                                  
  22947098.792      946737.6542                                 
  21139110.839     1058754.0092                                 
 18  3 23  9  8  0.0010000  0  8G30S23G28S20G 5G 7G20G13
  21285402.977     1956530.723                                  
  38879099.582     1511019.0352                                 
  21619840.640     1202280.653                                  
  39118548.312     1529653.2542                                 
  21486235.927     1978775.153                                  
  23093520.846     2170103.366                                  
  22948002.102      951483.4082                                 
  21140100.126     1063951.5262                                 
 18  3 23  9  8  1.0010000  0  8G30S23G28S20G 5G 7G20G13
  21287100.551     1965453.626                                  
  38880437.142     1518047.9442                                 
  21620944.017     1208078.862                                  
  39119899.726     1536753.9393                                 
  21487945.630     1987758.720                                  
  23095390.236     2179925.577                                  
  22948907.367      956239.849                                  
  21141091.473     1069159.806                                  
 18  3 23  9  8  2.0010000  0  9G30S23G28S20G 5G 7G20G15G13
  21288799.295     1974380.286                                  
  38881775.102     1525080.2942                                 
  21622047.726     1213881.027                                  
  39121251.874     1543858.2602                                 
  21489652.784     1996746.098                                  
  23097259.591     2189751.430                                  
  22949812.772      961000.785                                  
  23327108.205      767299.9433                                 
  21142083.082     1074372.091                                  
 18  3 23  9  8  3.0010000  0  9G30S23G28S20G 5G 7G20G15G13
  21290498.894     1983312.921                                  
  38883114.546     1532118.2262                                 
  21623153.250     1219689.299                                  
  39122605.016     1550968.1672                                 
  21491360.690     2005739.816                                  
  23099130.359     2199583.021                                  
  22950720.148      965767.681                                  
  23327855.022      771220.2182                                 
  21143075.633     1079590.489                                  
 18  3 23  9  8  4.0010000  0  8G30S23G28S20G 5G 7G20G13
  21292201.686     1992259.667                                  
  38884457.096     1539169.8952                                 
  21624261.007     1225512.026                                  
  39123960.532     1558091.7662                                 
  21493074.196     2014747.721                                  
  23101003.500     2209428.560                                  
  22951630.648      970549.005                                  
  21144072.005     1084822.677                                  
 18  3 23  9  8  5.0010000  0  9G30S23G28S20G 5G 7G20G15G13
  21293906.590     2001219.447                                  
  38885801.042     1546234.2952                                 
  21625372.062     1231347.899                                  
  39125318.769     1565228.0032                                 
  21494790.338     2023768.881                                  
  23102879.555     2219286.922                                  
  22952542.178      975343.426                                  
  23329352.687      779099.9253                                 
  21145069.460     1090068.093                                  
 18  3 23  9  8  6.0010000  0  9G30S23G28S20G 5G 7G20G15G13
  21295611.092     2010177.121                                  
  38887144.482     1553296.0872                                 
  21626482.193     1237181.906                                  
  39126675.698     1572361.5272                                 
  21496506.340     2032788.076                                  
  23104755.227     2229142.923                                  
  22953453.166      980135.893                                  
  23330105.943      783044.8312                                 
  21146067.316     1095311.329                                  
 18  3 23  9  8  7.0010000  0  9G30S23G28S20G 5G 7G20G15G13
  21297314.949     2019131.244                                  
  38888487.503     1560354.0262                                 
  21627591.521     1243012.566                                  
  39128032.191     1579491.2632                                 
  21498222.133     2041803.968                                  
  23106629.886     2238995.266                                  
  22954364.539      984924.962                                  
  23330856.913      786985.9962                                 
  21147064.840     1100551.004                                  
 18  3 23  9  8  8.0010000  0  9G30S23G28S20G 5G 7G20G15G13
  21299021.755     2028097.986                                  
  38889832.950     1567424.1732                                 
  21628703.902     1248856.066                                  
  39129391.214     1586633.1922                                 
  21499939.845     2050832.646                                  
  23108507.024     2248859.988                                  
  22955278.337      989726.789                                  
  23331607.080      790939.6352                                 
  21148064.284     1105803.267                                  
 18  3 23  9  8  9.0010000  0  9G30S23G28S20G 5G 7G20G15G13
  21300731.091     2037080.030                                  
  38891180.909     1574509.2872                                 
  21629818.779     1254715.066                                  
  39130753.483     1593789.9482                                 
  21501660.838     2059876.793                                  
  23110387.023     2258739.832                                  
  22956194.927      994544.034                                  
  23332362.989      794908.3252                                 
  21149066.746     1111070.808                                  
 18  3 23  9  8 10.0010000  0  9G30S23G28S20G 5G 7G20G15G13
  21302440.322     2046062.268                                  
  38892529.375     1581594.2602                                 
  21630933.482     1260574.486                                  
  39132115.682     1600946.6622                                 
  21503381.639     2068921.330                                  
  23112267.214     2268619.661                                  
  22957111.325      999361.636                                  
  23333118.775      798877.0232                                 
  21150068.703     1116338.516                                  
 18  3 23  9  8 11.0010000  0  9G30S23G28S20G 5G 7G20G15G13
  21304149.344     2055042.447                                  
  38893877.788     1588676.7452                                 
  21632048.341     1266432.061                                  
  39133476.938     1608100.8572                                 
  21505102.422     2077963.998                                  
  23114146.794     2278497.263                                  
  22958028.055     1004177.309                                  
  23333872.520      802843.5122                                 
  21151071.131     1121604.154                                  
 18  3 23  9  8 12.0010000  0  9G30S23G28S20G 5G 7G20G15G13
  21305860.303     2064034.871                                  
  38895227.492     1595771.0752                                 
  21633165.434     1272302.086                                  
  39134840.952     1615266.9112                                 
  21506825.509     2087019.093                                  
  23116028.800     2288386.905                                  
  22958946.809     1009005.379                                  
  23334629.301      806822.0692                                 
  21152075.583     1126882.009                                  
 18  3 23  9  8 13.0010000  0  9G30S23G28S20G 5G 7G20G15G13
  21307574.351     2073043.877                                  
  38896580.547     1602881.6412                                 
  21634285.529     1278188.919                                  
  39136207.286     1622449.1502                                 
  21508551.702     2096090.979                                  
  23117914.174     2298292.938                                  
  22959868.582     1013850.173                                  
  23335389.607      810816.9792                                 
  21153083.141     1132176.410                                  
 18  3 23  9  8 14.0010000  0  9G30S23G28S20G 5G 7G20G15G13
  21309289.637     2082055.945                                  
  38897933.794     1609994.9142                                 
  21635406.164     1284079.017                                  
  39137575.052     1629634.3362                                 
  21510278.628     2105166.098                                  
  23119800.229     2308201.850                                  
  22960791.437     1018698.187                                  
  23336150.593      814814.7922                                 
  21154091.083     1137473.868                                  
 18  3 23  9  8 15.0010000  0  9G30S23G28S20G 5G 7G20G15G13
  21311003.999     2091066.249                                  
  38899286.972     1617106.0692                                 
  21636526.852     1289967.581                                  
  39138942.050     1636817.5592                                 
  21512004.664     2114239.645                                  
  23121685.219     2318108.812                                  
  22961713.035     1023544.564                                  
  23336910.934      818810.6772                                 
  21155098.798     1142769.547                                  
 18  3 23  9  8 16.0010000  0  9G30S23G28S20G 5G 7G20G15G13
  21312720.751     2100086.590                                  
  38900641.702     1624226.9162                                 
  21637649.390     1295866.378                                  
  39140311.002     1644010.4342                                 
  21513733.544     2123323.420                                  
  23123572.338     2328025.613                                  
  22962637.181     1028401.124                                  
  23337672.636      822816.3842                                 
  21156108.572     1148075.239                                  
 18  3 23  9  8 17.0010000  0  9G30S23G28S20G 5G 7G20G15G13
  21314440.488     2109123.763                                  
  38902000.271     1631364.1552                                 
  21638774.824     1301782.228                                  
  39141683.304     1651219.4482                                 
  21515465.304     2132424.194                                  
  23125462.423     2337959.037                                  
  22963564.922     1033274.678                                  
  23338438.457      826838.7222                                 
  21157121.121     1153397.736                                  
 18  3 23  9  8 18.0010000  0  9G30S23G28S20G 5G 7G20G15G13
  21316161.742     2118171.422                                  
  38903360.638     1638511.4952                                 
  21639903.068     1307708.758                                  
  39143057.404     1658438.1692                                 
  21517198.651     2141535.653                                  
  23127354.690     2347902.779                                  
  22964494.582     1038158.828                                  
  23339205.708      830871.3852                                 
  21158136.008     1158730.675                                  
 18  3 23  9  8 19.0010000  0  9G30S23G28S20G 5G 7G20G15G13
  21317884.236     2127224.477                                  
  38904721.894     1645663.9112                                 
  21641032.324     1313640.913                                  
  39144432.604     1665661.9992                                 
  21518932.767     2150652.681                                  
  23129248.318     2357851.713                                  
  22965425.220     1043048.546                                  
  23339973.639      834909.2382                                 
  21159151.541     1164068.998                                  
 18  3 23  9  8 20.0010000  0  9G30S23G28S20G 5G 7G20G15G13
  21319609.277     2136286.751                                  
  38906084.128     1652825.1572                                 
  21642162.906     1319582.498                                  
  39145809.112     1672894.8092                                 
  21520669.587     2159779.117                                  
  23131143.568     2367809.663                                  
  22966357.515     1047947.618                                  
  23340743.159      838956.1442                                 
  21160169.517     1169416.523                                  
 18  3 23  9  8 21.0010000  0  9G30S23G28S20G 5G 7G20G15G13
  21321336.639     2145364.645                                  
  38907449.520     1660001.6982                                 
  21643296.542     1325539.916                                  
  39147188.726     1680142.9582                                 
  21522409.914     2168921.384                                  
  23133041.436     2377783.059                                  
  22967293.353     1052862.453                                  
  23341516.204      843018.4702                                 
  21161190.093     1174779.660                                  
 18  3 23  9  8 22.0010000  0  9G30S23G28S20G 5G 7G20G15G13
  21323066.497     2154454.020                                  
  38908817.460     1667189.3222                                 
  21644432.289     1331509.030                                  
  39148570.504     1687402.2292                                 
  21524151.830     2178075.308                                  
  23134941.224     2387767.732                                  
  22968230.883     1057788.920                                  
  23342291.063      847092.0822                                 
  21162212.781     1180154.247                                  
 18  3 23  9  8 23.0010000  0  9G30S23G28S20G 5G 7G20G15G13
  21324796.320     2163547.142                                  
  38910186.220     1674380.2852                                 
  21645568.909     1337482.113                                  
  39149952.457     1694664.9532                                 
  21525894.199     2187233.171                                  
  23136842.181     2397755.949                                  
  22969169.251     1062719.290                                  
  23343067.423      851169.2652                                 
  21163235.974     1185532.581                                  
 18  3 23  9  8 24.0010000  0  9G30S23G28S20G 5G 7G20G15G13
  21326528.638     2172646.453                                  
  38911555.574     1681577.0962                                 
  21646707.065     1343461.603                                  
  39151335.474     1701933.4702                                 
  21527638.087     2196397.417                                  
  23138743.609     2407750.188                                  
  22970108.666     1067655.984                                  
  23343844.464      855252.4642                                 
  21164260.930     1190917.075                                  
 18  3 23  9  8 25.0010000  0  9G30S23G28S20G 5G 7G20G15G13
  21328262.247     2181760.461                                  
  38912928.068     1688788.1752                                 
  21647847.227     1349455.979                                  
  39152721.230     1709216.0782                                 
  21529384.452     2205576.546                                  
  23140648.231     2417758.916                                  
  22971051.030     1072607.525                                  
  23344624.280      859350.144                                  
  21165288.469     1196316.233                                  
 18  3 23  9  8 26.0010000  0  9G30S23G28S20G 5G 7G20G15G13
  21329999.538     2190888.130                                  
  38914303.041     1696012.6102                                 
  21648990.321     1355464.234                                  
  39154109.884     1716511.9162                                 
  21531133.557     2214769.513                                  
  23142555.103     2427781.115                                  
  22971996.012     1077572.885                                  
  23345406.678      863461.305                                  
  21166318.747     1201729.042                                  
 18  3 23  9  8 27.0010000  0  9G30S23G28S20G 5G 7G20G15G13
  21331735.713     2200013.752                                  
  38915676.705     1703234.6142                                 
  21650133.502     1361470.673                                  
  39155497.752     1723805.4282                                 
  21532882.732     2223960.633                                  
  23144462.063     2437801.073                                  
  22972940.051     1082536.348                                  
  23346188.657      867570.253                                  
  21167347.961     1207139.782                                  
 18  3 23  9  8 28.0010000  0  9G30S23G28S20G 5G 7G20G15G13
  21333472.254     2209136.856                                  
  38917050.124     1710453.7222                                 
  21651276.090     1367474.816                                  
  39156884.887     1731096.3102                                 
  21534631.715     2233149.427                                  
  23146368.377     2447818.336                                  
  22973884.405     1087497.418                                  
  23346970.304      871676.533                                  
  21168377.332     1212547.995                                  
 18  3 23  9  8 29.0010000  0  9G30S23G28S20G 5G 7G20G15G13
  21335210.138     2218272.476                                  
  38918425.986     1717684.9982                                 
  21652421.052     1373491.666                                  
  39158275.495     1738399.2782                                 
  21536382.077     2242350.907                                  
  23148277.361     2457847.941                                  
  22974831.027     1092471.178                                  
  23347754.360      875795.075                                  
  21169408.954     1217968.710                                  
 18  3 23  9  8 30.0010000  0  9G30S23G28S20G 5G 7G20G15G13
  21336951.670     2227423.291                                  
  38919804.606     1724930.9932                                 
  21653569.084     1379523.925                                  
  39159667.795     1745717.1332                                 
  21538136.469     2251567.759                                  
  23150188.684     2467892.498                                  
  22975780.982     1097460.222                                  
  23348540.998      879928.638                                  
  21170443.158     1223404.565                                  
 18  3 23  9  8 31.0010000  0  9G30S23G28S20G 5G 7G20G15G13
  21338692.923     2236574.834                                  
  38921183.749     1732177.4122                                 
  21654716.907     1385557.131                                  
  39161060.462     1753035.3482                                 
  21539889.797     2260785.554                                  
  23152100.547     2477937.606                                  
  22976731.024     1102450.194                                  
  23349328.090      884062.782                                  
  21171477.921     1228841.145                                  
 18  3 23  9  8 32.0010000  0  9G30S23G28S20G 5G 7G20G15G13
  21340433.879     2245723.487                                  
  38922562.561     1739420.5962                                 
  21655864.346     1391587.669                                  
  39162452.449     1760350.2192                                 
  21541643.858     2270000.629                                  
  23154011.293     2487979.645                                  
  22977680.403     1107437.392                                  
  23350114.345      888193.813                                  
  21172512.126     1234274.821                                  
 18  3 23  9  8 33.0010000  0  9G30S23G28S20G 5G 7G20G15G13
  21342176.998     2254883.809                                  
  38923943.187     1746675.0372                                 
  21657014.158     1397630.078                                  
  39163847.000     1767676.0982                                 
  21543399.595     2279227.570                                  
  23155924.099     2498033.128                                  
  22978631.754     1112436.406                                  
  23350902.746      892336.361                                  
  21173548.180     1239720.136                                  
 18  3 23  9  8 34.0010000  0  9G30S23G28S20G 5G 7G20G15G13
  21343923.329     2264060.482                                  
  38925326.937     1753945.4652                                 
  21658167.269     1403689.053                                  
  39165243.838     1775017.7862                                 
  21545158.961     2288471.033                                  
  23157840.325     2508102.756                                  
  22979586.246     1117451.933                                  
  23351694.514      896495.016                                  
  21174587.550     1245181.773                                  
 18  3 23  9  8 35.0010000  0  9G30S23G28S20G 5G 7G20G15G13
  21345670.968     2273245.803                                  
  38926712.711     1761224.2042                                 
  21659321.653     1409756.903                                  
  39166642.543     1782367.8882                                 
  21546919.827     2297723.355                                  
  23159758.296     2518180.881                                  
  22980542.518     1122476.229                                  
  23352487.086      900662.178                                  
  21175628.560     1250652.056                                  
 18  3 23  9  8 36.0010000  0  9G30S23G28S20G 5G 7G20G15G13
  21347419.689     2282434.169                                  
  38928097.613     1768505.5422                                 
  21660476.578     1415828.031                                  
  39168041.457     1789720.7432                                 
  21548681.147     2306978.860                                  
  23161675.813     2528261.860                                  
  22981498.929     1127503.722                                  
  23353280.949      904832.124                                  
  21176669.902     1256125.347                                  
 18  3 23  9  8 37.0010000  0  9G30S23G28S20G 5G 7G20G15G13
  21349169.684     2291632.780                                  
  38929484.957     1775796.8042                                 
  21661633.685     1421909.583                                  
  39169442.134     1797083.5332                                 
  21550444.457     2316244.834                                  
  23163595.302     2538352.867                                  
  22982457.435     1132541.618                                  
  23354075.946      909012.195                                  
  21177713.460     1261608.872                                  
 18  3 23  9  8 38.0010000  0  9G30S23G28S20G 5G 7G20G15G13
  21350923.065     2300848.350                                  
  38930874.919     1783104.6462                                 
  21662794.316     1428008.332                                  
  39170846.562     1804463.1342                                 
  21552210.908     2325527.957                                  
  23165517.897     2548460.635                                  
  22983419.535     1137596.611                                  
  23354874.747      913209.043                                  
  21178759.740     1267109.338                                  
 18  3 23  9  8 39.0010000  0  9G30S23G28S20G 5G 7G20G15G13
  21352679.377     2310076.086                                  
  38932267.482     1790424.2852                                 
  21663957.233     1434119.478                                  
  39172252.439     1811854.3572                                 
  21553979.749     2334823.455                                  
  23167443.354     2558580.383                                  
  22984383.555     1142663.923                                  
  23355675.991      917417.897                                  
  21179808.498     1272621.964                                  
 18  3 23  9  8 40.0010000  0  9G30S23G28S20G 5G 7G20G15G13
  21354436.178     2319308.153                                  
  38933661.265     1797747.9132                                 
  21665120.988     1440235.136                                  
  39173659.956     1819249.3842                                 
  21555749.690     2344123.410                                  
  23169369.649     2568704.268                                  
  22985347.924     1147735.728                                  
  23356478.195      921630.843                                  
  21180858.513     1278138.876                                  
 18  3 23  9  8 41.0010000  0  9G30S23G28S20G 5G 7G20G15G13
  21356194.357     2328547.254                                  
  38935056.585     1805078.1412                                 
  21666286.017     1446358.070                                  
  39175068.852     1826651.2792                                 
  21557521.131     2353430.627                                  
  23171297.217     2578835.001                                  
  22986314.090     1152814.714                                  
  23357280.818      925850.657                                  
  21181910.080     1283662.827                                  
 18  3 23  9  8 42.0010000  0  9G30S23G28S20G 5G 7G20G15G13
  21357954.770     2337799.865                                  
  38936454.365     1812421.5462                                 
  21667453.524     1452494.725                                  
  39176479.754     1834066.3372                                 
  21559294.841     2362751.535                                  
  23173226.897     2588979.021                                  
  22987283.293     1157907.348                                  
  23358086.023      930083.814                                  
  21182963.515     1289200.248                                  
 18  3 23  9  8 43.0010000  0  9G30S23G28S20G 5G 7G20G15G13
  21359717.870     2347064.764                                  
  38937853.855     1819776.8632                                 
  21668623.614     1458643.858                                  
  39177893.204     1841493.1532                                 
  21561070.959     2372084.908                                  
  23175159.474     2599135.157                                  
  22988254.851     1163012.411                                  
  23358893.567      934329.052                                  
  21184019.864     1294749.943                                  
 18  3 23  9  8 44.0010000  0  9G30S23G28S20G 5G 7G20G15G13
  21361480.429     2356327.808                                  
  38939253.013     1827129.9652                                 
  21669793.005     1464791.388                                  
  39179305.904     1848917.7512                                 
  21562846.658     2381416.630                                  
  23177091.702     2609289.278                                  
  22989225.903     1168115.788                                  
  23359700.797      938572.274                                  
  21185075.253     1300297.774                                  
 18  3 23  9  8 45.0010000  0  9G30S23G28S20G 5G 7G20G15G13
  21363243.076     2365589.901                                  
  38940652.015     1834481.7112                                 
  21670962.798     1470938.164                                  
  39180718.901     1856341.0642                                 
  21564622.358     2390747.568                                  
  23179023.615     2619442.222                                  
  22990197.043     1173218.342                                  
  23360507.834      942814.370                                  
  21186130.642     1305844.631                                  
 18  3 23  9  8 46.0010000  0  9G30S23G28S20G 5G 7G20G15G13
  21365008.095     2374865.114                                  
  38942053.616     1841846.2282                                 
  21672135.470     1477098.278                                  
  39182133.084     1863777.1222                                 
  21566400.221     2400091.827                                  
  23180957.920     2629608.082                                  
  22991170.922     1178334.176                                  
  23361317.821      947069.371                                  
  21187188.335     1311404.593                                  
 18  3 23  9  8 47.0010000  0  9G30S23G28S20G 5G 7G20G15G13
  21366775.767     2384153.994                                  
  38943457.329     1849224.0722                                 
  21673310.323     1483272.285                                  
  39183550.669     1871226.5172                                 
  21568181.103     2409449.935                                  
  23182894.196     2639787.459                                  
  22992147.139     1183463.820                                  
  23362130.233      951337.887                                  
  21188249.256     1316978.215                                  
 18  3 23  9  8 48.0010000  0  9G30S23G28S20G 5G 7G20G15G13
  21368543.143     2393442.269                                  
  38944861.548     1856600.8732                                 
  21674485.107     1489445.894                                  
  39184967.976     1878674.9562                                 
  21569961.287     2418807.637                                  
  23184831.170     2649965.999                                  
  22993122.868     1188593.012                                  
  23362943.187      955605.622                                  
  21189309.705     1322551.204                                  
 18  3 23  9  8 49.0010000  0  9G30S23G28S20G 5G 7G20G15G13
  21370310.658     2402729.427                                  
  38946264.738     1863976.2512                                 
  21675659.733     1495618.603                                  
  39186384.847     1886121.6222                                 
  21571741.889     2428164.394                                  
  23186767.778     2660143.264                                  
  22994098.510     1193721.215                                  
  23363754.936      959872.044                                  
  21190370.382     1328123.053                                  
 18  3 23  9  8 50.0010000  0  9G30S23G28S20G 5G 7G20G15G13
  21372080.215     2412031.003                                  
  38947670.771     1871365.6612                                 
  21676836.593     1501805.956                                  
  39187804.928     1893582.4442                                 
  21573525.371     2437535.764                                  
  23188706.462     2670334.657                                  
  22995077.153     1198864.001                                  
  23364569.774      964152.700                                  
  21191433.031     1333709.302                                  
 18  3 23  9  8 51.0010000  0  9G30S23G28S20G 5G 7G20G15G13
  21373854.448     2421349.500                                  
  38949080.400     1878771.6352                                 
  21678017.450     1508010.449                                  
  39189227.487     1901059.9242                                 
  21575312.221     2446924.241                                  
  23190649.439     2680542.888                                  
  22996058.920     1204023.888                                  
  23365388.137      968450.109                                  
  21192499.972     1339312.479                                  
 18  3 23  9  8 52.0010000  0  9G30S23G28S20G 5G 7G20G15G13
  21375627.547     2430670.821                                  
  38950489.557     1886180.0012                                 
  21679198.725     1514217.963                                  
  39190650.709     1908539.7722                                 
  21577099.263     2456315.734                                  
  23192591.683     2690753.734                                  
  22997041.001     1209186.712                                  
  23366206.848      972750.147                                  
  21193566.320     1344918.441                                  
 18  3 23  9  8 53.0010000  0  9G30S23G28S20G 5G 7G20G15G13
  21377401.170     2439989.519                                  
  38951898.907     1893585.3992                                 
  21680379.825     1520423.097                                  
  39192073.408     1916016.5252                                 
  21578885.956     2465704.765                                  
  23194534.329     2700961.692                                  
  22998022.698     1214347.064                                  
  23367025.037      977047.372                                  
  21194632.912     1350521.756                                  
 18  3 23  9  8 54.0010000  0  9G30S23G28S20G 5G 7G20G15G13
  21379176.800     2449318.594                                  
  38953309.425     1901000.7852                                 
  21681562.549     1526638.819                                  
  39193498.428     1923503.2752                                 
  21580674.743     2475104.365                                  
  23196479.923     2711179.890                                  
  22999006.366     1219517.960                                  
  23367844.534      981354.804                                  
  21195701.144     1356135.433                                  
 18  3 23  9  8 55.0010000  0  9G30S23G28S20G 5G 7G20G15G13
  21380955.518     2458664.091                                  
  38954723.608     1908432.3282                                 
  21682748.570     1532871.188                                  
  39194926.344     1931006.2092                                 
  21582466.898     2484520.595                                  
  23198428.118     2721414.377                                  
  22999993.124     1224705.428                                  
  23368667.050      985678.502                                  
  21196772.413     1361765.538                                  
 18  3 23  9  8 56.0010000  0  9G30S23G28S20G 5G 7G20G15G13
  21382735.632     2468018.485                                  
  38956139.414     1915872.3662                                 
  21683936.075     1539112.620                                  
  39196356.058     1938517.7732                                 
  21584260.117     2493945.866                                  
  23200377.185     2731657.4633                                 
  23000981.801     1229901.920                                  
  23369491.014      990010.856                                  
  21197845.008     1367404.477                                  
 18  3 23  9  8 57.0010000  0  9G30S23G28S20G 5G 7G20G15G13
  21384515.886     2477374.708                                  
  38957555.779     1923313.8572                                 
  21685123.545     1545356.149                                  
  39197785.964     1946030.8592                                 
  21586054.488     2503373.222                                  
  23202326.654     2741902.2562                                 
  23001970.321     1235100.402                                  
  23370316.287      994344.900                                  
  21198918.563     1373045.291                                  
 18  3 23  9  8 58.0010000  0  9G30S23G28S20G 5G 7G20G15G13
  21386298.007     2486740.120                                  
  38958973.958     1930764.1422                                 
  21686313.632     1551609.051                                  
  39199217.388     1953552.6032                                 
  21587850.342     2512809.906                                  
  23204278.146     2752155.9872                                 
  23002961.336     1240308.208                                  
  23371143.201      998687.922                                  
  21199993.811     1378695.227                                  
 18  3 23  9  8 59.0010000  0  9G30S23G28S20G 5G 7G20G15G13
  21388083.949     2496122.462                                  
  38960395.261     1938230.9742                                 
  21687506.389     1557879.127                                  
  39200651.761     1961090.9372                                 
  21589649.163     2522263.695                                  
  23206231.698     2762426.5232                                 
  23003955.405     1245533.118                                  
  23371972.924     1003047.741                                  
  21201072.269     1384362.076                                  
 18  3 23  9  9  0.0010000  0  9G30S23G28S20G 5G 7G20G15G13
  21389872.038     2505517.071                                  
  38961818.466     1945709.7442                                 
  21688702.532     1564161.684                                  
  39202088.385     1968641.1092                                 
  21591450.654     2531729.964                                  
  23208188.670     2772709.0512                                 
  23004952.406     1250770.436                                  
  23372804.950     1007419.654                                  
  21202153.450     1390041.199                                  
 18  3 23  9  9  1.0000000  0  9G30S23G28S20G 5G 7G20G15G13
  21091868.213     2514916.383                                  
  38663449.407     1953192.8482                                 
  21390106.499     1570449.140                                  
  38903733.374     1976195.5812                                 
  21293460.230     2541201.128                                  
  22910354.513     2782996.1542                                 
  22706157.074     1256012.614                                  
  23073845.167     1011796.011                                  
  20903442.594     1395724.985                                  
 18  3 23  9  9  2.0000000  0  9G30S23G28S20G 5G 7G20G15G13
  21093658.343     2524324.093                                  
  38664874.881     1960683.9442                                 
  21391304.247     1576745.224                                  
  38905172.423     1983757.9542                                 
  21295264.269     2550680.874                                  
  22912313.911     2793291.4232                                 
  22707156.500     1261263.314                                  
  23074679.200     1016180.645                                  
  20904525.345     1401417.169                                  
 18  3 23  9  9  3.0000000  0  9G30S23G28S20G 5G 7G20G15G13
  21095451.161     2533747.615                                  
  38666302.832     1968190.5162                                 
  21392505.921     1583057.354                                  
  38906614.143     1991335.7882                                 
  21297071.099     2560176.649                                  
  22914276.171     2803602.3482                                 
  22708158.247     1266530.013                                  
  23075516.008     1020580.889                                  
  20905611.534     1407125.174                                  
 18  3 23  9  9  4.0000000  0  9G30S23G28S20G 5G 7G20G15G13
  21097247.277     2543184.331                                  
  38667733.348     1975709.8792                                 
  21393709.532     1589382.871                                  
  38908059.196     1998926.3942                                 
  21298880.791     2569685.765                                  
  22916240.838     2813926.2522                                 
  22709162.769     1271810.037                                  
  23076356.428     1024994.140                                  
  20906700.340     1412846.330                                  
 18  3 23  9  9  5.0000000  0  9G30S23G28S20G 5G 7G20G15G13
  21099042.311     2552619.707                                  
  38669164.319     1983227.5232                                 
  21394912.690     1595707.272                                  
  38909503.637     2006515.4212                                 
  21300690.117     2579193.736                                  
  22918205.017     2824248.6252                                 
  22710167.046     1277088.871                                  
  23077195.347     1029405.889                                  
  20907788.902     1418566.132                                  
 18  3 23  9  9  6.0000000  0  9G30S23G28S20G 5G 7G20G15G13
  21100838.602     2562055.834                                  
  38670594.853     1990745.5613                                 
  21396116.162     1602032.651                                  
  38910948.341     2014104.7962                                 
  21302499.687     2588702.643                                  
  22920169.633     2834571.5562                                 
  22711171.673     1282368.618                                  
  23078034.301     1033818.195                                  
  20908877.325     1424286.663                                  
 18  3 23  9  9  7.0000000  0  9G30S23G28S20G 5G 7G20G15G13
  21102636.725     2571506.771                                  
  38672027.987     1998278.0392                                 
  21397322.792     1608373.052                                  
  38912394.981     2021708.5512                                 
  21304311.980     2598226.547                                  
  22922137.215     2844909.100                                  
  22712179.597     1287663.340                                  
  23078876.903     1038245.147                                  
  20909968.591     1430022.001                                  
 18  3 23  9  9  8.0000000  0  9G30S23G28S20G 5G 7G20G15G13
  21104438.739     2580973.756                                  
  38673464.192     2005826.1692                                 
  21398532.441     1614729.724                                  
  38913844.972     2029328.1602                                 
  21306127.535     2607766.684                                  
  22924106.943     2855262.526                                  
  22713190.140     1292974.259                                  
  23079721.982     1042687.933                                  
  20911063.226     1435773.369                                  
 18  3 23  9  9  9.0000000  0  9G30S23G28S20G 5G 7G20G15G13
  21106239.950     2590442.905                                  
  38674901.060     2013376.2122                                 
  21399742.579     1621088.785                                  
  38915295.225     2036949.6382                                 
  21307943.545     2617309.171                                  
  22926076.339     2865617.913                                  
  22714200.943     1298287.507                                  
  23080567.584     1047132.736                                  
  20912157.948     1441526.893                                  
 18  3 23  9  9 10.0000000  0  9G30S23G28S20G 5G 7G20G15G13
  21108042.261     2599911.361                                  
  38676337.981     2020925.0852                                 
  21400952.961     1627447.356                                  
  38916745.198     2044569.8082                                 
  21309759.222     2626851.155                                  
  22928046.835     2875972.399                                  
  22715212.026     1303600.197                                  
  23081413.588     1051576.628                                  
  20913252.984     1447279.692                                  
 18  3 23  9  9 11.0000000  0  9G30S23G28S20G 5G 7G20G15G13
  21109846.125     2609390.425                                  
  38677776.315     2028484.2202                                 
  21402164.686     1633816.780                                  
  38918197.510     2052200.1372                                 
  21311577.029     2636403.939                                  
  22930019.548     2886337.299                                  
  22716225.291     1308923.648                                  
  23082260.901     1056030.992                                  
  20914349.852     1453043.091                                  
 18  3 23  9  9 12.0000000  0  9G30S23G28S20G 5G 7G20G15G13
  21111653.165     2618886.341                                  
  38679217.860     2036059.7922                                 
  21403379.972     1640203.246                                  
  38919652.509     2059847.2742                                 
  21313397.994     2645973.757                                  
  22931995.820     2896718.847                                  
  22717241.434     1314264.096                                  
  23083111.460     1060501.996                                  
  20915449.879     1458823.313                                  
 18  3 23  9  9 13.0000000  0  9G30S23G28S20G 5G 7G20G15G13
  21113461.932     2628393.087                                  
  38680661.656     2043645.8792                                 
  21404597.666     1646600.779                                  
  38921109.219     2067504.8432                                 
  21315221.402     2655554.578                                  
  22933973.017     2907111.081                                  
  22718260.161     1319615.508                                  
  23083963.624     1064983.636                                  
  20916551.756     1464614.345                                  
 18  3 23  9  9 14.0000000  0  9G30S23G28S20G 5G 7G20G15G13
  21115271.904     2637905.299                                  
  38682107.040     2051237.0892                                 
  21405815.516     1653004.004                                  
  38922567.708     2075167.5302                                 
  21317045.264     2665141.071                                  
  22935951.575     2917508.586                                  
  22719279.131     1324972.544                                  
  23084817.375     1069470.694                                  
  20917654.993     1470410.865                                  
 18  3 23  9  9 15.0000000  0  9G30S23G28S20G 5G 7G20G15G13
  21117083.934     2647427.063                                  
  38683553.925     2058837.3902                                 
  21407036.578     1659416.955                                  
  38924027.541     2082839.4282                                 
  21318871.150     2674737.265                                  
  22937931.581     2927915.378                                  
  22720300.144     1330339.333                                  
  23085673.780     1073966.954                                  
  20918759.854     1476216.898                                  
 18  3 23  9  9 16.0000000  0  9G30S23G28S20G 5G 7G20G15G13
  21118898.705     2656964.340                                  
  38685003.323     2066452.8802                                 
  21408260.257     1665845.689                                  
  38925489.904     2090526.2682                                 
  21320700.474     2684349.199                                  
  22939914.624     2938337.537                                  
  22721324.733     1335721.745                                  
  23086532.226     1078478.600                                  
  20919867.332     1482038.419                                  
 18  3 23  9  9 17.0000000  0  9G30S23G28S20G 5G 7G20G15G13
  21120715.743     2666513.993                                  
  38686454.117     2074080.4292                                 
  21409486.117     1672287.007                                  
  38926954.850     2098224.9482                                 
  21322532.328     2693973.684                                  
  22941899.499     2948771.965                                  
  22722351.137     1341116.716                                  
  23087393.115     1083002.454                                  
  20920977.358     1487872.338                                  
 18  3 23  9  9 18.0000000  0  9G30S23G28S20G 5G 7G20G15G13
  21122533.288     2676067.885                                  
  38687905.957     2081711.7712                                 
  21410712.641     1678732.772                                  
  38928420.651     2105927.3872                                 
  21324364.932     2703602.574                                  
  22943885.159     2959210.336                                  
  22723378.187     1346516.015                                  
  23088254.440     1087530.356                                  
  20922088.117     1493710.452                                  
 18  3 23  9  9 19.0000000  0  9G30S23G28S20G 5G 7G20G15G13
  21124352.788     2685628.745                                  
  38689359.107     2089349.7672                                 
  21411940.543     1685185.718                                  
  38929887.795     2113636.5422                                 
  21326198.776     2713238.651                                  
  22945872.530     2969655.545                                  
  22724407.070     1351922.487                                  
  23089117.266     1092065.089                                  
  20923200.411     1499555.529                                  
 18  3 23  9  9 20.0000000  0  9G30S23G28S20G 5G 7G20G15G13
  21126174.765     2695204.376                                  
  38690814.682     2097002.1562                                 
  21413171.411     1691653.659                                  
  38931357.138     2121360.0682                                 
  21328035.272     2722889.667                                  
  22947862.971     2980115.310                                  
  22725438.674     1357343.857                                  
  23089982.727     1096614.357                                  
  20924315.288     1505415.349                                  
 18  3 23  9  9 21.0000000  0  9G30S23G28S20G 5G 7G20G15G13
  21127999.290     2704791.703                                  
  38692273.188     2104665.8212                                 
  21414404.740     1698133.524                                  
  38932828.994     2129094.9922                                 
  21329874.036     2732552.565                                  
  22949855.228     2990586.512                                  
  22726472.530     1362777.097                                  
  23090850.666     1101175.148                                  
  20925433.201     1511286.866                                  
 18  3 23  9  9 22.0000000  0  9G30S23G28S20G 5G 7G20G15G13
  21129822.995     2714377.607                                  
  38693731.555     2112327.6712                                 
  21415637.633     1704612.187                                  
  38934300.362     2136828.2092                                 
  21331711.980     2742214.234                                  
  22951847.711     3001056.146                                  
  22727505.932     1368209.052                                  
  23091718.465     1105734.362                                  
  20926549.858     1517156.948                                  
 18  3 23  9  9 23.0000000  0  9G30S23G28S20G 5G 7G20G15G13
  21131647.363     2723961.834                                  
  38695189.102     2119987.5242                                 
  21416870.474     1711089.385                                  
  38935771.817     2144559.3882                                 
  21333550.849     2751874.412                                  
  22953839.601     3011523.919                                  
  22728539.124     1373639.494                                  
  23092585.340     1110291.717                                  
  20927666.218     1523025.328                                  
 18  3 23  9  9 24.0000000  0  9G30S23G28S20G 5G 7G20G15G13
  21133473.336     2733559.840                                  
  38696648.918     2127660.7802                                 
  21418106.281     1717580.594                                  
  38937245.487     2152303.9752                                 
  21335391.603     2761548.559                                  
  22955834.231     3022005.276                                  
  22729575.859     1379083.846                                  
  23093455.198     1114862.677                                  
  20928785.597     1528907.483                                  
 18  3 23  9  9 25.0000000  0  9G30S23G28S20G 5G 7G20G15G13
  21135302.852     2743173.445                                  
  38698111.612     2135349.2702                                 
  21419344.583     1724087.602                                  
  38938721.549     2160063.7932                                 
  21337235.637     2771238.481                                  
  22957831.844     3032502.003                                  
  22730614.339     1384543.948                                  
  23094328.198     1119449.049                                  
  20929907.734     1534805.198                                  
 18  3 23  9  9 26.0000000  0  9G30S23G28S20G 5G 7G20G15G13
  21137132.507     2752788.675                                  
  38699575.040     2143039.0302                                 
  21420582.833     1730596.468                                  
  38940198.291     2167824.7742                                 
  21339079.881     2780930.240                                  
  22959828.708     3043000.217                                  
  22731654.163     1390005.853                                  
  23095201.040     1124036.830                                  
  20931029.992     1540704.539                                  
 18  3 23  9  9 27.0000000  0  9G30S23G28S20G 5G 7G20G15G13
  21138961.831     2762400.865                                  
  38701038.380     2150725.4552                                 
  21421820.612     1737102.524                                  
  38941674.073     2175582.3002                                 
  21340923.322     2790619.163                                  
  22961825.606     3053495.195                                  
  22732692.887     1395464.874                                  
  23096073.481     1128621.453                                  
  20932152.512     1546600.847                                  
 18  3 23  9  9 28.0000000  0  9G30S23G28S20G 5G 7G20G15G13
  21140792.760     2772023.885                                  
  38702502.541     2158422.3072                                 
  21423060.834     1743619.616                                  
  38943152.264     2183350.3662                                 
  21342768.892     2800319.076                                  
  22963824.162     3064000.803                                  
  22733733.548     1400934.868                                  
  23096948.418     1133216.711                                  
  20933276.551     1552507.955                                  
 18  3 23  9  9 29.0000000  0  9G30S23G28S20G 5G 7G20G15G13
  21142627.441     2781662.866                                  
  38703969.895     2166134.7332                                 
  21424304.546     1750152.901                                  
  38944633.979     2191134.2892                                 
  21344617.987     2810035.142                                  
  22965825.964     3074522.167                                  
  22734777.804     1406420.966                                  
  23097826.181     1137827.750                                  
  20934403.643     1558431.009                                  
 18  3 23  9  9 30.0000000  0  9G30S23G28S20G 5G 7G20G15G13
  21144462.506     2791305.794                                  
  38705438.278     2173850.7602                                 
  21425548.432     1756690.361                                  
  38946116.131     2198921.7452                                 
  21346467.570     2819755.323                                  
  22967829.318     3085047.3593                                 
  22735822.252     1411911.200                                  
  23098704.154     1142442.586                                  
  20935531.520     1564358.020                                  
 18  3 23  9  9 31.0000000  0  9G30S23G28S20G 5G 7G20G15G13
  21146297.117     2800947.568                                  
  38706907.674     2181565.1952                                 
  21426791.987     1763226.771                                  
  38947597.358     2206707.4612                                 
  21348316.456     2829474.543                                  
  22969832.516     3095571.2003                                 
  22736866.769     1417400.346                                  
  23099582.371     1147056.016                                  
  20936659.624     1570283.787                                  
 18  3 23  9  9 32.0000000  0  9G30S23G28S20G 5G 7G20G15G13
  21148133.107     2810600.096                                  
  38708377.837     2189290.0792                                 
  21428037.339     1769774.321                                  
  38949080.941     2214503.4892                                 
  21350168.430     2839204.680                                  
  22971837.616     3106105.5642                                 
  22737914.428     1422900.466                                  
  23100462.770     1151680.071                                  
  20937789.456     1576220.340                                  
 18  3 23  9  9 33.0000000  0  9G30S23G28S20G 5G 7G20G15G13
  21149973.023     2820269.709                                  
  38709851.613     2197031.8202                                 
  21429286.338     1776339.183                                  
  38950567.472     2222316.2412                                 
  21352023.754     2848952.197                                  
  22973845.944     3116656.8862                                 
  22738964.338     1428417.915                                  
  23101346.047     1156321.094                                  
  20938922.080     1582174.064                                  
 18  3 23  9  9 34.0000000  0  9G30S23G28S20G 5G 7G20G15G13
  21151815.591     2829950.399                                  
  38711326.784     2204784.0642                                 
  21430537.763     1782915.238                                  
  38952055.819     2230139.5162                                 
  21353880.684     2858710.878                                  
  22975855.616     3127218.9482                                 
  22740015.975     1433946.471                                  
  23102231.157     1160972.928                                  
  20940056.972     1588138.722                                  
 18  3 23  9  9 35.0000000  0  9G30S23G28S20G 5G 7G20G15G13
  21153658.596     2839636.798                                  
  38712802.986     2212541.7852                                 
  21431790.637     1789497.238                                  
  38953545.352     2237968.2732                                 
  21355738.574     2868475.480                                  
  22977866.910     3137786.6142                                 
  22741068.363     1439480.920                                  
  23103117.332     1165630.325                                  
  20941192.545     1594109.144                                  
 18  3 23  9  9 36.0000000  0  9G30S23G28S20G 5G 7G20G15G13
  21155504.044     2849333.913                                  
  38714280.879     2220309.7492                                 
  21433045.115     1796090.193                                  
  38955037.677     2245807.4422                                 
  21357598.139     2878250.939                                  
  22979880.509     3148364.7712                                 
  22742123.857     1445026.8783                                 
  23104005.897     1170298.331                                  
  20942330.683     1600090.258                                  
 18  3 23  9  9 37.0000000  0  9G30S23G28S20G 5G 7G20G15G13
  21157351.813     2859047.115                                  
  38715762.839     2228093.6172                                 
  21434302.508     1802699.496                                  
  38956532.463     2253662.1512                                 
  21359460.566     2888042.723                                  
  22981896.253     3158958.8652                                 
  22743182.771     1450588.5352                                 
  23104897.917     1174982.209                                  
  20943472.538     1606087.484                                  
 18  3 23  9  9 38.0000000  0  9G30S23G28S20G 5G 7G20G15G13
  21159201.885     2868771.452                                  
  38717245.654     2235888.0202                                 
  21435562.309     1809320.112                                  
  38958029.011     2261527.7282                                 
  21361326.430     2897845.884                                  
  22983914.807     3169563.9163                                 
  22744243.256     1456161.3142                                 
  23105791.002     1179676.979                                  
  20944615.929     1612095.753                                  
 18  3 23  9  9 39.0000000  0  9G30S23G28S20G 5G 7G20G15G13
  21161053.161     2878500.789                                  
  38718729.376     2243687.0412                                 
  21436823.419     1815945.916                                  
  38959526.554     2269397.7553                                 
  21363192.906     2907654.040                                  
  22985934.059     3180173.5743                                 
  22745304.456     1461738.8033                                 
  23106685.465     1184376.189                                  
  20945760.087     1618108.943                                  
 18  3 23  9  9 40.0000000  0  9G30S23G28S20G 5G 7G20G15G13
  21162905.048     2888231.746                                  
  38720213.849     2251487.5252                                 
  21438085.017     1822573.692                                  
  38961024.096     2277269.6033                                 
  21365060.236     2917464.230                                  
  22987951.636     3190784.6833                                 
  22746366.755     1467319.0693                                 
  23107579.457     1189077.505                                  
  20946904.054     1624123.860                                  
 18  3 23  9  9 41.0000000  0  9G30S23G28S20G 5G 7G20G15G13
  21164759.465     2897971.639                                  
  38721700.590     2259296.3832                                 
  21439348.448     1829210.457                                  
  38962523.175     2285149.6562                                 
  21366928.701     2927283.372                                  
  22989974.308     3201404.1543                                 
  22747429.857     1472907.7993                                 
  23108475.264     1193787.193                                  
  20948050.585     1630147.626                                  
 18  3 23  9  9 42.0000000  0  9G30S23G28S20G 5G 7G20G15G13
  21166615.679     2907724.030                                  
  38723188.779     2267117.4682                                 
  21440613.885     1835860.046                                  
  38964025.202     2293041.9092                                 
  21368799.294     2937115.272                                  
  22991995.671     3212036.4993                                 
  22748495.438     1478509.3312                                 
  23109373.741     1198509.335                                  
  20949198.897     1636183.919                                  
 18  3 23  9  9 43.0000000  0  9G30S23G28S20G 5G 7G20G15G13
  21168472.068     2917478.994                                  
  38724677.248     2274940.7762                                 
  21441879.689     1842512.388                                  
  38965527.841     2300936.1852                                 
  21370670.342     2946949.914                                  
  22994019.338     3222671.1702                                 
  22749562.012     1484113.5812                                 
  23110272.811     1203233.884                                  
  20950348.325     1642222.768                                  
 18  3 23  9  9 44.0000000  0  9G30S23G28S20G 5G 7G20G15G13
  21170328.789     2927237.201                                  
  38726166.659     2282766.9262                                 
  21443146.226     1849168.226                                  
  38967030.863     2308833.4192                                 
  21372542.191     2956787.975                                  
  22996043.773     3233308.9002                                 
  22750629.163     1489721.2792                                 
  23111172.509     1207961.469                                  
  20951497.963     1648264.850                                  
 18  3 23  9  9 45.0000000  0  9G30S23G28S20G 5G 7G20G15G13
  21172188.005     2937005.727                                  
  38727658.356     2290603.0122                                 
  21444414.997     1855834.575                                  
  38968536.153     2316740.7222                                 
  21374416.729     2966636.573                                  
  22998069.743     3243956.7372                                 
  22751697.989     1495339.4052                                 
  23112074.127     1212699.215                                  
  20952649.835     1654317.231                                  
 18  3 23  9  9 46.0000000  0  9G30S23G28S20G 5G 7G20G15G13
  21174049.751     2946790.332                                  
  38729152.112     2298454.8572                                 
  21445686.681     1862517.246                                  
  38970043.765     2324663.4712                                 
  21376293.430     2976501.413                                  
  23000100.564     3254620.4652                                 
  22752770.601     1500973.7882                                 
  23112979.043     1217452.854                                  
  20953804.393     1660385.687                                  
 18  3 23  9  9 47.0000000  0  9G30S23G28S20G 5G 7G20G15G13
  21175912.423     2956578.541                                  
  38730646.915     2306309.9552                                 
  21446959.256     1869203.740                                  
  38971552.092     2332589.2822                                 
  21378171.440     2986370.046                                  
  23002127.739     3265287.6072                                 
  22753843.144     1506611.9262                                 
  23113884.308     1222209.928                                  
  20954960.034     1666457.748                                  
 18  3 23  9  9 48.0000000  0  9G30S23G28S20G 5G 7G20G15G13
  21177774.692     2966367.146                                  
  38732141.614     2314165.0342                                 
  21448231.220     1875890.848                                  
  38973060.681     2340515.2612                                 
  21380049.502     2996239.260                                  
  23004160.602     3275954.9592                                 
  22754916.385     1512250.6392                                 
  23114789.259     1226967.215                                  
  20956115.256     1672530.190                                  
 18  3 23  9  9 49.0000000  0  9G30S23G28S20G 5G 7G20G15G13
  21179639.457     2976165.430                                  
  38733638.109     2322029.4722                                 
  21449506.045     1882587.837                                  
  38974570.299     2348450.5502                                 
  21381929.414     3006118.336                                  
  23006192.715     3286631.8082                                 
  22755991.824     1517898.650                                  
  23115697.089     1231733.994                                  
  20957272.851     1678612.273                                  
 18  3 23  9  9 50.0000000  0  9G30S23G28S20G 5G 7G20G15G13
  21181507.399     2985979.449                                  
  38735136.943     2329909.3132                                 
  21450783.820     1889300.800                                  
  38976083.425     2356401.2802                                 
  21383812.432     3016013.319                                  
  23008227.288     3297324.1312                                 
  22757069.096     1523563.069                                  
  23116607.083     1236516.352                                  
  20958433.203     1684710.102                                  
 18  3 23  9  9 51.0000000  0  9G30S23G28S20G 5G 7G20G15G13
  21183376.544     2995803.266                                  
  38736638.273     2337798.4972                                 
  21452062.799     1896023.790                                  
  38977597.790     2364361.4742                                 
  21385697.265     3025918.305                                  
  23010262.803     3308026.1172                                 
  22758148.532     1529237.442                                  
  23117519.031     1241308.289                                  
  20959595.824     1690817.716                                  
 18  3 23  9  9 52.0000000  0  9G30S23G28S20G 5G 7G20G15G13
  21185246.980     3005633.712                                  
  38738141.068     2345693.9602                                 
  21453343.523     1902753.620                                  
  38979113.533     2372328.0102                                 
  21387583.180     3035830.107                                  
  23012300.221     3318734.5302                                 
  22759229.468     1534918.613                                  
  23118432.201     1246106.709                                  
  20960759.300     1696931.948                                  
 18  3 23  9  9 53.0000000  0  9G30S23G28S20G 5G 7G20G15G13
  21187119.703     3015473.778                                  
  38739645.504     2353598.7002                                 
  21454625.869     1909493.300                                  
  38980631.091     2380303.7062                                 
  21389471.206     3045751.716                                  
  23014339.663     3329452.3772                                 
  22760312.324     1540609.545                                  
  23119347.308     1250914.561                                  
  20961924.573     1703055.803                                  
 18  3 23  9  9 54.0000000  0  9G30S23G28S20G 5G 7G20G15G13
  21188995.113     3025328.154                                  
  38741152.365     2361517.3912                                 
  21455911.444     1916247.520                                  
  38982151.808     2388293.4282                                 
  21391361.588     3055687.814                                  
  23016381.740     3340184.3422                                 
  22761397.937     1546314.968                                  
  23120264.736     1255736.548                                  
  20963092.673     1709193.958                                  
 18  3 23  9  9 55.0000000  0  9G30S23G28S20G 5G 7G20G15G13
  21190872.302     3035193.444                                  
  38742660.849     2369446.6012                                 
  21457198.695     1923012.883                                  
  38983674.549     2396293.8132                                 
  21393253.942     3065635.021                                  
  23018426.382     3350926.558                                  
  22762486.097     1552031.447                                  
  23121184.205     1260569.287                                  
  20964263.007     1715342.980                                  
 18  3 23  9  9 56.0000000  0  9G30S23G28S20G 5G 7G20G15G13
  21192749.335     3045058.358                                  
  38744169.298     2377375.1152                                 
  21458485.700     1929778.075                                  
  38985196.662     2404293.3542                                 
  21395146.802     3075582.043                                  
  23020470.361     3361668.675                                  
  22763573.246     1557747.737                                  
  23122104.250     1265401.489                                  
  20965432.712     1721491.673                                  
 18  3 23  9  9 57.0000000  0  9G30S23G28S20G 5G 7G20G15G13
  21194626.420     3054923.202                                  
  38745677.695     2385303.1452                                 
  21459773.422     1936543.447                                  
  38986718.530     2412292.4532                                 
  21397039.889     3085529.163                                  
  23022515.509     3372410.507                                  
  22764661.337     1563464.079                                  
  23123023.859     1270233.472                                  
  20966603.133     1727640.266                                  
 18  3 23  9  9 58.0000000  0  9G30S23G28S20G 5G 7G20G15G13
  21196505.843     3064801.405                                  
  38747189.582     2393244.1652                                 
  21461063.534     1943322.397                                  
  38988243.487     2420304.4512                                 
  21398935.890     3095489.862                                  
  23024562.489     3383165.498                                  
  22765752.289     1569193.916                                  
  23123946.156     1275078.560                                  
  20967776.172     1733802.172                                  
 18  3 23  9  9 59.0000000  0  9G30S23G28S20G 5G 7G20G15G13
  21198388.844     3074694.437                                  
  38748703.388     2401199.7212                                 
  21462356.141     1950116.367                                  
  38989770.556     2428330.7342                                 
  21400833.968     3105465.555                                  
  23026612.192     3393935.160                                  
  22766845.406     1574938.819                                  
  23124870.738     1279938.366                                  
  20968951.758     1739978.922                                  
 18  3 23  9 10  0.0000000  0 10G30S23G28S20G 5G 7G20G15G21G13
  21200271.530     3084589.191                                  
  38750217.387     2409156.5352                                 
  21463649.237     1956912.309                                  
  38991298.409     2436358.3572                                 
  21402732.272     3115443.160                                  
  23028662.261     3404706.382                                  
  22767938.383     1580685.539                                  
  23125796.036     1284799.716                                  
  25710220.887       25505.5413                                 
  20970127.432     1746157.394                                  
 18  3 23  9 10  1.0000000  0 10G30S23G28S20G 5G 7G20G15G21G13
  21202154.130     3094482.376                                  
  38751731.560     2417111.4612                                 
  21464941.967     1963706.895                                  
  38992825.460     2444384.1672                                 
  21404630.926     3125419.377                                  
  23030711.457     3415475.789                                  
  22769032.163     1586430.870                                  
  23126720.583     1289659.305                                  
  25711705.465       33264.1413                                 
  20971302.966     1752334.268                                  
 18  3 23  9 10  2.0000000  0 10G30S23G28S20G 5G 7G20G15G21G13
  21204039.067     3104386.642                                  
  38753247.652     2425077.0922                                 
  21466236.756     1970512.799                                  
  38994354.361     2452420.6882                                 
  21406531.516     3135406.876                                  
  23032762.765     3426256.088                                  
  22770128.036     1592187.402                                  
  23127647.364     1294529.802                                  
  25713181.439       41033.9123                                 
  20972480.646     1758522.224                                  
 18  3 23  9 10  3.0000000  0  9G30S23G28S20G 5G 7G20G15G13
  21205926.884     3114306.661                                  
  38754766.048     2433058.1432                                 
  21467535.174     1977334.672                                  
  38995886.386     2460472.5852                                 
  21408435.509     3145410.316                                  
  23034817.424     3437051.999                                  
  22771226.091     1597959.909                                  
  23128576.623     1299415.910                                  
  20973661.171     1764725.958                                  
 18  3 23  9 10  4.0000000  0  9G30S23G28S20G 5G 7G20G15G13
  21207816.272     3124234.734                                  
  38756286.485     2441046.8682                                 
  21468835.041     1984164.814                                  
  38997419.998     2468532.0932                                 
  21410340.777     3155421.992                                  
  23036873.059     3447855.686                                  
  22772326.101     1603740.616                                  
  23129508.221     1304309.837                                  
  20974843.615     1770937.689                                  
 18  3 23  9 10  5.0000000  0  9G30S23G28S20G 5G 7G20G15G13
  21209706.392     3134166.303                                  
  38757807.603     2449038.7022                                 
  21470135.431     1990998.670                                  
  38998954.029     2476594.7712                                 
  21412246.515     3165437.330                                  
  23038929.567     3458662.705                                  
  22773426.878     1609524.974                                  
  23130439.748     1309207.119                                  
  20976026.303     1777152.906                                  
 18  3 23  9 10  6.0000000  0  9G30S23G28S20G 5G 7G20G15G13
  21211598.327     3144106.685                                  
  38759330.222     2457038.9792                                 
  21471437.723     1997841.581                                  
  39000490.189     2484666.0682                                 
  21414154.434     3175461.688                                  
  23040987.681     3469478.387                                  
  22774529.557     1615318.317                                  
  23131373.719     1314113.045                                  
  20977210.702     1783376.944                                  
 18  3 23  9 10  7.0000000  0  9G30S23G28S20G 5G 7G20G15G13
  21213492.374     3154061.570                                  
  38760855.371     2465053.3992                                 
  21472742.546     2004699.204                                  
  39002028.862     2492751.4782                                 
  21416064.727     3185500.716                                  
  23043048.307     3480308.326                                  
  22775634.819     1621126.308                                  
  23132310.097     1319033.297                                  
  20978397.858     1789615.459                                  
 18  3 23  9 10  8.0000000  0  9G30S23G28S20G 5G 7G20G15G13
  21215388.933     3164026.881                                  
  38762382.509     2473077.8732                                 
  21474049.707     2011567.508                                  
  39003569.350     2500846.8912                                 
  21417977.149     3195550.379                                  
  23045110.923     3491148.558                                  
  22776741.494     1626944.879                                  
  23133248.361     1323963.812                                  
  20979586.724     1795864.426                                  
 18  3 23  9 10  9.0000000  0  9G30S23G28S20G 5G 7G20G15G13
  21217285.964     3173996.982                                  
  38763910.450     2481106.7582                                 
  21475357.810     2018440.790                                  
  39005110.937     2508946.8302                                 
  21419890.443     3205604.995                                  
  23047174.883     3501993.357                                  
  22777850.316     1632768.415                                  
  23134187.497     1328898.914                                  
  20980776.706     1802118.138                                  
 18  3 23  9 10 10.0000000  0  9G30S23G28S20G 5G 7G20G15G13
  21219183.727     3183969.202                                  
  38765438.915     2489137.4252                                 
  21476665.808     2025316.437                                  
  39006652.385     2517048.5042                                 
  21421804.523     3215661.926                                  
  23049238.702     3512840.068                                  
  22778958.963     1638594.230                                  
  23135126.999     1333835.991                                  
  20981966.968     1808373.976                                  
 18  3 23  9 10 11.0000000  0  9G30S23G28S20G 5G 7G20G15G13
  21221084.126     3193955.531                                  
  38766969.299     2497181.8442                                 
  21477976.756     2032206.410                                  
  39008196.624     2525163.8132                                 
  21423721.115     3225733.146                                  
  23051305.506     3523700.707                                  
  22780070.106     1644434.296                                  
  23136069.328     1338786.993                                  
  20983160.127     1814643.900                                  
 18  3 23  9 10 12.0000000  0  9G30S23G28S20G 5G 7G20G15G13
  21222987.020     3203955.341                                  
  38768502.318     2505239.3702                                 
  21479290.374     2039110.102                                  
  39009743.639     2533292.1692                                 
  21425640.342     3235818.031                                  
  23053374.631     3534574.657                                  
  22781184.006     1650288.019                                  
  23137014.310     1343751.303                                  
  20984355.449     1820927.324                                  
 18  3 23  9 10 13.0000000  0  9G30S23G28S20G 5G 7G20G15G13
  21224890.193     3213955.448                                  
  38770035.006     2513296.8112                                 
  21480604.358     2046014.310                                  
  39011290.356     2541420.4692                                 
  21427559.535     3245903.401                                  
  23055443.825     3545448.683                                  
  22782298.324     1656142.200                                  
  23137959.082     1348715.739                                  
  20985550.772     1827211.019                                  
 18  3 23  9 10 14.0000000  0  9G30S23G28S20G 5G 7G20G15G13
  21226793.000     3223954.934                                  
  38771568.286     2521353.2582                                 
  21481918.202     2052918.100                                  
  39012837.405     2549547.7392                                 
  21429478.814     3255988.357                                  
  23057512.828     3556321.876                                  
  22783412.224     1661995.881                                  
  23138903.488     1353679.365                                  
  20986746.688     1833494.075                                  
 18  3 23  9 10 15.0000000  0  9G30S23G28S20G 5G 7G20G15G13
  21228697.883     3233967.224                                  
  38773103.260     2529422.1852                                 
  21483234.385     2059834.974                                  
  39014386.356     2557687.3052                                 
  21431400.938     3266086.322                                  
  23059584.012     3567207.775                                  
  22784528.636     1667862.615                                  
  23139850.563     1358655.703                                  
  20987944.366     1839789.991                                  
 18  3 23  9 10 16.0000000  0  9G30S23G28S20G 5G 7G20G15G13
  21230606.204     3243995.539                                  
  38774641.375     2537506.7622                                 
  21484553.359     2066768.052                                  
  39015938.309     2565842.6842                                 
  21433325.802     3276200.500                                  
  23061658.651     3578109.467                                  
  22785647.841     1673745.466                                  
  23140800.309     1363647.826                                  
  20989145.360     1846101.876                                  
 18  3 23  9 10 17.0000000  0  9G30S23G28S20G 5G 7G20G15G13
  21232516.025     3254029.428                                  
  38776180.780     2545596.5142                                 
  21485873.992     2073706.951                                  
  39017491.605     2574003.2722                                 
  21435251.643     3286320.440                                  
  23063733.691     3589016.504                                  
  22786768.599     1679634.085                                  
  23141751.014     1368645.370                                  
  20990347.610     1852419.328                                  
 18  3 23  9 10 18.0000000  0  9G30S23G28S20G 5G 7G20G15G13
  21234425.201     3264063.453                                  
  38777720.116     2553686.0572                                 
  21487194.153     2080646.194                                  
  39019043.750     2582163.6142                                 
  21437177.571     3296440.698                                  
  23065809.342     3599923.514                                  
  22787889.671     1685522.980                                  
  23142701.824     1373642.862                                  
  20991549.616     1858736.910                                  
 18  3 23  9 10 19.0000000  0  9G30S23G28S20G 5G 7G20G15G13
  21236336.192     3274105.297                                  
  38779260.831     2561783.0542                                 
  21488516.688     2087593.470                                  
  39020598.215     2590331.4562                                 
  21439104.703     3306568.944                                  
  23067886.092     3610838.131                                  
  22789011.859     1691419.847                                  
  23143654.083     1378647.995                                  
  20992753.384     1865062.275                                  
 18  3 23  9 10 20.0000000  0  9G30S23G28S20G 5G 7G20G15G13
  21238250.359     3284162.057                                  
  38780803.971     2569894.6162                                 
  21489841.752     2094555.907                                  
  39022154.949     2598513.7792                                 
  21441034.977     3316712.298                                  
  23069966.176     3621767.499                                  
  22790137.590     1697331.787                                  
  23144609.046     1383667.890                                  
  20993959.997     1871402.566                                  
 18  3 23  9 10 21.0000000  0  9G30S23G28S20G 5G 7G20G15G13
  21240166.306     3294229.355                                  
  38782349.624     2578016.2882                                 
  21491168.615     2101529.081                                  
  39023713.410     2606706.5362                                 
  21442967.396     3326866.365                                  
  23072048.039     3632707.176                                  
  22791264.281     1703254.450                                  
  23145565.981     1388698.123                                  
  20995168.285     1877753.376                                  
 18  3 23  9 10 22.0010000  0  9G30S23G28S20G 5G 7G20G15G13
  21242084.678     3304312.903                                  
  38783897.302     2586151.9782                                 
  21492498.008     2108515.657                                  
  39025275.188     2614913.3512                                 
  21444903.097     3337036.969                                  
  23074132.922     3643663.774                                  
  22792393.659     1709189.354                                  
  23146525.290     1393739.421                                  
  20996378.789     1884116.729                                  
 18  3 23  9 10 23.0010000  0  9G30S23G28S20G 5G 7G20G15G13
  21244002.981     3314394.573                                  
  38785446.393     2594287.3442                                 
  21493827.924     2115503.694                                  
  39026836.773     2623119.4972                                 
  21446837.803     3347205.801                                  
  23076217.211     3654617.441                                  
  22793523.736     1715126.730                                  
  23147485.313     1398783.695                                  
  20997590.794     1890481.916                                  
 18  3 23  9 10 24.0010000  0  9G30S23G28S20G 5G 7G20G15G13
  21245923.709     3324489.751                                  
  38786996.443     2602435.8322                                 
  21495160.091     2122505.464                                  
  39028400.818     2631338.4742                                 
  21448775.702     3357388.328                                  
  23078303.785     3665584.466                                  
  22794656.255     1721077.759                                  
  23148448.321     1403841.309                                  
  20998804.422     1896860.616                                  
 18  3 23  9 10 25.0010000  0  9G30S23G28S20G 5G 7G20G15G13
  21247847.176     3334595.587                                  
  38788548.710     2610594.6622                                 
  21496494.387     2129518.103                                  
  39029967.167     2639567.8552                                 
  21450715.538     3367581.672                                  
  23080392.681     3676561.944                                  
  22795790.850     1727039.599                                  
  23149412.498     1408909.416                                  
  21000020.214     1903249.936                                  
 18  3 23  9 10 26.0010000  0  9G30S23G28S20G 5G 7G20G15G13
  21249769.963     3344700.694                                  
  38790100.610     2618752.3872                                 
  21497829.171     2136530.254                                  
  39031533.010     2647796.4842                                 
  21452654.763     3377774.488                                  
  23082480.966     3687538.437                                  
  22796925.306     1733000.886                                  
  23150376.221     1413976.596                                  
  21001235.970     1909638.540                                  
 18  3 23  9 10 27.0010000  0  9G30S23G28S20G 5G 7G20G15G13
  21251693.135     3354806.038                                  
  38791653.889     2626909.9742                                 
  21499163.834     2143542.848                                  
  39033098.766     2656025.0732                                 
  21454594.756     3387967.719                                  
  23084569.408     3698515.031                                  
  22798059.885     1738962.569                                  
  23151340.712     1419043.861                                  
  21002451.587     1916027.363                                  
 18  3 23  9 10 28.0010000  0  9G30S23G28S20G 5G 7G20G15G13
  21253618.365     3364925.059                                  
  38793208.791     2635080.9032                                 
  21500500.695     2150569.368                                  
  39034667.174     2664266.9482                                 
  21456537.122     3398174.815                                  
  23086660.887     3709505.089                                  
  22799196.889     1744938.061                                  
  23152307.855     1424124.656                                  
  21003670.136     1922429.863                                  
 18  3 23  9 10 29.0010000  0  9G30S23G28S20G 5G 7G20G15G13
  21255547.207     3375059.376                                  
  38794766.467     2643266.7412                                 
  21501840.575     2157611.400                                  
  39036237.990     2672523.5292                                 
  21458482.385     3408397.389                                  
  23088755.506     3720510.274                                  
  22800336.841     1750929.064                                  
  23153277.721     1429220.547                                  
  21004891.616     1928847.654                                  
 18  3 23  9 10 30.0010000  0  9G30S23G28S20G 5G 7G20G15G13
  21257475.439     3385195.153                                  
  38796324.841     2651453.6612                                 
  21503180.978     2164655.097                                  
  39037809.575     2680781.0962                                 
  21460428.381     3418621.604                                  
  23090849.707     3731516.723                                  
  22801476.760     1756921.654                                  
  23154247.848     1434317.741                                  
  21006112.975     1935266.885                                  
 18  3 23  9 10 31.0010000  0  9G30S23G28S20G 5G 7G20G15G13
  21259404.857     3395330.319                                  
  38797882.395     2659639.6042                                 
  21504521.400     2171698.412                                  
  39039380.513     2689037.7932                                 
  21462373.749     3428845.403                                  
  23092944.658     3742522.355                                  
  22802616.835     1762913.793                                  
  23155217.191     1439414.140                                  
  21007334.315     1941685.483                                  
 18  3 23  9 10 32.0010000  0  9G30S23G28S20G 5G 7G20G15G13
  21261335.340     3405476.595                                  
  38799442.078     2667836.2532                                 
  21505863.949     2178753.045                                  
  39040954.121     2697305.2772                                 
  21464321.595     3439080.493                                  
  23095041.493     3753538.901                                  
  22803759.737     1768917.206                                  
  23156189.168     1444521.483                                  
  21008557.663     1948115.195                                  
 18  3 23  9 10 33.0010000  0  9G30S23G28S20G 5G 7G20G15G13
  21263269.330     3415638.684                                  
  38801004.780     2676048.4192                                 
  21507209.291     2185823.758                                  
  39042529.876     2705588.1092                                 
  21466272.738     3449331.605                                  
  23097140.615     3764571.059                                  
  22804905.029     1774936.623                                  
  23157163.745     1449644.495                                  
  21009784.239     1954560.724                                  
 18  3 23  9 10 34.0010000  0  9G30S23G28S20G 5G 7G20G15G13
  21265204.716     3425809.036                                  
  38802568.459     2684268.5062                                 
  21508556.710     2192902.938                                  
  39044107.655     2713878.7422                                 
  21468224.650     3459591.160                                  
  23099242.005     3775611.338                                  
  22806051.910     1780964.457                                  
  23158140.346     1454775.581                                  
  21011012.350     1961014.516                                  
 18  3 23  9 10 35.0010000  0  9G30S23G28S20G 5G 7G20G15G13
  21267140.521     3435983.174                                  
  38804133.988     2692492.0052                                 
  21509904.390     2199986.143                                  
  39045686.044     2722172.7392                                 
  21470178.080     3469854.663                                  
  23101342.837     3786655.178                                  
  22807199.855     1786996.245                                  
  23159117.489     1459910.288                                  
  21012241.212     1967472.086                                  
 18  3 23  9 10 36.0010000  0  9G30S23G28S20G 5G 7G20G15G13
  21269078.263     3446166.482                                  
  38805700.791     2700724.2512                                 
  21511254.200     2207078.720                                  
  39047265.813     2730475.7622                                 
  21472132.818     3480127.507                                  
  23103446.338     3797708.005                                  
  22808349.301     1793037.333                                  
  23160096.481     1465053.979                                  
  21013472.133     1973938.800                                  
 18  3 23  9 10 37.0010000  0  9G30S23G28S20G 5G 7G20G15G13
  21271018.588     3456363.999                                  
  38807269.705     2708970.3922                                 
  21512606.173     2214185.757                                  
  39048848.652     2738792.7322                                 
  21474090.139     3490414.752                                  
  23105552.405     3808774.856                                  
  22809501.609     1799092.798                                  
  23161077.811     1470211.719                                  
  21014705.043     1980419.725                                  
 18  3 23  9 10 38.0010000  0  9G30S23G28S20G 5G 7G20G15G13
  21272961.530     3466571.897                                  
  38808840.783     2717226.5532                                 
  21513960.467     2221303.400                                  
  39050433.045     2747119.6742                                 
  21476049.834     3500712.580                                  
  23107660.269     3819851.878                                  
  22810655.923     1805158.828                                  
  23162061.480     1475379.663                                  
  21015940.030     1986911.026                                  
 18  3 23  9 10 39.0010000  0  9G30S23G28S20G 5G 7G20G15G13
  21274904.716     3476785.069                                  
  38810412.960     2725487.6272                                 
  21515315.720     2228426.544                                  
  39052018.467     2755451.4812                                 
  21478010.453     3511015.860                                  
  23109769.111     3830934.003                                  
  22811811.476     1811230.288                                  
  23163045.934     1480552.722                                  
  21017176.343     1993407.600                                  
 18  3 23  9 10 40.0010000  0  9G30S23G28S20G 5G 7G20G15G13
  21276848.880     3487001.245                                  
  38811985.731     2733751.3402                                 
  21516671.864     2235552.927                                  
  39053604.657     2763785.7822                                 
  21479972.241     3521322.341                                  
  23111878.510     3842018.901                                  
  22812967.274     1817304.929                                  
  23164030.790     1485728.600                                  
  21018413.668     1999907.174                                  
 18  3 23  9 10 41.0010000  0  9G30S23G28S20G 5G 7G20G15G13
  21278795.696     3497231.650                                  
  38813560.648     2742028.9282                                 
  21518030.416     2242693.760                                  
  39055193.534     2772133.9382                                 
  21481936.124     3531643.230                                  
  23113990.667     3853117.850                                  
  22814126.300     1823393.946                                  
  23165018.193     1490918.556                                  
  21019653.122     2006420.957                                  
 18  3 23  9 10 42.0010000  0  9G30S23G28S20G 5G 7G20G15G13
  21280744.693     3507474.190                                  
  38815137.886     2750318.2652                                 
  21519391.358     2249846.969                                  
  39056784.470     2780493.8532                                 
  21483902.240     3541976.457                                  
  23116105.372     3864228.782                                  
  22815287.455     1829495.284                                  
  23166008.161     1496120.476                                  
  21020894.670     2012946.890                                  
 18  3 23  9 10 43.0010000  0  9G30S23G28S20G 5G 7G20G15G13
  21282693.621     3517716.416                                  
  38816715.490     2758606.9482                                 
  21520752.493     2257000.055                                  
  39058375.197     2788853.1492                                 
  21485868.303     3552309.521                                  
  23118219.588     3875339.200                                  
  22816448.209     1835596.473                                  
  23166997.937     1501321.893                                  
  21022136.428     2019472.471                                  
 18  3 23  9 10 44.0010000  0  9G30S23G28S20G 5G 7G20G15G13
  21284642.950     3527959.171                                  
  38818292.658     2766895.7842                                 
  21522114.098     2264153.916                                  
  39059965.837     2797212.7032                                 
  21487834.873     3562643.324                                  
  23120334.711     3886449.937                                  
  22817609.608     1841698.344                                  
  23167988.202     1506523.688                                  
  21023378.447     2025998.604                                  
 18  3 23  9 10 45.0010000  0  9G30S23G28S20G 5G 7G20G15G13
  21286594.704     3538215.464                                  
  38819872.304     2775197.8082                                 
  21523477.763     2271321.566                                  
  39061559.338     2805585.3702                                 
  21489803.432     3572990.863                                  
  23122451.510     3897573.993                                  
  22818773.223     1847813.936                                  
  23168980.788     1511738.848                                  
  21024622.944     2032538.266                                  
 18  3 23  9 10 46.0010000  0  9G30S23G28S20G 5G 7G20G15G13
  21288549.094     3548486.012                                  
  38821454.760     2783513.7692                                 
  21524844.621     2278503.664                                  
  39063155.265     2813971.9302                                 
  21491775.569     3583352.826                                  
  23124571.764     3908712.164                                  
  22819939.980     1853943.915                                  
  23169976.288     1516968.071                                  
  21025870.163     2039092.189                                  
 18  3 23  9 10 47.0010000  0  9G30S23G28S20G 5G 7G20G15G13
  21290503.640     3558758.030                                  
  38823037.303     2791830.7642                                 
  21526211.636     2285687.461                                  
  39064751.350     2822359.5372                                 
  21493747.513     3593716.440                                  
  23126691.948     3919851.576                                  
  22821106.544     1860075.539                                  
  23170971.369     1522198.618                                  
  21027117.767     2045647.543                                  
 18  3 23  9 10 48.0010000  0  9G30S23G28S20G 5G 7G20G15G13
  21292458.065     3569029.780                                  
  38824619.689     2800147.1662                                 
  21527578.407     2292871.255                                  
  39066347.626     2830746.4432                                 
  21495719.824     3604080.004                                  
  23128811.713     3930990.557                                  
  22822273.214     1866207.081                                  
  23171966.555     1527428.763                                  
  21028365.230     2052202.654                                  
 18  3 23  9 10 49.0010000  0  9G30S23G28S20G 5G 7G20G15G13
  21294414.967     3579313.260                                  
  38826204.500     2808474.9212                                 
  21528948.040     2300066.986                                  
  39067945.961     2839144.7222                                 
  21497694.019     3614455.466                                  
  23130933.712     3942141.022                                  
  22823442.361     1872350.510                                  
  23172963.835     1532670.433                                  
  21029615.242     2058769.472                                  
 18  3 23  9 10 50.0010000  0  9G30S23G28S20G 5G 7G20G15G13
  21296374.312     3589612.071                                  
  38827791.580     2816817.6272                                 
  21530320.203     2307278.285                                  
  39069547.333     2847558.1892                                 
  21499671.443     3624846.430                                  
  23133057.822     3953306.687                                  
  22824614.457     1878509.436                                  
  23173964.326     1537927.255                                  
  21030867.906     2065351.638                                  
 18  3 23  9 10 51.0010000  0  9G30S23G28S20G 5G 7G20G15G13
  21298335.490     3599916.891                                  
  38829380.544     2825165.9732                                 
  21531693.395     2314495.804                                  
  39071148.914     2855977.3392                                 
  21501650.106     3635243.580                                  
  23135183.398     3964478.178                                  
  22825787.757     1884674.546                                  
  23174965.934     1543189.925                                  
  21032121.791     2071939.789                                  
 18  3 23  9 10 52.0010000  0  9G30S23G28S20G 5G 7G20G15G13
  21300296.371     3610223.101                                  
  38830969.229     2833515.3472                                 
  21533067.042     2321714.979                                  
  39072750.913     2864397.3692                                 
  21503628.786     3645642.310                                  
  23137309.952     3975650.844                                  
  22826961.529     1890841.215                                  
  23175967.384     1548453.842                                  
  21033375.851     2078529.333                                  
 18  3 23  9 10 53.0010000  0  9G30S23G28S20G 5G 7G20G15G13
  21302259.765     3620538.508                                  
  38832559.869     2841873.6132                                 
  21534442.503     2328943.566                                  
  39074354.990     2872826.1272                                 
  21505609.141     3656050.437                                  
  23139438.547     3986832.498                                  
  22828136.748     1897017.245                                  
  23176970.545     1553726.778                                  
  21034631.551     2085128.079                                  
 18  3 23  9 10 54.0010000  0  9G30S23G28S20G 5G 7G20G15G13
  21304225.218     3630868.129                                  
  38834152.725     2850245.7102                                 
  21535820.651     2336186.577                                  
  39075961.614     2881268.7822                                 
  21507592.551     3666472.960                                  
  23141569.532     3998028.191                                  
  22829314.708     1903207.643                                  
  23177976.829     1559013.752                                  
  21035889.956     2091741.016                                  
 18  3 23  9 10 55.0010000  0  9G30S23G28S20G 5G 7G20G15G13
  21306192.642     3641208.128                                  
  38835747.623     2858627.7582                                 
  21537200.981     2343440.205                                  
  39077570.035     2889721.2742                                 
  21509577.652     3676906.039                                  
  23143701.705     4009234.035                                  
  22830494.936     1909408.589                                  
  23178984.858     1564310.930                                  
  21037150.281     2098364.315                                  
 18  3 23  9 10 56.0010000  0  9G30S23G28S20G 5G 7G20G15G13
  21308161.760     3651553.975                                  
  38837343.934     2867015.3682                                 
  21538582.043     2350699.918                                  
  39079179.207     2898179.2802                                 
  21511564.168     3687345.164                                  
  23145835.081     4020445.616                                  
  22831676.612     1915615.560                                  
  23179993.778     1569613.807                                  
  21038411.757     2104993.493                                  
 18  3 23  9 10 57.0010000  0  9G30S23G28S20G 5G 7G20G15G13
  21310132.273     3661908.531                                  
  38838941.676     2875411.3262                                 
  21539965.671     2357968.560                                  
  39080790.124     2906645.6962                                 
  21513552.166     3697793.175                                  
  23147970.464     4031665.628                                  
  22832859.074     1921831.398                                  
  23181004.337     1574925.208                                  
  21039674.472     2111631.363                                  
 18  3 23  9 10 58.0010000  0  9G30S23G28S20G 5G 7G20G15G13
  21312104.706     3672276.557                                  
  38840541.651     2883820.3932                                 
  21541351.969     2365250.902                                  
  39082403.938     2915125.3522                                 
  21515542.835     3708254.842                                  
  23150107.941     4042898.972                                  
  22834044.677     1928060.853                                  
  23182017.148     1580249.902                                  
  21040940.259     2118282.686                                  
 18  3 23  9 10 59.0010000  0  9G30S23G28S20G 5G 7G20G15G13
  21314079.774     3682655.376                                  
  38842143.686     2892239.8622                                 
  21542739.924     2372544.269                                  
  39084019.828     2923615.6002                                 
  21517535.667     3718727.497                                  
  23152247.652     4054142.925                                  
  22835231.798     1934301.280                                  
  23183033.099     1585585.226                                  
  21042207.825     2124944.809                                  
 18  3 23  9 11  0.0010000  0  9G30S23G28S20G 5G 7G20G15G13
  21316054.371     3693033.496                                  
  38843745.546     2900658.2842                                 
  21544127.496     2379837.176                                  
  39085634.933     2932104.7882                                 
  21519528.011     3729199.645                                  
  23154387.747     4065385.983                                  
  22836419.390     1940541.173                                  
  23184048.109     1590919.709                                  
  21043475.165     2131606.245                                  
 18  3 23  9 11  1.0010000  0  9G30S23G28S20G 5G 7G20G15G13
  21318029.230     3703412.854                                  
  38845347.895     2909077.4332                                 
  21545515.800     2387131.465                                  
  39087249.741     2940594.4442                                 
  21521522.169     3739673.079                                  
  23156527.353     4076630.118                                  
  22837606.894     1946782.358                                  
  23185064.270     1596255.150                                  
  21044743.412     2138268.792                                  
 18  3 23  9 11  2.0010000  0  9G30S23G28S20G 5G 7G20G15G13
  21320006.584     3713805.075                                  
  38846952.390     2917509.1592                                 
  21546906.774     2394438.796                                  
  39088867.533     2949096.5962                                 
  21523517.462     3750159.631                                  
  23158670.414     4087886.795                                  
  22838796.964     1953036.642                                  
  23186081.879     1601603.259                                  
  21046014.084     2144944.204                                  
 18  3 23  9 11  3.0010000  0  9G30S23G28S20G 5G 7G20G15G13
  21321986.852     3724210.500                                  
  38848559.834     2925953.7902                                 
  21548300.296     2401759.672                                  
  39090487.594     2957611.7192                                 
  21525515.756     3760659.609                                  
  23160815.569     4099156.602                                  
  22839989.582     1959304.315                                  
  23187101.740     1606964.514                                  
  21047286.624     2151632.920                                  
 18  3 23  9 11  4.0010000  0  9G30S23G28S20G 5G 7G20G15G13
  21323967.417     3734618.220                                  
  38850166.842     2934400.3182                                 
  21549693.400     2409082.997                                  
  39092107.829     2966128.5002                                 
  21527514.365     3771162.026                                  
  23162960.568     4110428.8983                                 
  22841182.636     1965574.445                                  
  23188121.984     1612327.855                                  
  21048559.652     2158323.882                                  
 18  3 23  9 11  5.0010000  0  8G30S23G28S20G 5G20G15G13
  21325948.557     3745027.871                                  
  38851774.810     2942848.4442                                 
  21551087.410     2416408.524                                  
  39093728.117     2974646.7672                                 
  21529512.816     3781666.575                                  
  22842375.812     1971846.678                                  
  23189142.543     1617692.998                                  
  21049833.117     2165016.803                                  
 18  3 23  9 11  6.0010000  0  8G30S23G28S20G 5G20G15G13
  21327931.757     3755448.329                                  
  38853384.627     2951306.8952                                 
  21552482.782     2423745.024                                  
  39095350.795     2983175.7522                                 
  21531514.007     3792182.023                                  
  22843571.449     1978129.814                                  
  23190165.510     1623068.710                                  
  21051109.076     2171720.373                                  
 18  3 23  9 11  7.0010000  0  8G30S23G28S20G 5G20G15G13
  21329917.679     3765886.1283                                 
  38854997.132     2959781.8803                                 
  21553882.115     2431098.6863                                 
  39096976.963     2991721.7573                                 
  21533517.536     3802714.6343                                 
  22844770.767     1984430.5523                                 
  23191191.041     1628461.1543                                 
  21052388.073     2178440.9513                                 
 18  3 23  9 11  8.0010000  0  8G30S23G28S20G 5G20G15G13
  21331903.968     3776326.2032                                 
  38856610.527     2968259.5682                                 
  21555282.373     2438455.5202                                 
  39098603.062     3000269.9712                                 
  21535522.654     3813250.3412                                 
  22845970.190     1990733.9112                                 
  23192218.964     1633856.3212                                 
  21053667.662     2185164.4852                                 
 18  3 23  9 11  9.0010000  0  9G30S23G28S20G 5G 7G20G15G13
  21333891.146     3786766.7772                                 
  38858224.271     2976737.1782                                 
  21556682.543     2445812.9452                                 
  39100229.492     3008818.0412                                 
  21537527.858     3823786.6022                                 
  23173700.391     4166873.1783                                 
  22847169.352     1997037.7532                                 
  23193245.595     1639251.7842                                 
  21054947.042     2191888.3112                                 
 18  3 23  9 11 10.0010000  0  9G30S23G28S20G 5G 7G20G15G13
  21335878.412     3797216.3452                                 
  38859839.376     2985223.5402                                 
  21558084.982     2453179.6912                                 
  39101857.824     3017374.8962                                 
  21539534.337     3834332.1682                                 
  23175855.057     4178185.5763                                 
  22848371.026     2003350.9292                                 
  23194274.181     1644656.2092                                 
  21056228.272     2198621.2822                                 
 18  3 23  9 11 11.0010000  0  8G30S23G28S20G 5G20G15G13
  21337869.953     3807680.4692                                 
  38861457.238     2993723.7832                                 
  21559489.498     2460560.9422                                 
  39103489.193     3025945.6952                                 
  21541543.799     3844892.1302                                 
  22849574.899     2009678.5602                                 
  23195304.302     1650074.6492                                 
  21057512.416     2205368.4962                                 
 18  3 23  9 11 12.0010000  0  8G30S23G28S20G 5G20G15G13
  21339863.326     3818154.4452                                 
  38863076.286     3002233.9092                                 
  21560896.457     2467952.5952                                 
  39105121.364     3034526.3562                                 
  21543555.477     3855462.5382                                 
  22850780.884     2016016.3732                                 
  23196336.866     1655503.1192                                 
  21058798.428     2212125.8532                                 
 18  3 23  9 11 13.0010000  0  9G30S23G28S20G 5G 7G20G15G13
  21341857.101     3828634.1502                                 
  38864696.539     3010749.2122                                 
  21562303.607     2475350.0762                                 
  39106754.931     3043112.1492                                 
  21545567.802     3866038.6452                                 
  23182327.797     4212191.1583                                 
  22851988.020     2022360.0442                                 
  23197370.355     1660936.9522                                 
  21060085.538     2218888.8362                                 
 18  3 23  9 11 14.0010000  0  9G30S23G28S20G 5G 7G20G15G13
  21343852.725     3839122.4502                                 
  38866318.397     3019272.6222                                 
  21563713.288     2482756.3292                                 
  39108390.156     3051706.0462                                 
  21547582.133     3876623.4932                                 
  23184485.917     4223541.6562                                 
  22853196.971     2028712.4372                                 
  23198406.008     1666379.2712                                 
  21061374.272     2225660.3172                                 
 18  3 23  9 11 15.0010000  0  9G30S23G28S20G 5G 7G20G15G13
  21345850.723     3849623.6672                                 
  38867942.751     3027808.7702                                 
  21565125.290     2490175.8752                                 
  39110027.929     3060312.6682                                 
  21549597.703     3887221.5692                                 
  23186650.704     4234904.9933                                 
  22854408.365     2035078.0132                                 
  23199444.035     1671834.3692                                 
  21062664.907     2232444.8822                                 
 18  3 23  9 11 16.0010000  0  9G30S23G28S20G 5G 7G20G15G13
  21347851.024     3860134.0922                                 
  38869568.727     3036353.5392                                 
  21566538.706     2497604.5982                                 
  39111667.098     3068928.0572                                 
  21551615.873     3897828.8042                                 
  23188814.252     4246277.0613                                 
  22855620.929     2041452.7692                                 
  23200485.219     1677298.3992                                 
  21063957.288     2239238.4212                                 
 18  3 23  9 11 17.0010000  0  9G30S23G28S20G 5G 7G20G15G13
  21349851.552     3870645.2312                                 
  38871194.389     3044898.8852                                 
  21567952.121     2505034.4142                                 
  39113306.650     3077543.8782                                 
  21553634.182     3908437.1352                                 
  23190978.114     4257649.8833                                 
  22856833.789     2047828.5872                                 
  23201524.554     1682763.0752                                 
  21065250.087     2246032.8662                                 
 18  3 23  9 11 18.0010000  0  9G30S23G28S20G 5G 7G20G15G13
  21351852.760     3881159.3612                                 
  38872820.872     3053446.8592                                 
  21569366.286     2512467.5242                                 
  39114947.337     3086162.2372                                 
  21555653.190     3919048.6652                                 
  23193143.407     4269025.5593                                 
  22858047.765     2054207.5622                                 
  23202564.989     1688230.6222                                 
  21066542.904     2252830.3202                                 
 18  3 23  9 11 19.0010000  0  9G30S23G28S20G 5G 7G20G15G13
  21353856.220     3891686.803                                  
  38874450.269     3062008.0422                                 
  21570784.047     2519914.517                                  
  39116589.944     3094793.7942                                 
  21557675.705     3929674.025                                  
  23195311.125     4280414.7333                                 
  22859264.342     2060599.911                                  
  23203607.412     1693711.558                                  
  21067839.700     2259641.411                                  
 18  3 23  9 11 20.0010000  0  9G30S23G28S20G 5G 7G20G15G13
  21355861.302     3902226.464                                  
  38876081.428     3070580.9062                                 
  21572203.936     2527373.703                                  
  39118233.894     3103436.9082                                 
  21559699.512     3940311.565                                  
  23197480.274     4291815.6363                                 
  22860483.188     2067004.892                                  
  23204652.523     1699204.453                                  
  21069139.130     2266464.524                                  
 18  3 23  9 11 21.0010000  0  9G30S23G28S20G 5G 7G20G15G13
  21357866.873     3912768.709                                  
  38877712.709     3079155.8382                                 
  21573623.319     2534835.579                                  
  39119879.153     3112082.2482                                 
  21561723.911     3950951.699                                  
  23199650.488     4303218.7732                                 
  22861702.242     2073412.413                                  
  23205697.948     1704699.568                                  
  21070437.775     2273289.997                                  
 18  3 23  9 11 22.0010000  0  9G30S23G28S20G 5G 7G20G15G13
  21359873.997     3923312.891                                  
  38879344.671     3087732.3652                                 
  21575043.907     2542299.602                                  
  39121524.638     3120729.3022                                 
  21563748.677     3961593.975                                  
  23201820.772     4314623.6252                                 
  22862921.803     2079822.105                                  
  23206743.967     1710196.420                                  
  21071737.049     2280117.444                                  
 18  3 23  9 11 23.0010000  0  9G30S23G28S20G 5G 7G20G15G13
  21361883.040     3933869.341                                  
  38880979.058     3096320.7842                                 
  21576466.553     2549776.138                                  
  39123172.410     3129388.2682                                 
  21565776.201     3972248.711                                  
  23203993.708     4326040.5992                                 
  22864143.824     2086244.242                                  
  23207791.608     1715705.399                                  
  21073038.800     2286957.160                                  
 18  3 23  9 11 24.0010000  0  9G30S23G28S20G 5G 7G20G15G13
  21363894.632     3944439.513                                  
  38882615.103     3104922.4952                                 
  21577892.271     2557266.603                                  
  39124823.148     3138060.7112                                 
  21567805.591     3982917.316                                  
  23206169.174     4337471.0812                                 
  22865368.393     2092680.235                                  
  23208842.286     1721227.918                                  
  21074343.239     2293810.580                                  
 18  3 23  9 11 25.0010000  0  9G30S23G28S20G 5G 7G20G15G13
  21365907.026     3955013.956                                  
  38884252.841     3113528.1232                                 
  21579318.477     2564761.580                                  
  39126474.410     3146736.9002                                 
  21569836.500     3993590.403                                  
  23208345.600     4348905.6432                                 
  22866594.236     2099120.681                                  
  23209893.783     1726754.574                                  
  21075648.131     2300668.268                                  
 18  3 23  9 11 26.0010000  0  9G30S23G28S20G 5G 7G20G15G13
  21367919.176     3965589.256                                  
  38885891.137     3122134.2522                                 
  21580744.788     2572257.628                                  
  39128125.550     3155413.3692                                 
  21571867.409     4004264.513                                  
  23210521.921     4360340.8832                                 
  22867820.027     2105562.151                                  
  23210945.700     1732281.890                                  
  21076952.814     2307526.795                                  
 18  3 23  9 11 27.0010000  0  9G30S23G28S20G 5G 7G20G15G13
  21369933.140     3976172.882                                  
  38887530.289     3130748.4092                                 
  21582173.106     2579762.273                                  
  39129777.719     3164097.7232                                 
  21573899.958     4014947.173                                  
  23212699.691     4371784.2392                                 
  22869047.423     2112012.158                                  
  23211998.925     1737817.395                                  
  21078259.957     2314393.695                                  
 18  3 23  9 11 28.0010000  0  9G30S23G28S20G 5G 7G20G15G13
  21371949.757     3986771.869                                  
  38889172.249     3139377.4902                                 
  21583604.198     2587282.522                                  
  39131432.942     3172797.2252                                 
  21575935.630     4025645.356                                  
  23214880.026     4383242.8162                                 
  22870278.239     2118477.647                                  
  23213055.222     1743368.117                                  
  21079569.212     2321275.926                                  
 18  3 23  9 11 29.0010000  0  9G30S23G28S20G 5G 7G20G15G13
  21373968.590     3997380.599                                  
  38890815.257     3148016.0102                                 
  21585037.472     2594812.711                                  
  39133089.805     3181506.3202                                 
  21577973.327     4036353.469                                  
  23217062.647     4394710.9042                                 
  22871510.102     2124953.078                                  
  23214113.578     1748928.388                                  
  21080881.294     2328167.903                                  
 18  3 23  9 11 30.0010000  0  9G30S23G28S20G 5G 7G20G15G13
  21375989.430     4007995.586                                  
  38892460.900     3156660.3212                                 
  21586471.426     2602349.368                                  
  39134747.855     3190221.2822                                 
  21580011.984     4047068.023                                  
  23219246.402     4406185.0472                                 
  22872743.501     2131434.897                                  
  23215172.858     1754494.731                                  
  21082193.516     2335066.103                                  
 18  3 23  9 11 31.0010000  0  9G30S23G28S20G 5G 7G20G15G13
  21378011.369     4018619.835                                  
  38894107.764     3165313.5352                                 
  21587907.352     2609895.532                                  
  39136409.151     3198945.0592                                 
  21582052.525     4057792.028                                  
  23221431.553     4417667.773                                  
  22873977.860     2137926.164                                  
  23216233.709     1760070.220                                  
  21083508.425     2341973.578                                  
 18  3 23  9 11 32.0010000  0  9G30S23G28S20G 5G 7G20G15G13
  21380035.979     4029256.971                                  
  38895756.880     3173979.3532                                 
  21589345.669     2617454.823                                  
  39138071.772     3207681.3232                                 
  21584096.260     4068529.108                                  
  23223619.950     4429163.691                                  
  22875216.267     2144430.522                                  
  23217297.056     1765658.398                                  
  21084824.764     2348893.956                                  
 18  3 23  9 11 33.0010000  0  9G30S23G28S20G 5G 7G20G15G13
  21382062.577     4039904.268                                  
  38897407.967     3182654.9422                                 
  21590786.062     2625024.515                                  
  39139736.139     3216427.5722                                 
  21586142.106     4079276.569                                  
  23225809.324     4440669.600                                  
  22876455.250     2150945.250                                  
  23218362.479     1771256.598                                  
  21086143.722     2355824.495                                  
 18  3 23  9 11 34.0010000  0  9G30S23G28S20G 5G 7G20G15G13
  21384089.123     4050557.768                                  
  38899060.101     3191336.4042                                 
  21592227.538     2632600.621                                  
  39141402.461     3225179.6322                                 
  21588188.336     4090030.365                                  
  23228000.217     4452181.473                                  
  22877696.135     2157466.232                                  
  23219428.984     1776860.826                                  
  21087463.586     2362761.219                                  
 18  3 23  9 11 35.0010000  0  9G30S23G28S20G 5G 7G20G15G13
  21386117.432     4061216.156                                  
  38900712.811     3200022.4062                                 
  21593670.444     2640181.879                                  
  39143068.538     3233935.9532                                 
  21590235.089     4100789.237                                  
  23230192.557     4463698.100                                  
  22878938.293     2163992.342                                  
  23220496.658     1782469.811                                  
  21088784.637     2369702.858                                  
 18  3 23  9 11 36.0010000  0  9G30S23G28S20G 5G 7G20G15G13
  21388147.538     4071887.284                                  
  38902368.471     3208720.7702                                 
  21595115.810     2647776.082                                  
  39144737.721     3242704.6082                                 
  21592284.757     4111561.033                                  
  23232386.346     4475227.224                                  
  22880182.948     2170531.351                                  
  23221566.653     1788091.327                                  
  21090108.097     2376657.216                                  
 18  3 23  9 11 37.0010000  0  9G30S23G28S20G 5G 7G20G15G13
  21390180.488     4082568.603                                  
  38904025.753     3217428.8912                                 
  21596562.486     2655380.689                                  
  39146408.178     3251483.2312                                 
  21594336.955     4122343.213                                  
  23234581.741     4486766.356                                  
  22881428.998     2177080.714                                  
  23222638.183     1793722.888                                  
  21091432.952     2383621.739                                  
 18  3 23  9 11 38.0010000  0  9G30S23G28S20G 5G 7G20G15G13
  21392213.962     4093251.461                                  
  38905683.506     3226138.1292                                 
  21598009.685     2662986.997                                  
  39148078.530     3260262.9732                                 
  21596389.903     4133126.990                                  
  23236778.200     4498306.462                                  
  22882675.327     2183631.728                                  
  23223709.836     1799355.547                                  
  21092758.907     2390587.702                                  
 18  3 23  9 11 39.0010000  0  9G30S23G28S20G 5G 7G20G15G13
  21394246.843     4103937.456                                  
  38907340.788     3234850.3352                                 
  21599457.267     2670596.870                                  
  39149749.301     3269045.8022                                 
  21598442.537     4143914.313                                  
  23238975.932     4509850.6253                                 
  22883922.494     2190186.184                                  
  23224781.960     1804991.698                                  
  21094084.792     2397556.975                                  
 18  3 23  9 11 40.0010000  0  7S23G28S20G 5G20G15G13
  38909000.722     3243575.5242                                 
  21600908.166     2678220.315                                  
  39151422.341     3277841.3962                                 
  21600498.470     4154715.247                                  
  22885173.012     2196754.338                                  
  23225857.330     1810640.910                                  
  21095413.155     2404539.713                                  
 18  3 23  9 11 41.0010000  0  9G30S23G28S20G 5G 7G20G15G13
  21398317.996     4125346.7553                                 
  38910663.728     3252312.7012                                 
  21602361.664     2685856.192                                  
  39153098.417     3286649.1992                                 
  21602556.845     4165528.584                                  
  23243381.362     4532973.5453                                 
  22886425.065     2203335.2613                                 
  23226935.212     1816302.241                                  
  21096744.293     2411534.478                                  
 18  3 23  9 11 42.0010000  0 10G30S23G28G21S20G 5G 7G20G15G13
  21400358.171     4136059.0793                                 
  38912326.402     3261050.0492                                 
  21603814.866     2693492.937                                  
  25868982.934      388053.6263                                 
  39154774.650     3295457.1132                                 
  21604616.791     4176342.834                                  
  23245604.398     4544542.2393                                 
  22887677.642     2209914.5723                                 
  23228013.636     1821964.029                                  
  21098075.744     2418530.024                                  
 18  3 23  9 11 43.0010000  0  9G30S23G28S20G 5G 7G20G15G13
  21402398.485     4146771.6753                                 
  38913988.954     3269788.4452                                 
  21605269.097     2701130.652                                  
  39156450.865     3304265.5522                                 
  21606675.393     4187157.545                                  
  23247803.649     4556112.4993                                 
  22888931.806     2216496.4493                                 
  23229091.553     1827626.164                                  
  21099406.864     2425525.589                                  
 18  3 23  9 11 44.0010000  0  9G30S23G28S20G 5G 7G20G15G13
  21404443.458     4157493.2293                                 
  38915654.839     3278536.9522                                 
  21606724.009     2708778.2773                                 
  39158130.327     3313085.5362                                 
  21608734.571     4197983.261                                  
  23249982.169     4567690.8233                                 
  22890186.617     2223088.6463                                 
  23230172.228     1833299.3573                                 
  21100739.415     2432531.2593                                 
 18  3 23  9 11 45.0010000  0  9G30S23G28S20G 5G 7G20G15G13
  21406482.447     4168231.9042                                 
  38917322.853     3287301.4893                                 
  21608182.307     2716443.3223                                 
  39159812.528     3321917.8933                                 
  21610798.740     4208825.048                                  
  23252183.758     4579285.7963                                 
  22891441.950     2229695.8583                                 
  23231254.019     1838985.4812                                 
  21102076.486     2439552.3452                                 
 18  3 23  9 11 46.0010000  0  9G30S23G28S20G 5G 7G20G15G13
  21408528.764     4178978.3492                                 
  38918992.002     3296069.7273                                 
  21609641.616     2724116.6153                                 
  39161495.060     3330759.5153                                 
  21612863.188     4219675.213                                  
  23254388.680     4590888.6623                                 
  22892701.577     2236310.8583                                 
  23232337.154     1844679.4242                                 
  21103413.731     2446581.4752                                 
 18  3 23  9 11 47.0010000  0 10G30S23G28G21S20G 5G 7G20G15G13
  21410572.498     4189727.5143                                 
  38920661.377     3304841.5363                                 
  21611105.515     2731792.0393                                 
  25877203.906      431051.3893                                 
  39163188.028     3339601.6273                                 
  21614928.177     4230526.856                                  
  23256600.356     4602493.6553                                 
  22893961.727     2242928.7853                                 
  23233420.219     1850376.3093                                 
  21104751.168     2453612.8842                                 
 18  3 23  9 11 48.0010000  0  9G30S23G28G21G 5G 7G20G15G13
  21412619.182     4200479.2163                                 
  38922331.380     3313619.0553                                 
  21612568.244     2739472.7193                                 
  25878842.952      439680.4573                                 
  21616992.991     4241383.311                                  
  23258822.065     4614106.2983                                 
  22895220.551     2249548.9623                                 
  23234504.279     1856073.5192                                 
  21106088.500     2460646.5963                                 
 18  3 23  9 11 49.0010000  0  8G30S23G28G 5G 7G20G15G13
  21414666.232     4211234.4113                                 
  38924002.797     3322395.0743                                 
  21614027.117     2747156.2683                                 
  21619059.673     4252244.9373                                 
  23261023.776     4625716.7533                                 
  22896480.456     2256170.9003                                 
  23235589.369     1861774.4332                                 
  21107429.602     2467683.7093                                 
 18  3 23  9 11 50.0010000  0  8G30S23G28G 5G 7G20G15G13
  21416716.458     4221996.7863                                 
  38925675.784     3331182.8813                                 
  21615494.419     2754849.9693                                 
  21621127.925     4263114.5093                                 
  23263240.635     4637335.7153                                 
  22897741.095     2262800.0563                                 
  23236675.348     1867481.8602                                 
  21108768.505     2474727.7303                                 
 18  3 23  9 11 51.0010000  0  9G30S23G28G21G 5G 7G20G15G13
  21418764.381     4232768.3663                                 
  38927351.197     3339980.4103                                 
  21616964.530     2762547.0903                                 
  25883772.639      465613.1733                                 
  21623199.214     4273991.5063                                 
  23265456.934     4648963.7153                                 
  22899006.480     2269438.6342                                 
  23237763.526     1873198.5182                                 
  21110110.217     2481781.3563                                 
 18  3 23  9 11 52.0010000  0  9G30S23G28G21G 5G 7G20G15G13
  21420818.603     4243546.0353                                 
  38929026.872     3348780.4663                                 
  21618429.633     2770252.8813                                 
  25885426.518      474270.4973                                 
  21625270.066     4284875.8373                                 
  23267673.897     4660597.6913                                 
  22900270.487     2276081.8302                                 
  23238852.280     1878919.4283                                 
  21111454.407     2488839.2923                                 
 18  3 23  9 11 53.0010000  0  9G30S23G28G21G 5G 7G20G15G13
  21422865.008     4254323.4813                                 
  38930702.372     3357582.3193                                 
  21619893.776     2777958.8063                                 
  25887069.893      482927.3763                                 
  21627340.709     4295758.2513                                 
  23269892.867     4672228.0773                                 
  22901532.417     2282725.1072                                 
  23239941.121     1884639.7713                                 
  21112797.428     2495896.6223                                 
 18  3 23  9 11 54.0010000  0  9G30S23G28G21G 5G 7G20G15G13
  21424923.610     4265107.3143                                 
  38932377.540     3366388.5683                                 
  21621357.936     2785671.0413                                 
  25888714.314      491586.4113                                 
  21629412.294     4306644.0262                                 
  23272108.591     4683864.7883                                 
  22902796.720     2289373.6863                                 
  23241030.853     1890364.9323                                 
  21114138.914     2502960.4653                                 
 18  3 23  9 11 55.0010000  0  9G30S23G28G21G 5G 7G20G15G13
  21426978.757     4275904.1003                                 
  38934055.780     3375206.6573                                 
  21622827.890     2793396.2613                                 
  25890366.518      500259.6453                                 
  21631485.676     4317541.0532                                 
  23274328.171     4695514.1473                                 
  22904061.512     2296033.8713                                 
  23242124.004     1896099.8853                                 
  21115487.920     2510034.4323                                 
 18  3 23  9 11 56.0010000  0  9G30S23G28G21G 5G 7G20G15G13
  21429031.443     4286707.8833                                 
  38935734.927     3384031.1453                                 
  21624301.160     2801129.3733                                 
  25892017.815      508938.0403                                 
  21633560.019     4328444.7383                                 
  23276551.259     4707165.7283                                 
  22905334.697     2302701.1053                                 
  23243213.194     1901841.8433                                 
  21116835.461     2517115.4043                                 
 18  3 23  9 11 57.0010000  0  7G30S23G28G 5G20G15G13
  21431086.172     4297508.8633                                 
  38937413.917     3392854.2233                                 
  21625771.690     2808860.7593                                 
  21635635.478     4339347.1863                                 
  22906604.218     2309365.8323                                 
  23244306.625     1907581.4153                                 
  21118184.084     2524194.2343                                 
 18  3 23  9 11 58.0010000  0  7G30S23G28G 5G20G15G13
  21433146.624     4308314.1913                                 
  38939093.832     3401680.4123                                 
  21627245.430     2816594.8863                                 
  21637711.094     4350254.1462                                 
  22907875.571     2316034.3933                                 
  23245401.417     1913325.1473                                 
  21119529.670     2531277.3472                                 
 18  3 23  9 11 59.0010000  0  9G30S23G28G21G 5G 7G20G15G13
  21435203.236     4319130.6463                                 
  38940775.911     3410517.5733                                 
  21628720.968     2824342.8743                                 
  25896974.427      534993.6173                                 
  21639788.734     4361172.8673                                 
  23283206.755     4742136.3853                                 
  22909136.489     2322715.7663                                 
  23246489.752     1919080.5043                                 
  21120880.980     2538372.1282                                 
 18  3 23  9 12  0.0010000  0  7G30S23G28G 5G20G15G13
  21437265.678     4329953.8573                                 
  38942458.758     3419362.2143                                 
  21630195.337     2832095.8743                                 
  21641868.678     4372099.3482                                 
  22910415.904     2329404.2193                                 
  23247591.471     1924842.6463                                 
  21122231.016     2545473.9703                                 
 18  3 23  9 12  1.0010000  0  9G30S23G28G21G 5G 7G20G15G13
  21439326.199     4340777.2903                                 
  38944141.814     3428206.2053                                 
  21631672.760     2839847.9473                                 
  25900292.202      552401.2463                                 
  21643947.819     4383025.1562                                 
  23287654.187     4765481.6883                                 
  22911686.646     2336091.8153                                 
  23248686.979     1930603.8813                                 
  21123583.268     2552574.7642                                 
 18  3 23  9 12  2.0010000  0  9G30S23G28G21G 5G 7G20G15G13
  21441386.041     4351603.3083                                 
  38945825.673     3437052.3363                                 
  21633150.026     2847599.6623                                 
  25901950.880      561105.0953                                 
  21646027.414     4393953.8372                                 
  23289881.847     4777151.0083                                 
  22912967.370     2342781.8923                                 
  23249783.550     1936367.5642                                 
  21124932.537     2559678.4573                                 
