     2.11           OBSERVATION DATA    G (GPS)             RINEX VERSION / TYPE
CONVBIN 2.4.1                           20170124 163927 UTC PGM / RUN BY / DATE 
log: C:\Users\Marcel\CAMMP\CAMMPmodules\gps\Code\Master\MessCOMMENT             
format: u-blox                                              COMMENT             
                                                            MARKER NAME         
                                                            MARKER NUMBER       
                                                            OBSERVER / AGENCY   
                                                            REC # / TYPE / VERS 
                                                            ANT # / TYPE        
        0.0000        0.0000        0.0000                  APPROX POSITION XYZ 
        0.0000        0.0000        0.0000                  ANTENNA: DELTA H/E/N
     1     1                                                WAVELENGTH FACT L1/2
     3    C1    L1    S1                                    # / TYPES OF OBSERV 
  2013     7    18    12    11   35.0000000     GPS         TIME OF FIRST OBS   
  2013     7    18    12    24   26.0000000     GPS         TIME OF LAST OBS    
                                                            END OF HEADER       
 13  7 18 12 11 35.0000000  0  8G25G12G14G29G 2G24G 4G31
  20103450.179      195103.881          47.000  
  21000054.547      914757.9223         29.000  
  21944945.028      702776.7142         32.000  
  21681059.781     -469463.4703         26.000  
  22717609.102       82528.8953         31.000  
  23172076.081     1122890.8543         28.000  
  23165457.214      683562.3502         32.000  
  22936269.457     -478065.081          44.000  
 13  7 18 12 11 36.0000000  0  8G25G12G14G29G 2G24G 4G31
  20103569.189      195729.727          47.000  
  21000662.006      917953.3903         29.000  
  21945414.369      705244.5573         31.000  
  21680724.022     -471220.5363         26.000  
  22717651.331       82750.7352         31.000  
  23172962.570     1127552.8093         29.000  
  23165916.242      685956.4432         33.000  
  22935920.871     -479894.157          44.000  
 13  7 18 12 11 37.0000000  0  8G25G12G14G29G 2G24G 4G31
  20103689.212      196358.654          47.000  
  21001270.425      921151.8653         29.000  
  21945884.530      707715.6262         32.000  
  21680391.019     -472974.5183         27.000  
  22717694.521       82975.7892         31.000  
  23173850.297     1132217.7833         28.000  
  23166372.076      688353.428          32.000  
  22935573.734     -481720.348          44.000  
 13  7 18 12 11 38.0000000  0  8G25G12G14G29G 2G24G 4G31
  20103809.043      196988.879          47.000  
  21001878.653      924351.6243         29.000  
  21946354.639      710188.2642         31.000  
  21680057.511     -474727.0653         28.000  
  22717737.536       83202.2983         30.000  
  23174737.693     1136883.9803         28.000  
  23166828.504      690752.385          33.000  
  22935226.667     -483545.428          44.000  
 13  7 18 12 11 39.0000000  0  8G25G12G14G29G 2G24G 4G31
  20103928.838      197619.230          47.000  
  21002486.409      927551.3943         28.000  
  21946825.114      712661.2332         31.000  
  21679725.346     -476479.4583         28.000  
  22717780.638       83429.0133         30.000  
  23175626.537     1141550.0603         28.000  
  23167285.508      693151.785          33.000  
  22934879.512     -485370.576          44.000  
 13  7 18 12 11 40.0000000  0  8G25G12G14G29G 2G24G 4G31
  20104049.000      198250.857          47.000  
  21003091.757      930750.6983         27.000  
  21947295.659      715135.6052         31.000  
  21679391.767     -478230.8873         28.000  
  22717823.966       83657.2033         30.000  
  23176514.666     1146217.0173         28.000  
  23167742.826      695552.648          33.000  
  22934532.427     -487194.633          44.000  
 13  7 18 12 11 41.0000000  0  8G25G12G14G29G 2G24G 4G31
  20104170.524      198885.246          47.000  
  21003700.071      933954.1533         27.000  
  21947767.042      717613.0202         31.000  
  21679059.009     -479979.4373         27.000  
  22717867.662       83888.1403         30.000  
  23177401.661     1150886.7013         28.000  
  23168200.946      697956.566          33.000  
  22934186.127     -489016.114          44.000  
 13  7 18 12 11 42.0000000  0  8G25G12G14G29G 2G24G 4G31
  20104290.965      199522.607          47.000  
  21004310.201      937160.6493         27.000  
  21948239.123      720093.4712         31.000  
  21678726.199     -481724.9453         28.000  
  22717912.596       84122.4353         30.000  
  23178291.500     1155559.2423         28.000  
  23168659.294      700363.654          33.000  
  22933839.479     -490834.811          44.000  
 13  7 18 12 11 43.0000000  0  8G25G12G14G29G 2G24G 4G31
  20104411.878      200159.563          47.000  
  21004918.132      940366.5373         27.000  
  21948709.982      722573.8963         31.000  
  21678395.831     -483470.9333         29.000  
  22717957.740       84356.3353         30.000  
  23179180.623     1160231.1883         28.000  
  23169116.908      702770.575          33.000  
  22933493.179     -492654.102          44.000  
 13  7 18 12 11 44.0000000  0  8G25G12G14G29G 2G24G 4G31
  20104533.872      200796.240          47.000  
  21005531.367      943572.0013         27.000  
  21949181.452      725054.0932         31.000  
  21678069.687     -485217.0603         30.000  
  22718002.761       84590.0553         30.000  
  23180072.033     1164902.5903         28.000  
  23169574.976      705177.480          34.000  
  22933147.107     -494473.846          44.000  
 13  7 18 12 11 45.0000000  0  8G25G12G14G29G 2G24G 4G31
  20104654.820      201435.110          47.000  
  21006139.717      946779.5333         27.000  
  21949654.091      727536.6882         31.000  
  21677737.696     -486961.2643         30.000  
  22718047.434       84826.0783         29.000  
  23180961.261     1169575.9053         28.000  
  23170034.249      707586.772          34.000  
  22932801.226     -496291.618          44.000  
 13  7 18 12 11 46.0000000  0  8G25G12G14G29G 2G24G 4G31
  20104776.936      202076.437          47.000  
  21006750.474      949989.3603         27.000  
  21950127.202      730021.9632         31.000  
  21677406.683     -488703.0353         30.000  
  22718092.438       85064.7413         29.000  
  23181850.350     1174251.4553         28.000  
  23170493.399      709998.793          33.000  
  22932455.555     -498107.101          44.000  
 13  7 18 12 11 47.0000000  0  8G25G12G14G29G 2G24G 4G31
  20104899.053      202719.162          47.000  
  21007361.284      953200.6313         27.000  
  21950599.928      732508.7892         31.000  
  21677071.115     -490443.5313         31.000  
  22718137.669       85304.9773         29.000  
  23182738.060     1178928.4193         28.000  
  23170951.973      712412.446          32.000  
  22932110.791     -499921.384          44.000  
 13  7 18 12 11 48.0000000  0  8G25G12G14G29G 2G24G 4G31
  20105021.431      203361.311          47.000  
  21007971.832      956411.1703         27.000  
  21951072.881      734995.2782         31.000  
  21676747.815     -492184.5382         31.000  
  22718183.598       85544.7583         29.000  
  23183627.096     1183604.5533         28.000  
  23171411.908      714825.761          32.000  
  22931765.172     -501736.408          44.000  
 13  7 18 12 11 49.0000000  0  8G25G12G14G29G 2G24G 4G31
  20105143.967      204003.980          47.000  
  21008581.491      959621.9233         27.000  
  21951546.724      737482.4303         31.000  
  21676412.300     -493925.0982         31.000  
  22718228.759       85785.1213         30.000  
  23184517.214     1188280.7783         28.000  
  23171870.989      717239.807          33.000  
  22931420.041     -503551.124          44.000  
 13  7 18 12 11 50.0000000  0  8G25G12G14G29G 2G24G 4G31
  20105266.537      204648.961          47.000  
  21009192.493      962834.9863         27.000  
  21952020.463      739972.1442         31.000  
  21676081.566     -495663.3882         30.000  
  22718274.583       86027.9663         29.000  
  23185406.878     1192959.2883         28.000  
  23172331.256      719656.470          33.000  
  22931074.544     -505363.700          44.000  
 13  7 18 12 11 51.0000000  0  8G25G12G14G29G 2G24G 4G31
  20105389.770      205296.420          47.000  
  21009806.897      966050.5713         28.000  
  21952494.847      742464.4913         31.000  
  21675752.123     -497399.1382         31.000  
  22718321.594       86273.2853         29.000  
  23186295.740     1197640.1733         28.000  
  23172792.029      722075.791          34.000  
  22930729.431     -507174.003          44.000  
 13  7 18 12 11 52.0000000  0  8G25G12G14G29G 2G24G 4G31
  20105512.952      205943.773          47.000  
  21010419.330      969265.7813         28.000  
  21952968.778      744956.9352         31.000  
  21675422.279     -499135.1643         31.000  
  22718369.146       86518.8553         29.000  
  23187187.499     1202320.6913         28.000  
  23173252.906      724495.165          33.000  
  22930385.714     -508984.642          44.000  
 13  7 18 12 11 53.0000000  0  8G25G12G14G29G 2G24G 4G31
  20105635.417      206590.371          47.000  
  21011032.653      972480.2193         29.000  
  21953443.354      747448.7923         31.000  
  21675092.418     -500871.8932         31.000  
  22718414.569       86763.6223         28.000  
  23188079.589     1207000.2783         27.000  
  23173712.999      726914.160          33.000  
  22930040.985     -510796.169          44.000  
 13  7 18 12 11 54.0000000  0  8G25G12G14G29G 2G24G 4G31
  20105759.331      207239.275          47.000  
  21011644.213      975696.7573         29.000  
  21953918.104      749943.1933         32.000  
  21674762.417     -502606.3492         31.000  
  22718460.952       87010.9233         28.000  
  23188967.107     1211681.7953         27.000  
  23174174.121      729335.612          32.000  
  22929696.675     -512605.583          45.000  
 13  7 18 12 11 55.0000000  0  7G25G12G14G29G 2G 4G31
  20105882.757      207890.961          47.000  
  21012257.606      978915.8743         29.000  
  21954392.628      752440.4832         31.000  
  21674433.724     -504338.1072         31.000  
  22718508.050       87259.6293         27.000  
  23174635.505      731760.106          31.000  
  22929353.010     -514412.388          45.000  
 13  7 18 12 11 56.0000000  0  7G25G12G14G29G 2G 4G31
  20106007.054      208544.283          46.000  
  21012872.464      982136.8193         29.000  
  21954868.583      754939.7332         32.000  
  21674105.137     -506068.1352         32.000  
  22718558.882       87511.6873         28.000  
  23175097.011      734186.550          32.000  
  22929008.927     -516217.744          45.000  
 13  7 18 12 11 57.0000000  0  7G25G12G14G29G 2G 4G31
  20106131.684      209197.471          46.000  
  21013486.380      985357.3943         29.000  
  21955344.206      757439.0212         32.000  
  21673775.746     -507798.4332         31.000  
  22718606.452       87763.6273         29.000  
  23175559.372      736613.012          32.000  
  22928665.332     -518023.441          45.000  
 13  7 18 12 11 58.0000000  0  7G25G12G14G29G 2G 4G31
  20106255.860      209850.776          46.000  
  21014098.307      988577.7673         29.000  
  21955820.335      759938.5662         33.000  
  21673446.496     -509528.6203         30.000  
  22718651.421       88015.7233         29.000  
  23176021.837      739040.3473         31.000  
  22928321.999     -519829.189          45.000  
 13  7 18 12 11 59.0000000  0  7G25G12G14G29G 2G 4G31
  20106381.187      210506.410          46.000  
  21014711.403      991800.5623         29.000  
  21956296.203      762440.6532         32.000  
  21673116.407     -511256.5143         30.000  
  22718693.075       88270.5583         29.000  
  23176484.111      741469.8082         31.000  
  22927978.753     -521632.799          45.000  
 13  7 18 12 12  0.0000000  0  7G25G12G14G29G 2G 4G31
  20106506.078      211164.760          46.000  
  21015327.413      995025.9173         29.000  
  21956773.117      764945.6572         33.000  
  21672787.733     -512981.6683         30.000  
  22718746.315       88528.1492         30.000  
  23176946.769      743902.1672         32.000  
  22927636.101     -523433.879          45.000  
 13  7 18 12 12  1.0000000  0  7G25G12G14G29G 2G 4G31
  20106630.813      211822.959          46.000  
  21015938.991      998251.1133         29.000  
  21957250.712      767450.710          33.000  
  21672460.052     -514707.0992         31.000  
  22718798.055       88785.5943         28.000  
  23177410.194      746334.6412         32.000  
  22927292.663     -525235.295          45.000  
 13  7 18 12 12  2.0000000  0  7G25G12G14G29G 2G 4G31
  20106756.018      212480.656          46.000  
  21016552.890     1001475.5263         29.000  
  21957727.958      769955.450          33.000  
  21672132.110     -516433.0073         31.000  
  22718841.541       89042.8393         28.000  
  23177873.619      748766.8393         32.000  
  22926949.889     -527037.418          45.000  
 13  7 18 12 12  3.0000000  0  8G25G12G14G29G 2G24G 4G31
  20106882.183      213139.922          46.000  
  21017166.282     1004701.3863         30.000  
  21958205.099      772461.961          33.000  
  21671803.942     -518157.3962         30.000  
  22718891.763       89301.7093         29.000  
  23196993.038     1253868.1663         28.000  
  23178336.609      751200.8513         31.000  
  22926607.655     -528838.129          45.000  
 13  7 18 12 12  4.0000000  0  7G25G12G14G29G 2G 4G31
  20107007.615      213801.618          46.000  
  21017786.725     1007929.3643         31.000  
  21958682.502      774971.045          33.000  
  21671476.209     -519879.3313         30.000  
  22718939.454       89563.1883         27.000  
  23178800.767      753637.5242         32.000  
  22926266.084     -530636.610          45.000  
 13  7 18 12 12  5.0000000  0  7G25G12G14G29G 2G 4G31
  20107133.710      214463.995          46.000  
  21018394.394     1011158.1333         30.000  
  21959160.569      777481.013          33.000  
  21671148.372     -521600.6463         30.000  
  22718992.084       89825.3673         27.000  
  23179265.484      756075.1012         33.000  
  22925923.554     -532434.598          45.000  
 13  7 18 12 12  6.0000000  0  7G25G12G14G29G 2G 4G31
  20107259.492      215125.500          46.000  
  21019010.648     1014386.0193         31.000  
  21959638.460      779990.309          33.000  
  21670820.901     -523322.8452         31.000  
  22719046.180       90086.9613         29.000  
  23179729.939      758512.0172         32.000  
  22925581.635     -534233.641          45.000  
 13  7 18 12 12  7.0000000  0  7G25G12G14G29G 2G 4G31
  20107385.377      215787.068          46.000  
  21019622.662     1017613.9063         30.000  
  21960115.706      782499.9023         33.000  
  21670493.064     -525045.0523         30.000  
  22719094.447       90348.4743         29.000  
  23180193.905      760949.2592         31.000  
  22925239.418     -536032.809          45.000  
 13  7 18 12 12  8.0000000  0  7G25G12G14G29G 2G 4G31
  20107511.508      216450.231          46.000  
  21020239.545     1020843.0033         30.000  
  21960593.842      785011.2152         34.000  
  21670164.319     -526765.5842         29.000  
  22719145.908       90611.9193         28.000  
  23180657.505      763388.3503         30.000  
  22924897.464     -537830.587          45.000  
 13  7 18 12 12  9.0000000  0  7G25G12G14G29G 2G 4G31
  20107638.179      217114.421          46.000  
  21020853.095     1024073.1723         30.000  
  21961071.943      787523.8062         33.000  
  21669837.389     -528485.2973         30.000  
  22719194.315       90876.6483         28.000  
  23181120.581      765828.7443         28.000  
  22924555.352     -539627.500          45.000  
 13  7 18 12 12 10.0000000  0  7G25G12G14G29G 2G 4G31
  20107764.169      217776.620          46.000  
  21021467.220     1027301.1373         30.000  
  21961549.730      790034.5392         33.000  
  21669510.076     -530206.9053         29.000  
  22719243.542       91139.4193         27.000  
  23181584.024      768267.3083         28.000  
  22924213.555     -541426.594          45.000  
 13  7 18 12 12 11.0000000  0  7G25G12G14G29G 2G 4G31
  20107889.409      218437.344          46.000  
  21022081.852     1030527.6733         31.000  
  21962027.727      792544.0413         33.000  
  21669182.186     -531930.1423         30.000  
  22719296.939       91400.7243         29.000  
  23182047.502      770704.6223         30.000  
  22923870.658     -543227.361          45.000  
 13  7 18 12 12 12.0000000  0  7G25G12G14G29G 2G 4G31
  20108016.046      219100.172          46.000  
  21022695.820     1033756.0893         30.000  
  21962505.531      795055.8382         33.000  
  21668854.506     -533651.1223         29.000  
  22719349.011       91664.3583         28.000  
  23182511.050      773144.3302         29.000  
  22923527.046     -545026.201          45.000  
 13  7 18 12 12 13.0000000  0  7G25G12G14G29G 2G 4G31
  20108142.333      219764.719          46.000  
  21023310.679     1036986.1792         31.000  
  21962983.388      797569.5052         33.000  
  21668527.244     -535370.6553         29.000  
  22719401.536       91929.7223         29.000  
  23182971.735      775586.1083         27.000  
  22923185.126     -546823.517          45.000  
 13  7 18 12 12 14.0000000  0  7G25G12G14G29G 2G 4G31
  20108268.236      220429.170          46.000  
  21023925.362     1040216.0223         31.000  
  21963461.297      800083.2772         33.000  
  21668199.878     -537090.0763         29.000  
  22719454.707       92195.4693         29.000  
  23183431.182      778028.0463         27.000  
  22922843.207     -548621.112          45.000  
 13  7 18 12 12 15.0000000  0  7G25G12G14G29G 2G 4G31
  20108394.733      221091.671          46.000  
  21024539.662     1043443.7993         31.000  
  21963939.747      802595.3472         33.000  
  21667872.652     -538811.5923         30.000  
  22719505.522       92459.1053         30.000  
  23183891.711      780468.1433         28.000  
  22922500.502     -550420.814          45.000  
 13  7 18 12 12 16.0000000  0  7G25G12G14G29G 2G 4G31
  20108520.270      221753.421          46.000  
  21025153.299     1046670.7402         30.000  
  21964417.324      805106.8182         34.000  
  21667546.088     -540533.9103         30.000  
  22719556.860       92722.1382         32.000  
  23184353.862      782907.5323         27.000  
  22922157.972     -552221.483          45.000  
 13  7 18 12 12 17.0000000  0  7G25G12G14G29G 2G 4G31
  20108646.662      222416.439          46.000  
  21025768.402     1049898.7722         32.000  
  21964896.071      807619.7602         34.000  
  21667218.845     -542254.8933         30.000  
  22719609.508       92986.6062         32.000  
  23184817.131      785348.5633         27.000  
  22921815.982     -554021.063          45.000  
 13  7 18 12 12 18.0000000  0  7G25G12G14G29G 2G 4G31
  20108773.211      223080.300          46.000  
  21026383.191     1053127.5903         31.000  
  21965374.190      810133.6602         34.000  
  21666892.194     -543975.1652         30.000  
  22719663.743       93251.9972         32.000  
  23185282.563      787790.7743         27.000  
  22921473.539     -555819.985          45.000  
 13  7 18 12 12 19.0000000  0  7G25G12G14G29G 2G 4G31
  20108899.323      223742.994          46.000  
  21026997.578     1056355.0982         32.000  
  21965852.448      812646.671          34.000  
  21666565.020     -545696.6173         30.000  
  22719713.249       93516.4812         32.000  
  23185745.779      790232.0543         26.000  
  22921130.468     -557620.267          45.000  
 13  7 18 12 12 20.0000000  0  7G25G12G14G29G 2G 4G31
  20109025.628      224405.044          46.000  
  21027612.698     1059581.8483         32.000  
  21966330.148      815159.213          34.000  
  21666237.060     -547418.6513         28.000  
  22719757.224       93780.3282         32.000  
  23186206.727      792672.7883         25.000  
  22920787.658     -559421.371          45.000  
 13  7 18 12 12 21.0000000  0  7G25G12G14G29G 2G 4G31
  20109151.200      225068.978          46.000  
  21028226.562     1062810.3382         31.000  
  21966808.685      817673.821          34.000  
  21665910.305     -549138.9423         28.000  
  22719808.266       94046.2922         33.000  
  23186663.957      795110.1703         23.000  
  22920445.285     -561220.777          45.000  
 13  7 18 12 12 22.0000000  0  6G25G12G14G29G 2G31
  20109277.470      225734.580          46.000  
  21028841.002     1066040.3652         31.000  
  21967287.624      820190.276          34.000  
  21665583.515     -550857.4693         27.000  
  22719858.034       94314.0112         32.000  
  22920103.191     -563018.701          45.000  
 13  7 18 12 12 23.0000000  0  6G25G12G14G29G 2G31
  20109404.455      226400.326          46.000  
  21029455.232     1069270.4942         31.000  
  21967766.039      822707.032          34.000  
  21665256.568     -552575.9413         27.000  
  22719909.041       94582.0332         32.000  
  22919760.539     -564816.680          45.000  
 13  7 18 12 12 24.0000000  0  7G25G12G14G29G 2G 4G31
  20109531.545      227064.882          46.000  
  21030069.724     1072499.3333         31.000  
  21968244.559      825222.859          34.000  
  21664929.376     -554295.6893         26.000  
  22719960.327       94848.9672         32.000  
  23188058.387      802442.9543         23.000  
  22919418.322     -566616.007          45.000  
 13  7 18 12 12 25.0000000  0  7G25G12G14G29G 2G 4G31
  20109658.600      227730.845          46.000  
  21030684.094     1075729.3922         31.000  
  21968724.038      827740.256          34.000  
  21664602.411     -556014.1623         27.000  
  22720011.055       95116.996          32.000  
  23188524.709      804887.1833         23.000  
  22919076.263     -568414.149          45.000  
 13  7 18 12 12 26.0000000  0  6G25G12G14G29G 2G31
  20109785.777      228398.200          46.000  
  21031299.371     1078960.7762         31.000  
  21969203.849      830259.244          34.000  
  21664277.087     -557731.0223         28.000  
  22720062.480       95387.4563         32.000  
  22918734.902     -570211.062          45.000  
 13  7 18 12 12 27.0000000  0  7G25G12G14G29G 2G 4G31
  20109912.413      229064.325          46.000  
  21031914.648     1082190.7463         31.000  
  21969683.416      832777.197          34.000  
  21663949.878     -559449.2633         28.000  
  22720114.499       95656.4022         33.000  
  23189456.097      809781.9143         23.000  
  22918392.913     -572009.380          45.000  
 13  7 18 12 12 28.0000000  0  7G25G12G14G29G 2G 4G31
  20110039.067      229730.104          46.000  
  21032528.512     1085420.3933         30.000  
  21970162.582      835294.994          34.000  
  21663621.726     -561166.8523         26.000  
  22720165.873       95925.1542         34.000  
  23189925.263      812228.7603         25.000  
  22918050.557     -573808.238          45.000  
 13  7 18 12 12 29.0000000  0  7G25G12G14G29G 2G 4G31
  20110165.808      230397.942          46.000  
  21033142.725     1088651.8493         30.000  
  21970641.695      837815.050          34.000  
  21663295.861     -562883.9513         26.000  
  22720217.508       96196.0342         33.000  
  23190392.842      814677.4263         26.000  
  22917708.969     -575605.234          45.000  
 13  7 18 12 12 30.0000000  0  7G25G12G14G29G 2G 4G31
  20110292.985      231068.733          46.000  
  21033757.723     1091886.2323         30.000  
  21971121.820      840338.192          34.000  
  21662967.308     -564597.7713         26.000  
  22720269.335       96470.0082         33.000  
  23190861.555      817129.3013         26.000  
  22917367.102     -577399.446          45.000  
 13  7 18 12 12 31.0000000  0  7G25G12G14G29G 2G 4G31
  20110421.628      231741.495          46.000  
  21034373.802     1095122.4383         31.000  
  21971601.788      842863.559          34.000  
  21662644.602     -566309.4083         26.000  
  22720321.145       96746.0962         33.000  
  23191328.715      819583.5383         26.000  
  22917025.932     -579191.870          45.000  
 13  7 18 12 12 32.0000000  0  7G25G12G14G29G 2G 4G31
  20110548.962      232413.459          46.000  
  21034988.870     1098357.7043         30.000  
  21972082.559      845388.267          34.000  
  21662316.101     -568021.8493         26.000  
  22720373.932       97021.5122         32.000  
  23191796.799      822037.2003         27.000  
  22916684.868     -580985.303          45.000  
 13  7 18 12 12 33.0000000  0  7G25G12G14G29G 2G 4G31
  20110677.344      233084.850          46.000  
  21035604.950     1101592.2903         31.000  
  21972562.912      847912.595          34.000  
  21661989.293     -569734.9553         25.000  
  22720426.230       97296.4792         33.000  
  23192263.575      824490.3643         26.000  
  22916343.228     -582779.463          45.000  
 13  7 18 12 12 34.0000000  0  7G25G12G14G29G 2G 4G31
  20110805.568      233758.755          46.000  
  21036220.873     1104829.2732         31.000  
  21973042.723      850439.670          34.000  
  21661663.812     -571445.5353         25.000  
  22720478.633       97574.1212         33.000  
  23192728.815      826946.2843         27.000  
  22916001.988     -584571.303          45.000  
 13  7 18 12 12 35.0000000  0  7G25G12G14G29G 2G 4G31
  20110934.804      234435.501          46.000  
  21036837.773     1108068.9673         30.000  
  21973524.331      852969.714          34.000  
  21661339.814     -573154.0623         26.000  
  22720532.048       97854.7452         32.000  
  23193200.163      829405.2953         27.000  
  22915661.587     -586360.491          45.000  
 13  7 18 12 12 36.0000000  0  7G25G12G14G29G 2G 4G31
  20111063.360      235112.285          46.000  
  21037454.586     1111308.6802         31.000  
  21974006.045      855500.001          34.000  
  21661014.297     -574861.9133         26.000  
  22720585.010       98135.5512         32.000  
  23193669.452      831864.7743         27.000  
  22915321.064     -588149.818          45.000  
 13  7 18 12 12 37.0000000  0  7G25G12G14G29G 2G 4G31
  20111191.567      235788.711          46.000  
  21038070.823     1114547.8003         31.000  
  21974487.950      858030.179          34.000  
  21660689.444     -576570.0513         26.000  
  22720638.198       98415.580          32.000  
  23194136.140      834323.9883         28.000  
  22914979.964     -589939.696          45.000  
 13  7 18 12 12 38.0000000  0  7G25G12G14G29G 2G 4G31
  20111320.977      236465.733          46.000  
  21038687.671     1117787.3983         31.000  
  21974970.239      860561.093          34.000  
  21660366.545     -578278.0303         27.000  
  22720691.299       98696.874          32.000  
  23194606.371      836783.7993         28.000  
  22914639.545     -591729.162          45.000  
 13  7 18 12 12 39.0000000  0  7G25G12G14G29G 2G 4G31
  20111450.423      237145.276          46.000  
  21039304.466     1121029.5162         31.000  
  21975452.580      863094.737          34.000  
  21660043.961     -579983.3213         27.000  
  22720745.395       98980.821          32.000  
  23195076.358      839246.5763         29.000  
  22914299.371     -593516.291          45.000  
 13  7 18 12 12 40.0000000  0  7G25G12G14G29G 2G 4G31
  20111580.148      237827.811          46.000  
  21039921.750     1124274.4213         30.000  
  21975935.184      865631.544          34.000  
  21659721.969     -581685.3303         27.000  
  22720799.682       99267.872          32.000  
  23195549.678      841712.7123         30.000  
  22913959.249     -595300.631          45.000  
 13  7 18 12 12 41.0000000  0  7G25G12G14G29G 2G 4G31
  20111709.576      238509.317          46.000  
  21040539.593     1127518.2492         31.000  
  21976417.787      868167.549          34.000  
  21659397.866     -583388.4663         27.000  
  22720853.272       99554.056          31.000  
  23196016.052      844177.9493         31.000  
  22913619.877     -597086.165          45.000  
 13  7 18 12 12 42.0000000  0  7G25G12G14G29G 2G 4G31
  20111839.476      239189.232          46.000  
  21041156.388     1130760.2513         31.000  
  21976900.460      870702.128          34.000  
  21659074.706     -585093.3903         26.000  
  22720907.402       99838.763          31.000  
  23196487.924      846641.8082         31.000  
  22913279.545     -598873.489          45.000  
 13  7 18 12 12 43.0000000  0  7G25G12G14G29G 2G 4G31
  20111968.921      239870.667          46.000  
  21041773.986     1134003.7233         31.000  
  21977383.552      873238.420          33.000  
  21658747.968     -586796.9383         25.000  
  22720962.126      100125.6863         31.000  
  23196958.085      849107.4032         31.000  
  22912939.563     -600659.477          45.000  
 13  7 18 12 12 44.0000000  0  7G25G12G14G29G 2G 4G31
  20112098.646      240554.581          46.000  
  21042391.637     1137249.5663         31.000  
  21977866.504      875777.396          34.000  
  21658424.633     -588497.9423         25.000  
  22721017.618      100414.6382         31.000  
  23197423.988      851575.7612         32.000  
  22912600.557     -602443.166          45.000  
 13  7 18 12 12 45.0000000  0  7G25G12G14G29G 2G 4G31
  20112229.348      241238.082          46.000  
  21043009.427     1140494.9542         31.000  
  21978349.299      878316.125          33.000  
  21658098.645     -590199.2983         25.000  
  22721072.865      100703.3172         31.000  
  23197896.121      854043.8462         32.000  
  22912260.993     -604227.447          45.000  
 13  7 18 12 12 46.0000000  0  7G25G12G14G29G 2G 4G31
  20112359.265      241920.935          46.000  
  21043627.217     1143739.4553         31.000  
  21978831.658      880854.434          33.000  
  21657771.558     -591901.1953         24.000  
  22721127.485      100991.5492         30.000  
  23198365.637      856511.5782         32.000  
  22911921.430     -606012.581          45.000  
 13  7 18 12 12 47.0000000  0  7G25G12G14G29G 2G 4G31
  20112489.374      242605.140          46.000  
  21044244.920     1146985.2702         30.000  
  21979314.628      883394.231          33.000  
  21657446.269     -593601.8893         23.000  
  22721182.453      101281.2602         30.000  
  23198834.402      858980.9032         32.000  
  22911581.901     -607796.504          45.000  
 13  7 18 12 12 48.0000000  0  6G25G12G14G 2G 4G31
  20112619.902      243292.044          46.000  
  21044863.163     1150233.5823         30.000  
  21979798.243      885936.936          33.000  
  22721237.526      101573.7422         31.000  
  23199304.965      861453.1872         32.000  
  22911242.599     -609577.934          45.000  
 13  7 18 12 12 49.0000000  0  6G25G12G14G 2G 4G31
  20112750.569      243979.881          46.000  
  21045481.599     1153482.8363         30.000  
  21980282.539      888480.763          33.000  
  22721292.494      101867.3953         30.000  
  23199775.335      863926.5903         32.000  
  22910903.454     -611358.615          45.000  
 13  7 18 12 12 50.0000000  0  6G25G12G14G 2G 4G31
  20112881.864      244666.944          46.000  
  21046099.284     1156731.1873         30.000  
  21980766.329      891024.054          33.000  
  22721348.666      102160.3643         30.000  
  23200246.090      866399.5102         32.000  
  22910564.134     -613140.225          45.000  
 13  7 18 12 12 51.0000000  0  6G25G12G14G 2G 4G31
  20113012.375      245353.875          46.000  
  21046717.738     1159979.0753         29.000  
  21981250.834      893567.345          33.000  
  22721404.228      102453.2652         30.000  
  23200716.897      868872.4873         32.000  
  22910225.268     -614922.184          45.000  
 13  7 18 12 12 52.0000000  0  6G25G12G14G 2G 4G31
  20113142.937      246042.848          46.000  
  21047335.266     1163229.0563         29.000  
  21981735.479      896112.902          33.000  
  22721460.714      102748.4443         30.000  
  23201188.646      871347.7072         32.000  
  22909887.066     -616702.262          45.000  
 13  7 18 12 12 53.0000000  0  6G25G12G14G 2G 4G31
  20113274.686      246733.843          46.000  
  21047954.365     1166481.0873         28.000  
  21982220.246      898660.663          33.000  
  22721517.061      103045.6973         30.000  
  23201660.447      873825.2302         33.000  
  22909548.723     -618480.500          45.000  
 13  7 18 12 12 54.0000000  0  6G25G12G14G 2G 4G31
  20113405.842      247424.602          46.000  
  21048572.957     1169732.6513         28.000  
  21982704.367      901208.383          33.000  
  22721573.355      103342.9153         29.000  
  23202131.795      876302.7402         32.000  
  22909210.032     -620259.180          45.000  
 13  7 18 12 12 55.0000000  0  6G25G12G14G 2G 4G31
  20113537.312      248115.019          46.000  
  21049192.719     1172983.8003         27.000  
  21983189.379      903755.896          33.000  
  22721629.632      103639.9023         30.000  
  23202603.091      878780.1602         32.000  
  22908871.097     -622038.374          45.000  
 13  7 18 12 12 56.0000000  0  7G25G12G14G29G 2G 4G31
  20113669.236      248808.207          46.000  
  21049812.499     1176237.5163         27.000  
  21983674.093      906306.420          33.000  
  21654538.853     -608869.8823         23.000  
  22721686.049      103939.6743         28.000  
  23203075.346      881260.5322         32.000  
  22908532.964     -623814.980          45.000  
 13  7 18 12 12 57.0000000  0  7G25G12G14G29G 2G 4G31
  20113801.735      249503.722          46.000  
  21050433.569     1179493.5263         27.000  
  21984160.536      908859.411          32.000  
  21654218.659     -610558.1323         24.000  
  22721743.373      104241.9943         29.000  
  23203547.846      883743.5712         32.000  
  22908195.250     -625589.451          45.000  
 13  7 18 12 12 58.0000000  0  7G25G12G14G29G 2G 4G31
  20113933.589      250199.197          46.000  
  21051051.447     1182748.2803         27.000  
  21984645.390      911412.601          33.000  
  21653894.905     -612247.1893         25.000  
  22721801.080      104544.5583         29.000  
  23204020.659      886226.7342         32.000  
  22907857.291     -627364.141          45.000  
 13  7 18 12 12 59.0000000  0  7G25G12G14G29G 2G 4G31
  20114066.193      250894.006          45.000  
  21051669.464     1186002.9823         26.000  
  21985131.623      913965.344          33.000  
  21653575.915     -613935.9543         26.000  
  22721858.527      104846.4993         29.000  
  23204493.961      888709.4362         33.000  
  22907519.298     -629139.680          45.000  
 13  7 18 12 13  0.0000000  0  7G25G12G14G29G 2G 4G31
  20114198.082      251590.589          45.000  
  21052290.622     1189259.5453         26.000  
  21985617.489      916520.010          33.000  
  21653256.000     -615623.9033         25.000  
  22721916.025      105150.2853         29.000  
  23204966.985      891194.2102         32.000  
  22907182.195     -630913.612          45.000  
 13  7 18 12 13  1.0000000  0  7G25G12G14G29G 2G 4G31
  20114330.756      252290.187          45.000  
  21052911.204     1192519.0213         26.000  
  21986103.879      919077.881          32.000  
  21652934.375     -617309.7913         23.000  
  22721975.164      105457.1843         30.000  
  23205440.828      893682.139          32.000  
  22906845.318     -632684.728          45.000  
 13  7 18 12 13  2.0000000  0  7G25G12G14G29G 2G 4G31
  20114464.686      252991.651          45.000  
  21053534.019     1195780.3263         26.000  
  21986591.194      921637.745          33.000  
  21652612.227     -618991.2243         22.000  
  22722034.198      105766.2483         29.000  
  23205914.950      896172.260          33.000  
  22906508.163     -634454.160          45.000  
 13  7 18 12 13  3.0000000  0  7G25G12G14G29G 2G 4G31
  20114598.914      253693.737          45.000  
  21054155.526     1199042.2553         26.000  
  21987079.050      924198.534          33.000  
  21652291.352     -620673.8023         23.000  
  22722093.424      106075.9843         29.000  
  23206389.038      898663.221          33.000  
  22906172.002     -636223.161          45.000  
 13  7 18 12 13  4.0000000  0  7G25G12G14G29G 2G 4G31
  20114732.477      254396.860          45.000  
  21054775.131     1202304.8953         25.000  
  21987566.347      926760.450          32.000  
  21651974.648     -622356.3393         25.000  
  22722152.633      106386.9503         28.000  
  23206863.090      901155.444          32.000  
  22905835.352     -637991.283          45.000  
 13  7 18 12 13  5.0000000  0  7G25G12G14G29G 2G 4G31
  20114866.076      255102.570          45.000  
  21055393.759     1205566.0583         24.000  
  21988054.936      929325.241          32.000  
  21651657.613     -624036.7993         27.000  
  22722212.365      106700.4903         28.000  
  23207337.876      903650.445          32.000  
  22905499.523     -639757.010          45.000  
 13  7 18 12 13  6.0000000  0  7G25G12G14G29G 2G 4G31
  20115000.949      255810.758          45.000  
  21056016.906     1208836.1863         24.000  
  21988542.966      931892.6183         32.000  
  21651340.263     -625714.0973         28.000  
  22722272.463      107017.5793         27.000  
  23207813.796      906148.2253         31.000  
  22905163.676     -641520.440          45.000  
 13  7 18 12 13  7.0000000  0  7G25G12G14G29G 2G 4G31
  20115135.612      256520.182          45.000  
  21056635.290     1212104.2843         23.000  
  21989031.153      934461.4202         32.000  
  21651026.700     -627390.1743         29.000  
  22722332.492      107335.1163         28.000  
  23208289.017      908647.4902         29.000  
  22904828.038     -643282.830          45.000  
 13  7 18 12 13  8.0000000  0  7G25G12G14G29G 2G 4G31
  20115270.520      257229.645          45.000  
  21057259.781     1215377.2723         23.000  
  21989520.353      937030.4772         31.000  
  21650706.838     -629066.4033         28.000  
  22722393.463      107651.0983         27.000  
  23208764.972      911146.9003         30.000  
  22904492.331     -645045.370          45.000  
 13  7 18 12 13  9.0000000  0  6G25G14G29G 2G 4G31
  20115406.283      257942.041          45.000  
  21990009.395      939602.6282         32.000  
  21650385.911     -630739.5023         28.000  
  22722453.125      107971.9433         26.000  
  23209242.096      913649.6223         31.000  
  22904158.072     -646805.138          45.000  
 13  7 18 12 13 10.0000000  0  6G25G14G29G 2G 4G31
  20115542.604      258658.094          45.000  
  21990498.856      942178.6822         31.000  
  21650067.776     -632409.0873         29.000  
  22722514.149      108296.4763         27.000  
  23209720.319      916156.2633         31.000  
  22903823.831     -648561.440          45.000  
 13  7 18 12 13 11.0000000  0  6G25G14G29G 2G 4G31
  20115678.489      259373.977          45.000  
  21990988.527      944754.7702         31.000  
  21649748.001     -634078.8003         28.000  
  22722575.207      108621.2103         26.000  
  23210197.844      918662.8372         32.000  
  22903489.938     -650318.103          45.000  
 13  7 18 12 13 12.0000000  0  6G25G14G29G 2G 4G31
  20115814.897      260092.016          45.000  
  21991478.913      947333.1202         31.000  
  21649429.342     -635746.5423         28.000  
  22722636.911      108947.9503         26.000  
  23210676.678      921171.8562         33.000  
  22903155.470     -652072.793          45.000  
 13  7 18 12 13 13.0000000  0  7G25G14G29G 2G24G 4G31
  20115951.794      260814.448          45.000  
  21991970.503      949916.0323         31.000  
  21649112.184     -637409.8423         28.000  
  22722702.873      109279.3463         27.000  
  23259635.986     1583133.8173         27.000  
  23211156.437      923685.4673         32.000  
  22902822.118     -653823.284          45.000  
 13  7 18 12 13 14.0000000  0  7G25G14G29G 2G24G 4G31
  20116089.773      261539.348          45.000  
  21992462.599      952501.6592         31.000  
  21648798.220     -639070.5013         28.000  
  22722766.688      109613.5293         26.000  
  23260539.943     1587875.6143         27.000  
  23211636.475      926201.7932         32.000  
  22902489.203     -655571.471          45.000  
 13  7 18 12 13 15.0000000  0  7G25G14G29G 2G24G 4G31
  20116228.607      262266.891          45.000  
  21992955.358      955090.1063         31.000  
  21648482.406     -640728.8513         28.000  
  22722830.120      109950.1913         27.000  
  23261440.461     1592619.5093         27.000  
  23212117.246      928721.0602         32.000  
  22902157.282     -657317.179          45.000  
 13  7 18 12 13 16.0000000  0  7G25G14G29G 2G24G 4G31
  20116367.371      262996.386          45.000  
  21993447.856      957680.7372         31.000  
  21648169.053     -642384.9913         29.000  
  22722893.743      110289.2643         25.000  
  23262342.306     1597365.3923         27.000  
  23212598.663      931242.2983         30.000  
  22901825.170     -659061.120          45.000  
 13  7 18 12 13 17.0000000  0  7G25G14G29G 2G24G 4G31
  20116506.187      263725.294          45.000  
  21993939.865      960270.8102         31.000  
  21647852.645     -644041.8963         29.000  
  22722956.163      110627.4603         25.000  
  23263245.424     1602110.4003         27.000  
  23213080.533      933763.4253         29.000  
  22901493.145     -660805.843          45.000  
 13  7 18 12 13 18.0000000  0  7G25G14G29G 2G24G 4G31
  20116645.039      264455.909          45.000  
  21994432.554      962862.9322         31.000  
  21647537.058     -645697.1803         28.000  
  22723020.135      110968.4623         25.000  
  23264149.276     1606856.8253         27.000  
  23213560.152      936286.4813         30.000  
  22901160.910     -662549.033          45.000  
 13  7 18 12 13 19.0000000  0  7G25G14G29G 2G24G 4G31
  20116784.361      265188.109          45.000  
  21994925.610      965456.7953         31.000  
  21647222.186     -647350.7763         29.000  
  22723085.504      111310.7723         24.000  
  23265055.064     1611604.8173         27.000  
  23214039.423      938811.2823         29.000  
  22900830.211     -664290.806          45.000  
 13  7 18 12 13 20.0000000  0  7G25G14G29G 2G24G 4G31
  20116923.649      265920.641          45.000  
  21995420.167      968051.1053         31.000  
  21646909.164     -649004.0453         29.000  
  22723146.667      111649.3873         23.000  
  23265960.259     1616352.8043         27.000  
  23214521.258      941336.6133         29.000  
  22900498.465     -666032.431          45.000  
 13  7 18 12 13 21.0000000  0  7G25G14G29G 2G24G 4G31
  20117062.518      266652.859          45.000  
  21995913.589      970645.3542         31.000  
  21646595.514     -650657.8443         30.000  
  22723212.384      111992.6143         23.000  
  23266865.891     1621100.2543         27.000  
  23215003.006      943861.7353         28.000  
  22900167.172     -667774.543          45.000  
 13  7 18 12 13 22.0000000  0  7G25G14G29G 2G24G 4G31
  20117202.503      267387.459          45.000  
  21996407.779      973242.1712         31.000  
  21646286.471     -652308.9833         30.000  
  22723277.334      112338.5983         22.000  
  23267773.337     1625849.8623         28.000  
  23215485.051      946389.6253         28.000  
  22899835.985     -669514.469          45.000  
 13  7 18 12 13 23.0000000  0  7G25G14G29G 2G24G 4G31
  20117343.222      268126.168          45.000  
  21996903.330      975843.3122         32.000  
  21645970.639     -653956.2713         30.000  
  22723342.650      112687.0933         22.000  
  23268679.440     1630603.3493         27.000  
  23215969.504      948921.8093         27.000  
  22899505.478     -671250.462          45.000  
 13  7 18 12 13 24.0000000  0  6G25G14G29G24G 4G31
  20117483.574      268866.339          44.000  
  21997398.637      978446.0672         32.000  
  21645661.212     -655602.0872         31.000  
  23269586.066     1635358.2683         27.000  
  23216452.613      951455.8553         29.000  
  22899175.948     -672985.167          45.000  
 13  7 18 12 13 25.0000000  0  6G25G14G29G24G 4G31
  20117624.589      269607.284          44.000  
  21997894.712      981049.8052         32.000  
  21645342.065     -657247.1782         31.000  
  23270488.573     1640113.7163         27.000  
  23216936.333      953990.8373         28.000  
  22898845.057     -674719.293          45.000  
 13  7 18 12 13 26.0000000  0  6G25G14G29G24G 4G31
  20117765.447      270350.275          44.000  
  21998390.804      983655.7342         32.000  
  21645035.098     -658890.1702         31.000  
  23271395.374     1644870.8613         28.000  
  23217421.345      956527.9623         27.000  
  22898515.998     -676451.535          45.000  
 13  7 18 12 13 27.0000000  0  6G25G14G29G24G 4G31
  20117907.667      271096.591          44.000  
  21998887.734      986265.1832         32.000  
  21644721.169     -660530.0002         31.000  
  23272301.634     1649631.2113         28.000  
  23217906.722      959068.7163         28.000  
  22898186.817     -678180.647          45.000  
 13  7 18 12 13 28.0000000  0  6G25G14G29G24G 4G31
  20118050.287      271844.607          44.000  
  21999384.053      988876.5302         32.000  
  21644410.101     -662168.0122         31.000  
  23273207.352     1654393.1103         28.000  
  23218392.240      961611.4133         28.000  
  22897857.863     -679908.245          45.000  
 13  7 18 12 13 29.0000000  0  6G25G14G29G24G 4G31
  20118192.960      272592.846          44.000  
  21999881.297      991488.3042         32.000  
  21644098.440     -663805.9342         31.000  
  23274116.072     1659154.9643         29.000  
  23218877.670      964154.5773         28.000  
  22897528.944     -681635.783          45.000  
 13  7 18 12 13 30.0000000  0  6G25G14G29G24G 4G31
  20118334.953      273342.391          44.000  
  22000379.728      994101.5582         33.000  
  21643787.966     -665442.5522         33.000  
  23275022.280     1663917.9703         29.000  
  23219364.007      966698.7263         27.000  
  22897200.286     -683362.206          45.000  
 13  7 18 12 13 31.0000000  0  6G25G14G29G24G 4G31
  20118477.765      274095.364          44.000  
  22000878.123      996718.412          33.000  
  21643476.672     -667076.241          33.000  
  23275928.906     1668684.0533         29.000  
  23219850.101      969246.9913         27.000  
  22896872.885     -685085.382          45.000  
 13  7 18 12 13 32.0000000  0  6G25G14G29G24G 4G31
  20118621.712      274851.805          44.000  
  22001376.659      999338.952          33.000  
  21643167.349     -668705.987          34.000  
  23276839.598     1673453.4693         29.000  
  23220335.287      971799.1133         27.000  
  22896545.153     -686805.272          45.000  
 13  7 18 12 13 33.0000000  0  7G25G14G29G 2G24G 4G31
  20118765.624      275608.992          44.000  
  22001876.555     1001960.447          33.000  
  21642857.486     -670335.049          33.000  
  22724027.152      116275.6003         22.000  
  23277747.061     1678223.4633         29.000  
  23220818.937      974352.2473         27.000  
  22896218.310     -688524.587          45.000  
 13  7 18 12 13 34.0000000  0  7G25G14G29G 2G24G 4G31
  20118910.129      276366.475          44.000  
  22002376.347     1004582.356          33.000  
  21642548.006     -671963.808          33.000  
  22724102.241      116645.9353         23.000  
  23278655.956     1682993.5113         29.000  
  23221307.735      976905.8083         27.000  
  22895891.101     -690243.819          45.000  
 13  7 18 12 13 35.0000000  0  7G25G14G29G 2G24G 4G31
  20119054.024      277125.951          44.000  
  22002875.772     1007206.447          33.000  
  21642238.352     -673590.625          33.000  
  22724174.467      117017.4213         25.000  
  23279564.397     1687765.4603         29.000  
  23221793.723      979461.6133         29.000  
  22895564.468     -691961.236          45.000  
 13  7 18 12 13 36.0000000  0  7G25G14G29G 2G24G 4G31
  20119199.454      277887.610          44.000  
  22003375.721     1009832.941          33.000  
  21641929.221     -675215.238          34.000  
  22724247.269      117391.2583         25.000  
  23280472.349     1692539.2073         29.000  
  23222278.822      982019.8423         30.000  
  22895237.782     -693676.600          45.000  
 13  7 18 12 13 37.0000000  0  7G25G14G29G 2G24G 4G31
  20119345.338      278650.355          44.000  
  22003875.495     1012460.664          33.000  
  21641620.195     -676838.850          33.000  
  22724320.874      117766.2223         26.000  
  23281381.663     1697313.9053         29.000  
  23222763.275      984579.3593         29.000  
  22894912.057     -695391.098          45.000  
 13  7 18 12 13 38.0000000  0  7G25G14G29G 2G24G 4G31
  20119490.244      279413.542          44.000  
  22004375.758     1015089.110          33.000  
  21641311.414     -678462.040          33.000  
  22724390.937      118141.9293         26.000  
  23282292.337     1702088.9733         30.000  
  23223249.368      987139.6873         29.000  
  22894585.999     -697105.334          45.000  
 13  7 18 12 13 39.0000000  0  8G25G12G14G29G 2G24G 4G31
  20119636.442      280178.327          44.000  
  21076720.508     1317523.0943         27.000  
  22004876.091     1017719.281          33.000  
  21641003.156     -680083.627          34.000  
  22724463.286      118518.8083         24.000  
  23283203.064     1706865.1563         29.000  
  23223737.974      989701.5923         28.000  
  22894259.768     -698818.136          45.000  
 13  7 18 12 13 40.0000000  0  8G25G12G14G29G 2G24G 4G31
  20119782.361      280946.186          44.000  
  21077349.309     1320846.3013         26.000  
  22005377.418     1020352.725          33.000  
  21640695.735     -681702.214          33.000  
  22724537.083      118899.9043         25.000  
  23284113.250     1711644.4143         29.000  
  23224225.499      992266.9543         28.000  
  22893934.740     -700528.033          45.000  
 13  7 18 12 13 41.0000000  0  8G25G12G14G29G 2G24G 4G31
  20119929.519      281717.238          44.000  
  21077978.860     1324172.7253         25.000  
  22005878.518     1022989.569          33.000  
  21640388.210     -683317.621          34.000  
  22724609.728      119280.3883         24.000  
  23285024.657     1716426.6903         29.000  
  23224715.361      994835.8353         28.000  
  22893609.206     -702234.931          45.000  
 13  7 18 12 13 42.0000000  0  8G25G12G14G29G 2G24G 4G31
  20120076.031      282489.321          44.000  
  21078614.327     1327500.4893         25.000  
  22006380.509     1025627.564          33.000  
  21640080.912     -684931.913          33.000  
  22724685.026      119665.0603         23.000  
  23285934.965     1721209.7973         28.000  
  23225203.688      997406.0833         30.000  
  22893284.440     -703940.971          45.000  
 13  7 18 12 13 43.0000000  0  8G25G12G14G29G 2G24G 4G31
  20120222.874      283261.815          44.000  
  21079248.102     1330829.2643         25.000  
  22006882.796     1028266.180          33.000  
  21639773.334     -686545.905          33.000  
  22724758.666      120050.7163         24.000  
  23286846.059     1725993.0863         28.000  
  23225692.381      999976.7192         31.000  
  22892960.355     -705646.783          45.000  
 13  7 18 12 13 44.0000000  0  8G25G12G14G29G 2G24G 4G31
  20120370.887      284036.796          44.000  
  21079883.534     1334159.1573         25.000  
  22007385.100     1030907.483          33.000  
  21639466.472     -688157.443          33.000  
  22724831.066      120440.9733         23.000  
  23287755.686     1730778.5363         28.000  
  23226182.889     1002550.1582         31.000  
  22892635.850     -707350.287          44.000  
 13  7 18 12 13 45.0000000  0  8G25G12G14G29G 2G24G 4G31
  20120518.272      284813.143          44.000  
  21080517.518     1337490.2483         25.000  
  22007887.457     1033550.296          33.000  
  21639160.168     -689767.639          32.000  
  22724905.439      120832.3463         24.000  
  23288665.104     1735565.3153         29.000  
  23226665.493     1005125.1253         31.000  
  22892311.451     -709052.602          44.000  
 13  7 18 12 13 46.0000000  0  7G25G14G29G 2G24G 4G31
  20120666.494      285591.332          44.000  
  22008390.198     1036195.234          33.000  
  21638853.359     -691376.008          32.000  
  22724977.142      121223.6593         25.000  
  23289576.581     1740353.6243         29.000  
  23227150.539     1007702.1772         31.000  
  22891988.116     -710753.255          44.000  
 13  7 18 12 13 47.0000000  0  7G25G14G29G 2G24G 4G31
  20120815.100      286372.262          44.000  
  22008894.439     1038843.025          33.000  
  21638547.683     -692981.1553         31.000  
  22725056.192      121616.6873         27.000  
  23290487.116     1745144.2593         29.000  
  23227642.042     1010282.3113         32.000  
  22891665.130     -712451.340          44.000  
 13  7 18 12 13 48.0000000  0  7G25G14G29G 2G24G 4G31
  20120964.421      287156.564          44.000  
  22009399.728     1041494.401          34.000  
  21638242.880     -694583.4542         31.000  
  22725133.217      122014.7973         28.000  
  23291399.501     1749938.3533         29.000  
  23228135.307     1012865.9362         32.000  
  22891342.091     -714146.241          44.000  
 13  7 18 12 13 49.0000000  0  7G25G14G29G 2G24G 4G31
  20121113.516      287942.607          44.000  
  22009904.685     1044147.695          34.000  
  21637938.479     -696183.9922         31.000  
  22725210.591      122414.7703         27.000  
  23292314.172     1754733.9513         29.000  
  23228625.972     1015451.5263         31.000  
  22891019.524     -715839.585          44.000  
 13  7 18 12 13 50.0000000  0  7G25G14G29G 2G24G 4G31
  20121263.762      288729.760          44.000  
  22010410.602     1046802.243          34.000  
  21637634.077     -697783.4852         31.000  
  22725286.412      122816.1073         27.000  
  23293223.782     1759530.5223         28.000  
  23229117.615     1018038.5272         30.000  
  22890697.969     -717531.983          45.000  
 13  7 18 12 13 51.0000000  0  7G25G14G29G 2G24G 4G31
  20121413.119      289516.601          44.000  
  22010915.995     1049456.726          34.000  
  21637329.448     -699383.3562         31.000  
  22725363.508      123217.1073         27.000  
  23294137.789     1764326.5123         28.000  
  23229610.269     1020625.4143         31.000  
  22890375.367     -719224.893          44.000  
 13  7 18 12 13 52.0000000  0  7G25G14G29G 2G24G 4G31
  20121563.138      290302.871          44.000  
  22011421.214     1052110.814          34.000  
  21637025.989     -700983.8112         32.000  
  22725439.189      123617.6373         27.000  
  23295051.692     1769121.6273         29.000  
  23230101.720     1023211.9892         32.000  
  22890052.974     -720918.547          44.000  
 13  7 18 12 13 53.0000000  0  7G25G14G29G 2G24G 4G31
  20121713.804      291091.112          45.000  
  22011926.485     1054767.013          34.000  
  21636721.326     -702582.2732         32.000  
  22725513.213      124020.3403         27.000  
  23295964.303     1773918.4633         29.000  
  23230594.531     1025800.7032         32.000  
  22889730.808     -722610.416          44.000  
 13  7 18 12 13 54.0000000  0  7G25G14G29G 2G24G 4G31
  20121863.649      291882.370          44.000  
  22012432.977     1057426.433          34.000  
  21636417.029     -704177.8332         31.000  
  22725592.734      124426.1683         28.000  
  23296879.707     1778717.9003         29.000  
  23231088.495     1028392.7102         32.000  
  22889409.986     -724299.410          44.000  
 13  7 18 12 13 55.0000000  0  7G25G14G29G 2G24G 4G31
  20122014.296      292674.348          44.000  
  22012939.522     1060086.782          33.000  
  21636114.477     -705772.6393         32.000  
  22725670.038      124833.0233         27.000  
  23297793.732     1783518.3473         30.000  
  23231582.266     1030985.7202         33.000  
  22889088.832     -725987.896          45.000  
 13  7 18 12 13 56.0000000  0  7G25G14G29G 2G24G 4G31
  20122165.119      293466.320          44.000  
  22013445.613     1062747.280          33.000  
  21635811.140     -707367.4653         31.000  
  22725745.824      125239.9063         27.000  
  23298704.162     1788318.5143         29.000  
  23232075.479     1033578.8302         32.000  
  22888767.224     -727676.570          45.000  
 13  7 18 12 13 57.0000000  0  7G25G14G29G 2G24G 4G31
  20122316.499      294259.579          44.000  
  22013952.350     1065409.310          33.000  
  21635507.907     -708961.0303         31.000  
  22725822.850      125648.0773         27.000  
  23299616.337     1793119.5093         29.000  
  23232569.198     1036173.4982         32.000  
  22888446.280     -729364.137          44.000  
 13  7 18 12 13 58.0000000  0  7G25G14G29G 2G24G 4G31
  20122468.299      295055.466          44.000  
  22014459.925     1068074.104          33.000  
  21635205.617     -710552.1083         30.000  
  22725903.295      126059.0263         25.000  
  23300533.242     1797923.0063         28.000  
  23233063.563     1038771.0832         33.000  
  22888126.400     -731049.238          45.000  
 13  7 18 12 13 59.0000000  0  7G25G14G29G 2G24G 4G31
  20122620.290      295853.465          44.000  
  22014966.609     1070741.170          33.000  
  21634902.682     -712140.8483         30.000  
  22725983.025      126472.9253         25.000  
  23301447.232     1802728.6113         28.000  
  23233558.992     1041370.9622         33.000  
  22887806.154     -732732.419          45.000  
 13  7 18 12 14  0.0000000  0  7G25G14G29G 2G24G 4G31
  20122771.863      296651.297          44.000  
  22015474.917     1073408.309          33.000  
  21634600.706     -713729.9163         30.000  
  22726061.848      126886.3483         26.000  
  23302360.140     1807533.8133         29.000  
  23234053.252     1043970.8842         33.000  
  22887486.151     -734415.946          45.000  
 13  7 18 12 14  1.0000000  0  7G25G14G29G 2G24G 4G31
  20122923.226      297449.004          44.000  
  22015982.910     1076075.468          33.000  
  21634298.869     -715319.1303         30.000  
  22726139.379      127299.4763         27.000  
  23303274.531     1812338.3993         29.000  
  23234546.726     1046570.448          33.000  
  22887164.980     -736099.770          45.000  
 13  7 18 12 14  2.0000000  0  7G25G14G29G 2G24G 4G31
  20123075.409      298247.720          44.000  
  22016490.659     1078743.8633         33.000  
  21633996.178     -716907.4103         31.000  
  22726218.935      127714.0633         28.000  
  23304187.544     1817144.1733         29.000  
  23235041.545     1049171.756          33.000  
  22886844.734     -737782.767          45.000  
 13  7 18 12 14  3.0000000  0  7G25G14G29G 2G24G 4G31
  20123227.715      299048.222          44.000  
  22016998.425     1081414.1732         33.000  
  21633695.214     -718493.9623         30.000  
  22726298.019      128130.2893         27.000  
  23305101.988     1821951.1943         30.000  
  23235535.962     1051775.082          33.000  
  22886524.383     -739464.144          45.000  
 13  7 18 12 14  4.0000000  0  7G25G14G29G 2G24G 4G31
  20123380.003      299849.802          44.000  
  22017506.523     1084085.7612         32.000  
  21633393.814     -720079.2703         30.000  
  22726376.493      128547.9333         28.000  
  23306016.327     1826759.4563         30.000  
  23236030.780     1054379.705          33.000  
  22886204.398     -741144.638          45.000  
 13  7 18 12 14  5.0000000  0  7G25G14G29G 2G24G 4G31
  20123533.076      300651.737          43.000  
  22018014.953     1086757.9332         31.000  
  21633092.134     -721664.4153         30.000  
  22726457.549      128965.9993         28.000  
  23306937.140     1831567.5673         30.000  
  23236527.064     1056984.921          33.000  
  22885885.077     -742824.962          44.000  
 13  7 18 12 14  6.0000000  0  7G25G14G29G 2G24G 4G31
  20123685.539      301454.364          44.000  
  22018523.155     1089430.8863         31.000  
  21632790.943     -723248.8723         30.000  
  22726534.452      129384.7773         28.000  
  23307844.569     1836376.0423         30.000  
  23237022.651     1059591.062          33.000  
  22885565.720     -744504.739          44.000  
 13  7 18 12 14  7.0000000  0  7G25G14G29G 2G24G 4G31
  20123839.484      302260.012          44.000  
  22019031.533     1092107.0862         31.000  
  21632490.451     -724830.2633         29.000  
  22726613.990      129806.7743         27.000  
  23308758.594     1841187.6293         30.000  
  23237518.900     1062200.426          34.000  
  22885246.538     -746181.703          44.000  
 13  7 18 12 14  8.0000000  0  7G25G14G29G 2G24G 4G31
  20123993.587      303067.236          44.000  
  22019541.219     1094785.0642         31.000  
  21632190.080     -726410.1723         29.000  
  22726693.633      130230.6673         27.000  
  23309678.115     1846000.4983         30.000  
  23238014.783     1064811.652          34.000  
  22884927.321     -747857.259          44.000  
 13  7 18 12 14  9.0000000  0  7G25G14G29G 2G24G 4G31
  20124147.359      303874.811          44.000  
  22020050.207     1097463.6242         31.000  
  21631889.395     -727989.7553         29.000  
  22726776.347      130654.9703         28.000  
  23310594.688     1850813.4413         30.000  
  23238512.027     1067423.456          35.000  
  22884608.436     -749532.643          44.000  
 13  7 18 12 14 10.0000000  0  7G25G14G29G 2G24G 4G31
  20124302.125      304683.152          45.000  
  22020560.032     1100143.0093         31.000  
  21631587.088     -729569.0813         27.000  
  22726854.245      131080.0783         27.000  
  23311510.196     1855627.0393         31.000  
  23239008.485     1070036.255          36.000  
  22884289.533     -751207.453          44.000  
 13  7 18 12 14 11.0000000  0  7G25G14G29G 2G24G 4G31
  20124455.931      305493.944          44.000  
  22021069.893     1102825.0882         30.000  
  21631287.974     -731146.5373         27.000  
  22726934.900      131507.8453         26.000  
  23312426.542     1860442.8092         31.000  
  23239505.991     1072651.704          35.000  
  22883971.241     -752879.973          44.000  
 13  7 18 12 14 12.0000000  0  7G25G14G29G 2G24G 4G31
  20124610.836      306306.921          45.000  
  22021580.067     1105509.5523         29.000  
  21630989.941     -732720.6613         25.000  
  22727018.626      131938.0263         25.000  
  23313342.871     1865260.5543         31.000  
  23240003.689     1075269.573          35.000  
  22883653.770     -754550.500          44.000  
 13  7 18 12 14 13.0000000  0  7G25G14G29G 2G24G 4G31
  20124765.288      307120.083          45.000  
  22022090.346     1108194.4073         30.000  
  21630691.281     -734294.7213         26.000  
  22727101.078      132368.4733         25.000  
  23314259.182     1870078.1883         30.000  
  23240501.666     1077887.868          36.000  
  22883336.210     -756221.006          44.000  
 13  7 18 12 14 14.0000000  0  8G25G12G14G29G 2G24G 4G31
  20124919.618      307932.714          45.000  
  21099008.100     1434581.7133         23.000  
  22022600.608     1110878.9123         30.000  
  21630392.324     -735869.4323         25.000  
  22727181.681      132799.6293         22.000  
  23315175.423     1874895.1723         31.000  
  23240998.962     1080505.853          36.000  
  22883017.901     -757892.241          44.000  
 13  7 18 12 14 15.0000000  0  8G25G12G14G29G 2G24G 4G31
  20125074.297      308747.891          44.000  
  21099648.296     1437944.3423         21.000  
  22023111.097     1113566.1123         29.000  
  21630094.745     -737441.5133         26.000  
  22727263.766      133229.4213         24.000  
  23316092.327     1879714.4102         32.000  
  23241497.724     1083126.625          34.000  
  22882700.394     -759561.088          44.000  
 13  7 18 12 14 16.0000000  0  8G25G12G14G29G 2G24G 4G31
  20125230.005      309565.823          45.000  
  21100288.580     1441313.2743         23.000  
  22023622.458     1116256.2723         29.000  
  21629797.446     -739010.9823         26.000  
  22727346.480      133665.0253         24.000  
  23317010.296     1884536.1842         31.000  
  23241996.730     1085750.432          34.000  
  22882383.551     -761227.367          44.000  
 13  7 18 12 14 17.0000000  0  8G25G12G14G29G 2G24G 4G31
  20125386.376      310384.277          45.000  
  21100935.913     1444682.7153         25.000  
  22024133.959     1118947.0813         28.000  
  21629500.792     -740582.6553         23.000  
  22727431.079      134101.6613         26.000  
  23317928.090     1889358.4602         31.000  
  23242495.370     1088374.998          35.000  
  22882066.986     -762893.278          44.000  
 13  7 18 12 14 18.0000000  0  8G25G12G14G29G 2G24G 4G31
  20125541.928      311204.861          45.000  
  21101570.996     1448053.9423         27.000  
  22024646.734     1121640.2913         30.000  
  21629204.976     -742151.4203         25.000  
  22727514.561      134537.9543         27.000  
  23318845.744     1894182.4292         32.000  
  23242994.708     1091001.833          34.000  
  22881750.178     -764557.261          45.000  
 13  7 18 12 14 19.0000000  0  8G25G12G14G29G 2G24G 4G31
  20125699.625      312029.564          45.000  
  21102216.393     1451429.3623         28.000  
  22025159.962     1124337.7252         29.000  
  21628908.008     -743714.1563         25.000  
  22727598.444      134980.8883         28.000  
  23319764.324     1899010.5102         32.000  
  23243495.059     1093633.095          34.000  
  22881433.578     -766217.286          44.000  
 13  7 18 12 14 20.0000000  0  8G25G12G14G29G 2G24G 4G31
  20125857.183      312857.842          45.000  
  21102861.894     1454808.3053         28.000  
  22025673.784     1127038.9983         29.000  
  21628612.297     -745272.0073         23.000  
  22727680.425      135427.4903         27.000  
  23320683.235     1903841.8192         32.000  
  23243997.014     1096268.167          34.000  
  22881118.358     -767873.929          45.000  
 13  7 18 12 14 21.0000000  0  8G25G12G14G29G 2G24G 4G31
  20126015.369      313688.035          45.000  
  21103505.196     1458188.9823         28.000  
  22026188.164     1129742.3082         30.000  
  21628317.057     -746829.6063         22.000  
  22727767.764      135876.1143         27.000  
  23321602.722     1908674.9303         32.000  
  23244498.551     1098905.321          34.000  
  22880803.713     -769528.819          45.000  
 13  7 18 12 14 22.0000000  0  7G25G12G14G 2G24G 4G31
  20126174.027      314520.064          45.000  
  21104149.126     1461571.4003         28.000  
  22026703.015     1132447.6263         30.000  
  22727854.090      136326.5033         27.000  
  23322522.959     1913509.6793         32.000  
  23245000.314     1101544.580          33.000  
  22880489.050     -771182.059          45.000  
 13  7 18 12 14 23.0000000  0  7G25G12G14G 2G24G 4G31
  20126332.771      315353.855          45.000  
  21104793.004     1464955.4033         28.000  
  22027217.482     1135154.9503         29.000  
  22727941.987      136778.9273         26.000  
  23323442.463     1918345.8552         33.000  
  23245502.863     1104185.804          33.000  
  22880174.929     -772833.723          45.000  
 13  7 18 12 14 24.0000000  0  7G25G12G14G 2G24G 4G31
  20126491.534      316188.868          45.000  
  21105436.464     1468340.6643         29.000  
  22027733.101     1137863.5293         30.000  
  22728027.807      137232.8113         26.000  
  23324363.329     1923183.0812         33.000  
  23246004.749     1106828.506          33.000  
  22879860.389     -774484.323          45.000  
 13  7 18 12 14 25.0000000  0  7G25G12G14G 2G24G 4G31
  20126651.168      317026.122          45.000  
  21106079.033     1471727.9153         29.000  
  22028248.982     1140574.7243         30.000  
  22728114.220      137688.9633         26.000  
  23325284.002     1928022.3832         33.000  
  23246508.414     1109473.654          33.000  
  22879547.018     -776132.847          45.000  
 13  7 18 12 14 26.0000000  0  7G25G12G14G 2G24G 4G31
  20126810.297      317862.988          45.000  
  21106724.691     1475114.7113         29.000  
  22028764.793     1143285.5873         30.000  
  22728200.494      138144.9333         27.000  
  23326204.187     1932861.1282         33.000  
  23247011.836     1112118.668          33.000  
  22879232.949     -777781.976          45.000  
 13  7 18 12 14 27.0000000  0  7G25G12G14G 2G24G 4G31
  20126969.129      318698.190          45.000  
  21107365.969     1478499.7083         29.000  
  22029280.080     1145995.1032         29.000  
  22728287.414      138599.3293         28.000  
  23327124.163     1937697.9713         33.000  
  23247515.205     1114762.203          33.000  
  22878918.862     -779432.930          45.000  
 13  7 18 12 14 28.0000000  0  7G25G12G14G 2G24G 4G31
  20127129.042      319536.037          45.000  
  21108008.888     1481886.9863         29.000  
  22029795.996     1148707.4313         29.000  
  22728374.909      139056.2673         28.000  
  23328044.243     1942537.1713         33.000  
  23248018.487     1117408.612          34.000  
  22878605.805     -781081.414          45.000  
 13  7 18 12 14 29.0000000  0  7G25G12G14G 2G24G 4G31
  20127288.886      320376.562          45.000  
  21108656.954     1485277.1753         29.000  
  22030313.133     1151422.4623         29.000  
  22728463.364      139516.3533         27.000  
  23328965.702     1947378.9322         33.000  
  23248522.152     1120057.922          34.000  
  22878291.998     -782727.391          45.000  
 13  7 18 12 14 30.0000000  0  7G25G12G14G 2G24G 4G31
  20127448.538      321218.594          45.000  
  21109298.214     1488668.6623         29.000  
  22030830.340     1154139.3213         30.000  
  22728550.877      139977.9183         28.000  
  23329887.282     1952222.0113         33.000  
  23249026.690     1122709.021          34.000  
  22877978.191     -784372.034          45.000  
 13  7 18 12 14 31.0000000  0  7G25G12G14G 2G24G 4G31
  20127609.639      322062.016          45.000  
  21109945.460     1492061.2343         29.000  
  22031346.814     1156857.7383         30.000  
  22728640.117      140441.0453         29.000  
  23330809.387     1957066.2082         34.000  
  23249531.228     1125361.735          34.000  
  22877666.233     -786015.454          45.000  
 13  7 18 12 14 32.0000000  0  7G25G12G14G 2G24G 4G31
  20127771.001      322908.673          45.000  
  21110590.892     1495456.9213         30.000  
  22031864.301     1159579.4293         29.000  
  22728728.869      140907.5373         30.000  
  23331731.561     1961913.4692         33.000  
  23250036.726     1128017.878          34.000  
  22877354.084     -787655.846          45.000  
 13  7 18 12 14 33.0000000  0  7G25G12G14G 2G24G 4G31
  20127932.887      323757.403          45.000  
  21111232.152     1498854.8043         30.000  
  22032382.031     1162303.5203         29.000  
  22728819.192      141376.1523         30.000  
  23332654.067     1966762.6092         33.000  
  23250542.940     1130676.361          34.000  
  22877042.091     -789294.296          45.000  
 13  7 18 12 14 34.0000000  0  7G25G12G14G 2G24G 4G31
  20128094.249      324607.203          45.000  
  21111881.562     1502253.4302         31.000  
  22032900.407     1165028.8233         29.000  
  22728906.600      141846.1523         29.000  
  23333577.340     1971612.5913         33.000  
  23251049.450     1133336.143          35.000  
  22876730.361     -790931.889          45.000  
 13  7 18 12 14 35.0000000  0  7G25G12G14G 2G24G 4G31
  20128256.414      325458.301          45.000  
  21112540.953     1505653.3272         32.000  
  22033419.604     1167755.5453         30.000  
  22728995.474      142317.5432         30.000  
  23334500.038     1976463.6762         32.000  
  23251556.693     1135997.377          35.000  
  22876419.066     -792568.329          45.000  
 13  7 18 12 14 36.0000000  0  7G25G12G14G 2G24G 4G31
  20128418.875      326312.169          45.000  
  21113181.254     1509055.8502         31.000  
  22033939.760     1170485.2413         30.000  
  22729091.240      142791.7363         31.000  
  23335423.521     1981317.2702         32.000  
  23252064.337     1138661.663          35.000  
  22876108.557     -794202.188          45.000  
 13  7 18 12 14 37.0000000  0  7G25G12G14G 2G24G 4G31
  20128582.209      327168.705          45.000  
  21113826.912     1512460.9532         31.000  
  22034460.195     1173217.8793         30.000  
  22729181.196      143268.9373         31.000  
  23336347.179     1986173.4142         32.000  
  23252572.260     1141328.893          36.000  
  22875798.362     -795833.568          45.000  
 13  7 18 12 14 38.0000000  0  7G25G12G14G 2G24G 4G31
  20128745.369      328025.651          45.000  
  21114478.887     1515866.3152         32.000  
  22034981.049     1175951.1053         31.000  
  22729269.372      143746.5402         31.000  
  23337270.557     1991029.7033         32.000  
  23253080.481     1143996.700          36.000  
  22875487.539     -797464.708          45.000  
 13  7 18 12 14 39.0000000  0  7G25G12G14G 2G24G 4G31
  20128908.301      328883.162          45.000  
  21115127.495     1519272.1752         32.000  
  22035501.275     1178685.0332         30.000  
  22729361.858      144224.9273         30.000  
  23338194.302     1995886.3362         33.000  
  23253588.980     1146665.301          36.000  
  22875176.715     -799095.474          45.000  
 13  7 18 12 14 40.0000000  0  7G25G12G14G 2G24G 4G31
  20129071.775      329743.596          45.000  
  21115775.910     1522680.7752         33.000  
  22036021.990     1181422.0323         30.000  
  22729453.769      144706.2923         28.000  
  23339118.640     2000745.6472         33.000  
  23254097.532     1149337.072          36.000  
  22874867.009     -800723.462          45.000  
 13  7 18 12 14 41.0000000  0  7G25G12G14G 2G24G 4G31
  20129236.034      330606.213          45.000  
  21116423.627     1526091.3652         32.000  
  22036543.350     1184161.4713         30.000  
  22729545.888      145189.9533         28.000  
  23340043.030     2005607.0212         32.000  
  23254606.188     1152011.232          37.000  
  22874557.582     -802349.456          44.000  
 13  7 18 12 14 42.0000000  0  7G25G12G14G 2G24G 4G31
  20129400.502      331469.936          45.000  
  21117072.321     1529503.1282         32.000  
  22037064.797     1186902.1833         31.000  
  22729638.043      145674.9733         30.000  
  23340968.136     2010469.2472         33.000  
  23255115.350     1154686.750          37.000  
  22874248.399     -803974.506          44.000  
 13  7 18 12 14 43.0000000  0  7G25G12G14G 2G24G 4G31
  20129565.128      332333.830          45.000  
  21117721.626     1532914.300          32.000  
  22037587.117     1189643.2302         31.000  
  22729730.180      146160.2953         30.000  
  23341893.364     2015331.3322         33.000  
  23255624.426     1157362.642          37.000  
  22873938.902     -805599.570          44.000  
 13  7 18 12 14 44.0000000  0  7G25G12G14G 2G24G 4G31
  20129729.544      333200.095          45.000  
  21118370.844     1536328.269          33.000  
  22038109.768     1192386.7813         31.000  
  22729823.260      146648.1103         30.000  
  23342819.307     2020195.7072         32.000  
  23256133.832     1160041.160          37.000  
  22873629.789     -807222.454          44.000  
 13  7 18 12 14 45.0000000  0  8G25G12G14G29G 2G24G 4G31
  20129894.850      334069.405          45.000  
  21119020.813     1539745.170          33.000  
  22038632.717     1195133.6092         31.000  
  21621275.266     -783788.8203         23.000  
  22729917.508      147139.0843         30.000  
  23343745.914     2025062.8353         32.000  
  23256644.496     1162722.942          37.000  
  22873321.391     -808842.450          44.000  
 13  7 18 12 14 46.0000000  0  8G25G12G14G29G 2G24G 4G31
  20130060.871      334939.705          45.000  
  21119671.409     1543162.898          33.000  
  22039156.153     1197881.6652         31.000  
  21620985.697     -785307.2153         25.000  
  22730011.408      147631.1782         30.000  
  23344672.625     2029930.8282         32.000  
  23257154.932     1165405.945          37.000  
  22873013.482     -810461.652          44.000  
 13  7 18 12 14 47.0000000  0  8G25G12G14G29G 2G24G 4G31
  20130226.840      335810.553          45.000  
  21120321.622     1546581.5843         33.000  
  22039680.096     1200630.3562         32.000  
  21620696.442     -786824.2263         26.000  
  22730105.691      148123.9523         30.000  
  23345599.040     2034799.0003         31.000  
  23257666.049     1168089.743          38.000  
  22872705.416     -812080.454          44.000  
 13  7 18 12 14 48.0000000  0  8G25G12G14G29G 2G24G 4G31
  20130392.582      336682.884          46.000  
  21120972.428     1550001.0883         33.000  
  22040203.795     1203380.7603         32.000  
  21620408.443     -788340.0633         26.000  
  22730200.010      148618.4843         29.000  
  23346525.699     2039668.5653         31.000  
  23258177.567     1170775.191          38.000  
  22872397.733     -813697.960          44.000  
 13  7 18 12 14 49.0000000  0  8G25G12G14G29G 2G24G 4G31
  20130558.778      337558.021          46.000  
  21121623.914     1553423.3402         34.000  
  22040728.296     1206134.1583         32.000  
  21620118.142     -789853.0423         27.000  
  22730295.585      149115.7893         30.000  
  23347452.637     2044540.7653         32.000  
  23258689.644     1173463.723          38.000  
  22872090.871     -815312.833          45.000  
 13  7 18 12 14 50.0000000  0  8G25G12G14G29G 2G24G 4G31
  20130725.881      338435.032          46.000  
  21122275.278     1556847.3242         34.000  
  22041252.239     1208889.5682         32.000  
  21619831.016     -791363.8393         27.000  
  22730391.212      149615.1383         30.000  
  23348380.796     2049414.6042         31.000  
  23259201.668     1176154.358          38.000  
  22871783.102     -816926.006          45.000  
 13  7 18 12 14 51.0000000  0  8G25G12G14G29G 2G24G 4G31
  20130892.932      339312.258          46.000  
  21122926.555     1560271.3922         33.000  
  22041776.792     1211645.4342         32.000  
  21619544.309     -792874.7813         27.000  
  22730487.520      150114.8973         30.000  
  23349308.014     2054288.4462         31.000  
  23259712.890     1178845.419          37.000  
  22871476.624     -818539.138          45.000  
 13  7 18 12 14 52.0000000  0  8G25G12G14G29G 2G24G 4G31
  20131060.210      340190.398          46.000  
  21123577.885     1563696.3092         33.000  
  22042301.503     1214402.3692         32.000  
  21619252.559     -794384.7883         27.000  
  22730583.461      150615.6343         29.000  
  23350236.103     2059162.9133         31.000  
  23260224.251     1181537.639          37.000  
  22871170.163     -820151.534          45.000  
 13  7 18 12 14 53.0000000  0  8G25G12G14G29G 2G24G 4G31
  20131228.168      341071.544          46.000  
  21124229.877     1567124.0592         33.000  
  22042826.527     1217162.4752         31.000  
  21618964.874     -795891.8803         27.000  
  22730680.379      151119.4893         28.000  
  23351164.525     2064040.2352         31.000  
  23260737.287     1184233.096          37.000  
  22870864.034     -821761.098          45.000  
 13  7 18 12 14 54.0000000  0  8G25G12G14G29G 2G24G 4G31
  20131396.545      341954.387          46.000  
  21124883.143     1570553.3422         34.000  
  22043352.180     1219924.4743         32.000  
  21618678.551     -797396.9893         27.000  
  22730777.734      151625.3983         28.000  
  23352092.842     2068918.9993         30.000  
  23261251.213     1186930.471          38.000  
  22870557.556     -823369.143          45.000  
 13  7 18 12 14 55.0000000  0  8G25G12G14G29G 2G24G 4G31
  20131564.696      342837.770          46.000  
  21125535.206     1573982.573          34.000  
  22043878.950     1222687.1432         32.000  
  21618396.032     -798901.6593         28.000  
  22730874.007      152131.8053         29.000  
  23353021.769     2073798.0923         30.000  
  23261765.279     1189628.606          38.000  
  22870251.444     -824976.815          44.000  
 13  7 18 12 14 56.0000000  0  8G25G12G14G29G 2G24G 4G31
  20131732.933      343721.332          46.000  
  21126187.652     1577412.415          34.000  
  22044405.179     1225450.2092         33.000  
  21618109.238     -800406.3363         28.000  
  22730970.629      152638.5733         28.000  
  23353949.894     2078677.1433         30.000  
  23262278.490     1192327.143          38.000  
  22869945.943     -826584.502          44.000  
 13  7 18 12 14 57.0000000  0  8G25G12G14G29G 2G24G 4G31
  20131901.572      344607.181          46.000  
  21126840.238     1580844.361          33.000  
  22044931.338     1228215.8182         33.000  
  21617825.183     -801908.8123         28.000  
  22731068.350      153148.2193         27.000  
  23354878.978     2083558.3072         30.000  
  23262792.033     1195028.255          38.000  
  22869640.041     -828190.057          44.000  
 13  7 18 12 14 58.0000000  0  8G25G12G14G29G 2G24G 4G31
  20132070.752      345495.989          46.000  
  21127493.138     1584279.188          33.000  
  22045458.544     1230984.4472         32.000  
  21617538.738     -803408.2173         28.000  
  22731166.630      153660.2963         27.000  
  23355808.359     2088442.2553         30.000  
  23263306.203     1197732.473          38.000  
  22869335.273     -829792.829          44.000  
 13  7 18 12 14 59.0000000  0  8G25G12G14G29G 2G24G 4G31
  20132240.072      346385.915          46.000  
  21128146.910     1587714.967          33.000  
  22045985.785     1233754.3952         33.000  
  21617252.449     -804906.4473         29.000  
  22731263.374      154173.7893         28.000  
  23356738.142     2093327.0773         30.000  
  23263821.596     1200438.066          38.000  
  22869030.313     -831394.660          44.000  
 13  7 18 12 15  0.0000000  0  8G25G12G14G29G 2G24G 4G31
  20132409.723      347277.043          46.000  
  21128801.520     1591151.846          33.000  
  22046514.247     1236525.8072         34.000  
  21616967.662     -806403.6403         29.000  
  22731362.404      154688.5613         28.000  
  23357668.256     2098212.9023         29.000  
  23264336.639     1203145.081          39.000  
  22868726.504     -832995.471          45.000  
 13  7 18 12 15  1.0000000  0  8G25G12G14G29G 2G24G 4G31
  20132579.723      348169.954          46.000  
  21129456.305     1594590.399          33.000  
  22047042.221     1239299.137          33.000  
  21616684.515     -807898.9643         29.000  
  22731463.336      155205.3713         28.000  
  23358598.265     2103100.2023         29.000  
  23264852.397     1205854.110          39.000  
  22868422.050     -834594.668          45.000  
 13  7 18 12 15  2.0000000  0  8G25G12G14G29G 2G24G 4G31
  20132749.740      349063.720          46.000  
  21130110.775     1598029.687          33.000  
  22047570.456     1242073.470          34.000  
  21616401.856     -809393.4513         30.000  
  22731561.563      155723.2983         28.000  
  23359529.531     2107988.2653         30.000  
  23265368.174     1208564.239          38.000  
  22868117.753     -836193.182          45.000  
 13  7 18 12 15  3.0000000  0  8G25G12G14G29G 2G24G 4G31
  20132920.787      349959.171          46.000  
  21130765.769     1601470.557          34.000  
  22048099.390     1244849.729          33.000  
  21616115.969     -810886.2892         30.000  
  22731664.380      156242.8773         27.000  
  23360460.954     2112877.8243         29.000  
  23265884.665     1211276.291          38.000  
  22867813.299     -837790.167          45.000  
 13  7 18 12 15  4.0000000  0  8G25G12G14G29G 2G24G 4G31
  20133090.892      350854.514          46.000  
  21131420.344     1604911.162          34.000  
  22048627.050     1247625.974          33.000  
  21615833.817     -812379.3683         31.000  
  22731762.712      156762.5553         27.000  
  23361391.644     2117767.0213         29.000  
  23266400.179     1213988.395          38.000  
  22867509.770     -839387.471          45.000  
 13  7 18 12 15  5.0000000  0  8G25G12G14G29G 2G24G 4G31
  20133260.700      351748.650          46.000  
  21132074.797     1608350.389          35.000  
  22049154.570     1250401.2353         33.000  
  21615549.204     -813873.5392         31.000  
  22731860.660      157281.1693         26.000  
  23362321.828     2122654.7043         28.000  
  23266915.153     1216699.571          38.000  
  22867205.456     -840986.142          45.000  
 13  7 18 12 15  6.0000000  0  8G25G12G14G29G 2G24G 4G31
  20133431.293      352644.818          46.000  
  21132729.145     1611791.646          34.000  
  22049682.735     1253178.7092         33.000  
  21615262.462     -815365.7463         30.000  
  22731959.585      157801.7413         26.000  
  23363255.100     2127544.4123         28.000  
  23267430.597     1219413.019          38.000  
  22866901.944     -842582.919          45.000  
 13  7 18 12 15  7.0000000  0  8G25G12G14G29G 2G24G 4G31
  20133601.834      353544.144          46.000  
  21133384.680     1615235.873          35.000  
  22050212.402     1255959.5212         33.000  
  21614981.164     -816854.8552         30.000  
  22732060.203      158325.8243         26.000  
  23364184.621     2132436.8993         28.000  
  23267947.124     1222129.833          38.000  
  22866599.340     -844176.746          45.000  
 13  7 18 12 15  8.0000000  0  8G25G12G14G29G 2G24G 4G31
  20133773.300      354445.036          46.000  
  21134039.744     1618681.538          35.000  
  22050741.841     1258742.1122         33.000  
  21614700.320     -818342.3692         31.000  
  22732160.263      158850.8903         25.000  
  23365116.201     2137330.8393         29.000  
  23268463.877     1224848.470          38.000  
  22866296.178     -845769.195          45.000  
 13  7 18 12 15  9.0000000  0  8G25G12G14G29G 2G24G 4G31
  20133945.429      355347.276          46.000  
  21134696.064     1622128.383          35.000  
  22051271.525     1261526.1252         33.000  
  21614419.825     -819828.5343         31.000  
  22732262.137      159379.2793         25.000  
  23366047.501     2142225.8043         28.000  
  23268981.259     1227568.616          37.000  
  22865992.945     -847360.445          45.000  
 13  7 18 12 15 10.0000000  0  7G25G12G14G29G 2G 4G31
  20134118.291      356252.053          46.000  
  21135352.454     1625577.704          34.000  
  22051801.611     1264312.9662         33.000  
  21614137.620     -821312.2423         32.000  
  22732364.849      159909.7473         24.000  
  23269499.757     1230291.555          37.000  
  22865691.144     -848949.323          45.000  
 13  7 18 12 15 11.0000000  0  7G25G12G14G29G 2G 4G31
  20134290.996      357159.996          46.000  
  21136009.420     1629030.152          34.000  
  22052331.818     1267103.1492         32.000  
  21613855.730     -822792.7612         32.000  
  22732465.659      160443.2093         23.000  
  23270017.714     1233017.927          37.000  
  22865389.796     -850535.210          45.000  
 13  7 18 12 15 12.0000000  0  6G25G12G14G29G 4G31
  20134463.857      358069.198          46.000  
  21136666.246     1632483.590          34.000  
  22052862.723     1269894.7142         32.000  
  21613574.240     -824272.1092         32.000  
  23270536.666     1235745.720          37.000  
  22865088.012     -852120.037          45.000  
 13  7 18 12 15 13.0000000  0  7G25G12G14G29G 2G 4G31
  20134636.527      358979.246          46.000  
  21137323.194     1635937.829          33.000  
  22053394.292     1272687.341          32.000  
  21613292.140     -825750.5933         30.000  
  22732670.106      161515.9413         23.000  
  23271055.950     1238474.659          37.000  
  22864786.699     -853704.179          45.000  
 13  7 18 12 15 14.0000000  0  7G25G12G14G29G 2G 4G31
  20134810.017      359889.875          46.000  
  21137980.666     1639392.517          33.000  
  22053925.250     1275480.739          33.000  
  21613010.912     -827228.5322         31.000  
  22732770.950      162049.3043         23.000  
  23271576.385     1241204.362          38.000  
  22864484.636     -855287.895          45.000  
 13  7 18 12 15 15.0000000  0  6G25G12G14G29G 4G31
  20134983.595      360801.413          46.000  
  21138638.051     1642847.948          33.000  
  22054457.935     1278275.166          33.000  
  21612729.789     -828705.5552         32.000  
  23272096.890     1243935.208          38.000  
  22864183.759     -856870.877          45.000  
 13  7 18 12 15 16.0000000  0  6G25G12G14G29G 4G31
  20135157.451      361712.994          46.000  
  21139295.732     1646303.377          34.000  
  22054990.132     1281069.856          32.000  
  21612448.474     -830182.5162         32.000  
  23272616.610     1246666.304          38.000  
  22863882.376     -858453.999          45.000  
 13  7 18 12 15 17.0000000  0  6G25G12G14G29G 4G31
  20135330.976      362626.163          46.000  
  21139953.570     1649760.212          34.000  
  22055522.015     1283866.316          32.000  
  21612167.770     -831657.9532         32.000  
  23273137.185     1249399.232          37.000  
  22863581.604     -860035.705          45.000  
 13  7 18 12 15 18.0000000  0  6G25G12G14G29G 4G31
  20135504.623      363537.654          46.000  
  21140610.920     1653215.220          33.000  
  22056053.304     1286661.238          32.000  
  21611886.368     -833135.1563         31.000  
  23273656.643     1252130.696          37.000  
  22863279.960     -861619.272          45.000  
 13  7 18 12 15 19.0000000  0  6G25G12G14G29G 4G31
  20135677.956      364448.763          46.000  
  21141268.374     1656670.2813         32.000  
  22056584.977     1289455.9753         32.000  
  21611604.529     -834612.6713         31.000  
  23274176.974     1254862.031          37.000  
  22862978.612     -863203.377          45.000  
 13  7 18 12 15 20.0000000  0  6G25G12G14G29G 4G31
  20135852.057      365360.847          46.000  
  21141925.916     1660125.6782         31.000  
  22057116.895     1292251.8842         32.000  
  21611323.354     -836089.2422         30.000  
  23274696.345     1257594.544          36.000  
  22862677.212     -864786.717          45.000  
 13  7 18 12 15 21.0000000  0  6G25G12G14G29G 4G31
  20136025.582      366271.825          46.000  
  21142583.231     1663579.8432         31.000  
  22057648.306     1295046.8232         32.000  
  21611041.690     -837566.9453         29.000  
  23275215.593     1260326.210          36.000  
  22862375.899     -866371.297          45.000  
 13  7 18 12 15 22.0000000  0  6G25G12G14G29G 4G31
  20136198.409      367181.083          46.000  
  21143239.324     1667032.1623         31.000  
  22058179.299     1297840.2552         31.000  
  21610759.869     -839046.4403         30.000  
  23275735.121     1263056.349          35.000  
  22862073.975     -867957.799          45.000  
 13  7 18 12 15 23.0000000  0  6G25G12G14G29G 4G31
  20136371.445      368090.219          46.000  
  21143895.592     1670484.2592         31.000  
  22058709.803     1300633.7923         31.000  
  21610477.908     -840526.0492         31.000  
  23276255.364     1265786.581          35.000  
  22861771.982     -869544.566          45.000  
 13  7 18 12 15 24.0000000  0  6G25G12G14G29G 4G31
  20136544.761      369000.643          46.000  
  21144553.046     1673937.5222         32.000  
  22059241.075     1303428.6752         31.000  
  21610196.681     -842004.3992         32.000  
  23276774.962     1268518.374          35.000  
  22861470.355     -871130.236          45.000  
 13  7 18 12 15 25.0000000  0  7G25G12G14G29G 2G 4G31
  20136718.216      369912.041          46.000  
  21145210.414     1677391.5783         32.000  
  22059772.696     1306224.7362         32.000  
  21609915.558     -843481.7792         32.000  
  22733878.655      167964.4543         23.000  
  23277294.944     1271251.346          34.000  
  22861168.518     -872715.105          45.000  
 13  7 18 12 15 26.0000000  0  7G25G12G14G29G 2G 4G31
  20136891.200      370821.896          46.000  
  21145867.519     1680844.0473         32.000  
  22060304.526     1309019.5122         32.000  
  21609633.981     -844960.7313         30.000  
  22733977.807      168500.2813         23.000  
  23277813.390     1273983.5423         33.000  
  22860866.926     -874301.699          45.000  
 13  7 18 12 15 27.0000000  0  6G25G12G14G29G 4G31
  20137063.765      371730.755          46.000  
  21146523.961     1684295.3303         31.000  
  22060836.583     1311813.4253         31.000  
  21609352.771     -846440.6843         30.000  
  23278331.173     1276714.4662         32.000  
  22860564.758     -875889.431          45.000  
 13  7 18 12 15 28.0000000  0  6G25G12G14G29G 4G31
  20137237.674      372641.294          46.000  
  21147181.224     1687748.1963         32.000  
  22061368.326     1314609.2163         31.000  
  21609071.630     -847918.9983         31.000  
  23278850.491     1279447.2232         32.000  
  22860263.149     -877475.675          45.000  
 13  7 18 12 15 29.0000000  0  7G25G12G14G29G 2G 4G31
  20137411.793      373554.750          46.000  
  21147838.538     1691203.8612         32.000  
  22061901.465     1317408.0782         31.000  
  21608790.856     -849394.2493         31.000  
  22734279.906      170114.8443         23.000  
  23279370.403     1282183.1202         32.000  
  22859961.679     -879059.179          45.000  
 13  7 18 12 15 30.0000000  0  7G25G12G14G29G 2G 4G31
  20137585.091      374467.037          46.000  
  21148495.993     1694658.2093         30.000  
  22062433.906     1320205.9782         33.000  
  21608510.379     -850870.8733         31.000  
  22734383.612      170655.9363         23.000  
  23279890.541     1284918.2042         32.000  
  22859659.389     -880644.005          45.000  
 13  7 18 12 15 31.0000000  0  7G25G12G14G29G 2G 4G31
  20137758.668      375376.899          47.000  
  21149152.575     1698110.0353         29.000  
  22062966.347     1323001.5892         33.000  
  21608229.116     -852349.8603         30.000  
  22734489.169      171194.3463         25.000  
  23280410.157     1287651.0112         33.000  
  22859357.622     -882231.450          45.000  
 13  7 18 12 15 32.0000000  0  7G25G12G14G29G 2G 4G31
  20137931.809      376286.458          47.000  
  21149809.000     1701561.4633         30.000  
  22063498.718     1325797.1192         33.000  
  21607947.697     -853829.3623         30.000  
  22734591.043      171731.9733         27.000  
  23280929.039     1290383.7192         33.000  
  22859055.628     -883819.349          45.000  
 13  7 18 12 15 33.0000000  0  7G25G12G14G29G 2G 4G31
  20138105.090      377198.119          46.000  
  21150466.838     1705014.8183         29.000  
  22064030.147     1328594.9082         32.000  
  21607666.835     -855306.6443         29.000  
  22734693.668      172271.7413         26.000  
  23281448.968     1293118.7142         33.000  
  22858753.461     -885405.341          45.000  
 13  7 18 12 15 34.0000000  0  7G25G12G14G29G 2G 4G31
  20138279.138      378110.403          47.000  
  21151123.751     1708468.5923         29.000  
  22064562.990     1331393.4982         33.000  
  21607385.573     -856783.2673         29.000  
  22734795.752      172812.6883         26.000  
  23281968.583     1295854.6943         31.000  
  22858450.996     -886990.864          45.000  
 13  7 18 12 15 35.0000000  0  7G25G12G14G29G 2G 4G31
  20138453.065      379021.976          46.000  
  21151780.612     1711921.6383         29.000  
  22065096.094     1334191.5852         33.000  
  21607104.275     -858260.6803         29.000  
  22734899.039      173352.9103         27.000  
  23282488.111     1298590.1533         30.000  
  22858149.805     -888577.258          45.000  
 13  7 18 12 15 36.0000000  0  7G25G12G14G29G 2G 4G31
  20138625.700      379934.079          46.000  
  21152437.613     1715374.9013         29.000  
  22065628.640     1336990.3632         33.000  
  21606823.414     -859737.5293         28.000  
  22735002.746      173893.6553         28.000  
  23283007.464     1301326.2833         30.000  
  22857848.143     -890163.329          45.000  
 13  7 18 12 15 37.0000000  0  7G25G12G14G29G 2G 4G31
  20138799.347      380848.267          46.000  
  21153094.823     1718829.7923         27.000  
  22066161.657     1339791.374          34.000  
  21606542.221     -861212.9083         27.000  
  22735105.126      174436.8393         28.000  
  23283528.702     1304064.7262         31.000  
  22857546.743     -891747.476          45.000  
 13  7 18 12 15 38.0000000  0  7G25G12G14G29G 2G 4G31
  20138973.657      381764.682          46.000  
  21153753.185     1722287.1813         28.000  
  22066695.459     1342594.787          34.000  
  21606266.159     -862685.3313         27.000  
  22735209.444      174982.3603         28.000  
  23284049.225     1306805.6923         29.000  
  22857245.744     -893329.567          45.000  
 13  7 18 12 15 39.0000000  0  7G25G12G14G29G 2G 4G31
  20139148.281      382681.979          46.000  
  21154414.531     1725745.6183         26.000  
  22067229.732     1345399.266          34.000  
  21605984.338     -864156.9073         28.000  
  22735315.960      175529.0543         28.000  
  23284569.433     1309547.8103         27.000  
  22856945.199     -894910.940          45.000  
 13  7 18 12 15 40.0000000  0  7G25G12G14G29G 2G 4G31
  20139322.801      383598.558          46.000  
  21155072.718     1729202.4303         25.000  
  22067763.779     1348203.247          34.000  
  21605703.267     -865629.3963         27.000  
  22735421.237      176074.9003         28.000  
  23285087.740     1312291.6513         26.000  
  22856643.939     -896493.206          45.000  
 13  7 18 12 15 41.0000000  0  7G25G12G14G29G 2G 4G31
  20139497.966      384516.891          46.000  
  21155732.110     1732663.1873         23.000  
  22068297.930     1351009.0993         34.000  
  21605425.966     -867100.2243         28.000  
  22735525.642      176622.7253         29.000  
  23285606.779     1315035.1223         26.000  
  22856342.521     -898073.870          45.000  
 13  7 18 12 15 42.0000000  0  7G25G12G14G29G 2G 4G31
  20139672.782      385437.740          46.000  
  21156392.618     1736123.7873         25.000  
  22068833.582     1353817.7072         34.000  
  21605146.692     -868568.3993         28.000  
  22735633.048      177173.2403         29.000  
  23286129.797     1317781.4103         26.000  
  22856042.430     -899652.202          45.000  
 13  7 18 12 15 43.0000000  0  7G25G12G14G29G 2G 4G31
  20139848.035      386358.292          46.000  
  21157055.045     1739584.7613         25.000  
  22069368.884     1356626.1302         35.000  
  21604869.583     -870036.8343         29.000  
  22735739.006      177723.4383         28.000  
  23286653.635     1320527.6393         27.000  
  22855742.164     -901231.010          45.000  
 13  7 18 12 15 44.0000000  0  7G25G12G14G29G 2G 4G31
  20140023.375      387277.699          46.000  
  21157711.296     1743043.4883         24.000  
  22069903.542     1359433.6322         34.000  
  21604588.861     -871506.6253         28.000  
  22735838.838      178272.9543         28.000  
  23287177.683     1323273.0033         26.000  
  22855441.723     -902811.130          45.000  
 13  7 18 12 15 45.0000000  0  7G25G12G14G29G 2G 4G31
  20140198.156      388198.796          46.000  
  21158369.675     1746505.8363         25.000  
  22070437.780     1362242.9602         34.000  
  21604310.129     -872974.7223         28.000  
  22735941.638      178823.1663         27.000  
  23287700.666     1326020.0963         27.000  
  22855141.440     -904389.724          45.000  
 13  7 18 12 15 46.0000000  0  7G25G12G14G29G 2G 4G31
  20140374.421      389122.353          47.000  
  21159030.585     1749969.4613         25.000  
  22070972.647     1365054.9672         34.000  
  21604032.426     -874440.3453         26.000  
  22736050.893      179376.9073         27.000  
  23288224.521     1328769.8753         27.000  
  22854841.122     -905966.033          45.000  
 13  7 18 12 15 47.0000000  0  7G25G12G14G29G 2G 4G31
  20140550.267      390046.630          47.000  
  21159693.501     1753433.7813         25.000  
  22071507.286     1367867.8692         34.000  
  21603753.868     -875905.2413         26.000  
  22736151.093      179931.6273         27.000  
  23288755.653     1331520.8543         29.000  
  22854541.536     -907541.789          45.000  
 13  7 18 12 15 48.0000000  0  7G25G12G14G29G 2G 4G31
  20140725.798      390971.120          46.000  
  21160355.841     1756898.2383         24.000  
  22072042.991     1370681.1432         34.000  
  21603474.578     -877369.8443         25.000  
  22736260.558      180486.6353         26.000  
  23289284.151     1334272.2623         30.000  
  22854241.445     -909117.496          45.000  
 13  7 18 12 15 49.0000000  0  7G25G12G14G29G 2G 4G31
  20140901.976      391897.028          46.000  
  21161012.720     1760364.7513         25.000  
  22072579.218     1373496.012          35.000  
  21603194.641     -878833.2773         25.000  
  22736364.561      181043.1733         28.000  
  23289801.619     1337025.1133         30.000  
  22853941.511     -910691.977          45.000  
 13  7 18 12 15 50.0000000  0  7G25G12G14G29G 2G 4G31
  20141078.188      392824.824          46.000  
  21161671.029     1763832.0513         24.000  
  22073116.231     1376312.924          35.000  
  21602916.834     -880294.7653         25.000  
  22736468.704      181601.7173         28.000  
  23290331.286     1339780.0843         31.000  
  22853642.414     -912264.708          45.000  
 13  7 18 12 15 51.0000000  0  7G25G12G14G29G 2G 4G31
  20141255.308      393753.250          46.000  
  21162332.445     1767300.0133         25.000  
  22073652.651     1379130.725          34.000  
  21602637.229     -881755.5153         25.000  
  22736573.562      182161.1463         28.000  
  23290855.141     1342535.9602         32.000  
  22853343.143     -913836.999          45.000  
 13  7 18 12 15 52.0000000  0  7G25G12G14G29G 2G 4G31
  20141431.677      394681.231          46.000  
  21162992.988     1770767.3373         26.000  
  22074188.792     1381948.230          34.000  
  21602359.561     -883216.8283         26.000  
  22736681.248      182720.2173         29.000  
  23291380.027     1345291.5812         32.000  
  22853043.592     -915409.904          45.000  
 13  7 18 12 15 53.0000000  0  7G25G12G14G29G 2G 4G31
  20141607.715      395609.072          46.000  
  21163653.828     1774234.3113         26.000  
  22074725.142     1384765.733          35.000  
  21602082.661     -884677.8743         23.000  
  22736784.553      183279.2303         28.000  
  23291903.044     1348047.3812         33.000  
  22852744.251     -916983.124          45.000  
 13  7 18 12 15 54.0000000  0  7G25G12G14G29G 2G 4G31
  20141785.009      396538.744          46.000  
  21164313.865     1777703.0763         25.000  
  22075262.120     1387585.206          34.000  
  21601804.278     -886136.9183         24.000  
  22736890.580      183840.2503         29.000  
  23292430.058     1350805.0992         33.000  
  22852445.486     -918554.681          45.000  
 13  7 18 12 15 55.0000000  0  7G25G12G14G29G 2G 4G31
  20141961.553      397470.279          46.000  
  21164973.605     1781173.7253         26.000  
  22075799.237     1390406.813          34.000  
  21601526.610     -887594.7023         26.000  
  22736998.911      184403.4123         29.000  
  23292953.757     1353564.9442         33.000  
  22852146.756     -920124.536          46.000  
 13  7 18 12 15 56.0000000  0  7G25G12G14G29G 2G 4G31
  20142139.650      398401.250          46.000  
  21165632.107     1784643.6833         25.000  
  22076335.832     1393227.996          35.000  
  21601250.041     -889052.9673         27.000  
  22737103.822      184966.1673         28.000  
  23293478.834     1356324.4612         33.000  
  22851848.130     -921695.127          45.000  
 13  7 18 12 15 57.0000000  0  7G25G12G14G29G 2G 4G31
  20142316.211      399330.738          46.000  
  21166294.098     1788112.0703         25.000  
  22076873.211     1396047.829          35.000  
  21600971.169     -890512.9803         26.000  
  22737209.483      185527.3383         29.000  
  23294003.859     1359082.7172         33.000  
  22851548.545     -923267.392          45.000  
 13  7 18 12 15 58.0000000  0  6G25G14G29G 2G 4G31
  20142493.575      400262.589          46.000  
  22077410.713     1398870.264          35.000  
  21600693.833     -891970.6683         26.000  
  22737315.179      186091.0223         28.000  
  23294529.232     1361843.6022         34.000  
  22851250.094     -924837.448          46.000  
 13  7 18 12 15 59.0000000  0  6G25G14G29G 2G 4G31
  20142670.730      401196.291          46.000  
  22077947.778     1401694.697          34.000  
  21600412.902     -893426.2923         26.000  
  22737422.655      186657.0223         28.000  
  23295055.147     1364606.5782         34.000  
  22850952.184     -926405.816          46.000  
 13  7 18 12 16  0.0000000  0  6G25G14G29G 2G 4G31
  20142848.600      402130.060          46.000  
  22078485.262     1404519.356          34.000  
  21600132.599     -894882.0123         27.000  
  22737529.921      187222.8813         27.000  
  23295581.044     1367369.8042         35.000  
  22850653.401     -927974.298          46.000  
 13  7 18 12 16  1.0000000  0  6G25G14G29G 2G 4G31
  20143026.400      403063.347          46.000  
  22079022.851     1407343.763          35.000  
  21599854.914     -896338.1093         27.000  
  22737638.148      187788.6333         28.000  
  23296106.418     1370132.777          35.000  
  22850354.653     -929543.429          46.000  
 13  7 18 12 16  2.0000000  0  6G25G14G29G 2G 4G31
  20143204.183      403998.072          46.000  
  22079559.881     1410169.777          34.000  
  21599576.129     -897792.8673         27.000  
  22737747.491      188355.7783         28.000  
  23296631.635     1372897.380          35.000  
  22850056.481     -931111.283          46.000  
 13  7 18 12 16  3.0000000  0  6G25G14G29G 2G 4G31
  20143381.844      404934.606          46.000  
  22080098.308     1412997.723          34.000  
  21599296.210     -899245.9723         26.000  
  22737858.823      188924.9523         30.000  
  23297158.003     1375664.047          35.000  
  22849757.786     -932677.493          46.000  
 13  7 18 12 16  4.0000000  0  6G25G14G29G 2G 4G31
  20143560.045      405871.135          46.000  
  22080636.281     1415825.916          34.000  
  21599017.897     -900698.7943         25.000  
  22737966.055      189494.3733         30.000  
  23297683.586     1378430.964          36.000  
  22849459.824     -934243.893          46.000  
 13  7 18 12 16  5.0000000  0  5G25G14G 2G 4G31
  20143738.072      406807.552          46.000  
  22081174.027     1418654.066          34.000  
  22738074.019      190063.7743         30.000  
  23298209.954     1381197.944          36.000  
  22849161.704     -935810.581          46.000  
 13  7 18 12 16  6.0000000  0  6G25G14G29G 2G 4G31
  20143916.867      407745.335          46.000  
  22081712.715     1421483.817          34.000  
  21598462.369     -903602.4013         23.000  
  22738185.805      190634.5293         29.000  
  23298737.405     1383966.552          36.000  
  22848864.457     -937376.060          46.000  
 13  7 18 12 16  7.0000000  0  6G25G14G29G 2G 4G31
  20144096.046      408685.619          46.000  
  22082251.647     1424316.256          34.000  
  21598184.597     -905053.5893         23.000  
  22738293.944      191207.9733         29.000  
  23299264.855     1386737.883          37.000  
  22848566.966     -938939.209          46.000  
 13  7 18 12 16  8.0000000  0  6G25G14G29G 2G 4G31
  20144275.434      409628.182          46.000  
  22082791.034     1427151.188          34.000  
  21597908.307     -906500.3403         24.000  
  22738404.073      191784.0233         30.000  
  23299792.829     1389511.661          37.000  
  22848269.387     -940500.250          46.000  
 13  7 18 12 16  9.0000000  0  6G25G14G29G 2G 4G31
  20144454.543      410570.360          46.000  
  22083330.193     1429985.7843         34.000  
  21597631.686     -907944.5643         24.000  
  22738515.667      192359.4803         31.000  
  23300320.855     1392285.305          37.000  
  22847972.786     -942061.856          46.000  
 13  7 18 12 16 10.0000000  0  6G25G14G29G 2G 4G31
  20144634.141      411511.552          46.000  
  22083869.684     1432819.6552         34.000  
  21597356.304     -909392.8393         23.000  
  22738623.666      192934.3773         31.000  
  23300848.445     1395058.187          37.000  
  22847675.050     -943624.616          46.000  
 13  7 18 12 16 11.0000000  0  5G25G14G 2G 4G31
  20144813.931      412455.159          46.000  
  22084409.751     1435656.0782         34.000  
  22738739.239      193511.7592         31.000  
  23301376.558     1397833.720          37.000  
  22847377.821     -945185.128          46.000  
 13  7 18 12 16 12.0000000  0  6G25G14G29G 2G 4G31
  20144993.807      413401.550          46.000  
  22084949.940     1438495.5012         34.000  
  21596804.790     -912284.3343         23.000  
  22738840.311      194092.1053         29.000  
  23301905.195     1400612.249          37.000  
  22847082.162     -946743.021          46.000  
 13  7 18 12 16 13.0000000  0  5G25G14G 2G 4G31
  20145173.457      414348.362          46.000  
  22085489.884     1441335.5062         34.000  
  22738955.360      194672.9953         30.000  
  23302433.954     1403391.429          37.000  
  22846785.037     -948300.660          46.000  
 13  7 18 12 16 14.0000000  0  6G25G14G29G 2G 4G31
  20145353.701      415294.284          46.000  
  22086029.550     1444174.7492         34.000  
  21596257.935     -915171.2903         23.000  
  22739068.263      195253.1053         31.000  
  23302961.998     1406169.924          37.000  
  22846488.784     -949859.371          46.000  
 13  7 18 12 16 15.0000000  0  6G25G14G29G 2G 4G31
  20145534.311      416240.873          46.000  
  22086569.529     1447014.8782         34.000  
  21595981.489     -916617.4923         23.000  
  22739176.699      195834.0813         31.000  
  23303490.809     1408949.343          37.000  
  22846192.200     -951417.563          46.000  
 13  7 18 12 16 16.0000000  0  6G25G14G29G 2G 4G31
  20145714.868      417190.514          46.000  
  22087110.137     1449858.2743         33.000  
  21595706.770     -918059.5783         23.000  
  22739286.879      196418.2243         31.000  
  23304020.650     1411732.038          37.000  
  22845896.140     -952972.879          46.000  
 13  7 18 12 16 17.0000000  0  6G25G14G29G 2G 4G31
  20145896.054      418142.893          46.000  
  22087652.263     1452704.5522         33.000  
  21595436.117     -919498.0693         25.000  
  22739398.404      197005.2663         31.000  
  23304550.701     1414517.704          37.000  
  22845601.005     -954525.618          46.000  
 13  7 18 12 16 18.0000000  0  6G25G14G29G 2G 4G31
  20146076.785      419094.549          46.000  
  22088194.144     1455550.2762         34.000  
  21595165.726     -920936.0813         27.000  
  22739509.876      197591.6932         32.000  
  23305079.704     1417302.808          37.000  
  22845305.450     -956079.252          46.000  
 13  7 18 12 16 19.0000000  0  6G25G14G29G 2G 4G31
  20146258.826      420045.769          46.000  
  22088735.363     1458395.7282         34.000  
  21594892.683     -922374.6653         27.000  
  22739622.970      198177.8322         31.000  
  23305609.004     1420087.781          36.000  
  22845010.245     -957633.499          46.000  
 13  7 18 12 16 20.0000000  0  6G25G14G29G 2G 4G31
  20146440.326      420999.321          46.000  
  22089277.140     1461243.6882         34.000  
  21594619.535     -923811.6563         26.000  
  22739735.193      198766.5063         32.000  
  23306139.316     1422875.260          37.000  
  22844714.429     -959185.584          46.000  
 13  7 18 12 16 21.0000000  0  6G25G14G29G 2G 4G31
  20146621.895      421955.521          46.000  
  22089819.545     1464094.4812         34.000  
  21594346.665     -925244.6073         26.000  
  22739847.502      199357.9192         32.000  
  23306670.710     1425665.629          37.000  
  22844419.241     -960735.189          46.000  
 13  7 18 12 16 22.0000000  0  6G25G14G29G 2G 4G31
  20146803.849      422912.562          46.000  
  22090362.334     1466946.3152         34.000  
  21594073.412     -926678.4013         25.000  
  22739960.109      199950.3082         32.000  
  23307202.244     1428457.084          37.000  
  22844124.315     -962284.111          46.000  
 13  7 18 12 16 23.0000000  0  6G25G14G29G 2G 4G31
  20146985.540      423869.640          46.000  
  22090905.001     1469798.3532         34.000  
  21593797.874     -928111.9473         25.000  
  22740073.238      200542.9483         30.000  
  23307733.516     1431248.739          36.000  
  22843829.528     -963833.171          46.000  
 13  7 18 12 16 24.0000000  0  6G25G14G29G 2G 4G31
  20147167.948      424828.125          46.000  
  22091448.279     1472651.9232         34.000  
  21593524.655     -929546.3763         25.000  
  22740186.124      201137.0662         30.000  
  23308265.363     1434042.036          37.000  
  22843535.457     -965380.981          46.000  
 13  7 18 12 16 25.0000000  0  6G25G14G29G 2G 4G31
  20147351.210      425788.614          46.000  
  22091992.568     1475507.722          35.000  
  21593251.263     -930975.3693         25.000  
  22740299.690      201733.3963         30.000  
  23308797.682     1436837.594          37.000  
  22843241.316     -966926.966          46.000  
 13  7 18 12 16 26.0000000  0  6G25G14G29G 2G 4G31
  20147534.158      426750.331          46.000  
  22092535.933     1478364.896          34.000  
  21592979.179     -932403.5543         25.000  
  22740413.622      202331.0092         31.000  
  23309330.559     1439634.559          38.000  
  22842946.966     -968471.892          46.000  
 13  7 18 12 16 27.0000000  0  6G25G14G29G 2G 4G31
  20147717.158      427711.369          46.000  
  22093079.141     1481221.567          33.000  
  21592706.903     -933834.0783         24.000  
  22740527.869      202928.1302         32.000  
  23309862.302     1442431.094          37.000  
  22842653.087     -970017.664          46.000  
 13  7 18 12 16 28.0000000  0  6G25G14G29G 2G 4G31
  20147899.845      428671.617          46.000  
  22093622.942     1484077.647          34.000  
  21592435.954     -935264.3883         25.000  
  22740641.906      203524.6102         33.000  
  23310394.011     1445227.044          37.000  
  22842358.405     -971564.377          46.000  
 13  7 18 12 16 29.0000000  0  6G25G14G29G 2G 4G31
  20148082.880      429634.632          46.000  
  22094167.249     1486936.628          34.000  
  21592165.336     -936692.1393         26.000  
  22740756.222      204124.0032         32.000  
  23310926.574     1448026.009          37.000  
  22842064.945     -973108.526          46.000  
 13  7 18 12 16 30.0000000  0  6G25G14G29G 2G 4G31
  20148266.421      430600.600          46.000  
  22094711.591     1489798.777          34.000  
  21591896.201     -938116.0833         27.000  
  22740870.783      204726.4832         32.000  
  23311459.905     1450828.092          37.000  
  22841771.938     -974649.860          46.000  
 13  7 18 12 16 31.0000000  0  6G25G14G29G 2G 4G31
  20148449.875      431566.328          46.000  
  22095256.352     1492660.809          34.000  
  21591625.321     -939540.1553         27.000  
  22740986.094      205328.8412         31.000  
  23311993.445     1453630.240          37.000  
  22841478.268     -976191.617          46.000  
 13  7 18 12 16 32.0000000  0  6G25G14G29G 2G 4G31
  20148633.626      432531.347          45.000  
  22095800.241     1495522.316          34.000  
  21591354.320     -940965.0393         27.000  
  22741100.376      205930.6173         31.000  
  23312526.061     1456431.860          37.000  
  22841185.192     -977734.259          46.000  
 13  7 18 12 16 33.0000000  0  6G25G14G29G 2G 4G31
  20148817.464      433498.085          45.000  
  22096345.473     1498385.752          34.000  
  21591083.928     -942388.4013         27.000  
  22741215.844      206534.3332         32.000  
  23313059.584     1459235.377          37.000  
  22840892.063     -979275.333          46.000  
 13  7 18 12 16 34.0000000  0  6G25G14G29G 2G 4G31
  20149002.314      434466.963          46.000  
  22096890.897     1501251.496          34.000  
  21590812.403     -943809.6053         25.000  
  22741330.352      207140.2183         31.000  
  23313593.595     1462041.325          37.000  
  22840598.603     -980814.431          46.000  
 13  7 18 12 16 35.0000000  0  7G25G14G29G 2G24G 4G31
  20149186.536      435436.749          45.000  
  22097436.914     1504118.303          34.000  
  21590541.611     -945229.6533         24.000  
  22741445.803      207747.2172         31.000  
  23446454.964     2564756.8513         25.000  
  23314126.630     1464848.389          36.000  
  22840305.527     -982352.799          46.000  
 13  7 18 12 16 36.0000000  0  7G25G14G29G 2G24G 4G31
  20149371.055      436405.841          46.000  
  22097981.937     1506984.635          34.000  
  21590275.774     -946650.5023         25.000  
  22741561.009      208353.6783         32.000  
  23447392.459     2569700.0153         26.000  
  23314660.275     1467654.973          36.000  
  22840013.235     -983892.019          47.000  
 13  7 18 12 16 37.0000000  0  7G25G14G29G 2G24G 4G31
  20149555.434      437374.933          46.000  
  22098527.081     1509851.043          34.000  
  21590006.447     -948070.9073         24.000  
  22741676.512      208960.2622         32.000  
  23448334.300     2574643.8203         25.000  
  23315194.635     1470461.774          36.000  
  22839720.456     -985431.420          47.000  
 13  7 18 12 16 38.0000000  0  5G25G14G 2G 4G31
  20149740.232      438346.801          45.000  
  22099073.378     1512720.502          34.000  
  22741792.277      209569.8402         32.000  
  23315730.165     1473271.606          36.000  
  22839428.252     -986968.184          47.000  
 13  7 18 12 16 39.0000000  0  5G25G14G 2G 4G31
  20149925.902      439320.767          46.000  
  22099619.535     1515592.171          34.000  
  22741908.670      210181.6103         31.000  
  23316264.264     1476083.729          35.000  
  22839136.257     -988503.032          47.000  
 13  7 18 12 16 40.0000000  0  5G25G14G 2G 4G31
  20150111.398      440294.513          46.000  
  22100165.866     1518463.801          34.000  
  22742025.691      210793.2542         31.000  
  23316799.113     1478895.851          35.000  
  22838843.373     -990038.261          47.000  
 13  7 18 12 16 41.0000000  0  5G25G14G 2G 4G31
  20150296.964      441268.040          46.000  
  22100712.617     1521335.403          34.000  
  22742142.660      211404.8322         32.000  
  23317333.700     1481708.005          35.000  
  22838551.623     -991573.873          47.000  
 13  7 18 12 16 42.0000000  0  5G25G14G 2G 4G31
  20150482.773      442243.670          46.000  
  22101259.559     1524209.264          34.000  
  22742259.314      212018.7903         30.000  
  23317868.550     1484522.476          34.000  
  22838259.872     -993107.543          47.000  
 13  7 18 12 16 43.0000000  0  6G25G12G14G 2G 4G31
  20150669.229      443221.351          46.000  
  21196830.967     1948559.7123         28.000  
  22101806.902     1527085.349          34.000  
  22742376.475      212634.8122         31.000  
  23318404.934     1487339.197          35.000  
  22837968.000     -994639.332          47.000  
 13  7 18 12 16 44.0000000  0  6G25G12G14G 2G 4G31
  20150854.864      444197.300          46.000  
  21197498.333     1952069.0513         29.000  
  22102352.728     1529959.867          33.000  
  22742493.252      213249.2573         31.000  
  23318941.703     1490154.408          35.000  
  22837676.250     -996173.041          47.000  
 13  7 18 12 16 45.0000000  0  6G25G12G14G 2G 4G31
  20151041.128      445172.761          46.000  
  21198166.293     1955577.2093         29.000  
  22102899.635     1532834.087          33.000  
  22742610.081      213863.3762         32.000  
  23319478.507     1492969.339          35.000  
  22837383.889     -997707.410          47.000  
 13  7 18 12 16 46.0000000  0  6G25G12G14G 2G 4G31
  20151226.711      446148.868          46.000  
  21198835.491     1959085.8143         29.000  
  22103446.734     1535709.120          33.000  
  22742727.137      214478.2462         31.000  
  23320014.211     1495785.167          35.000  
  22837092.819     -999241.287          47.000  
 13  7 18 12 16 47.0000000  0  6G25G12G14G 2G 4G31
  20151412.434      447127.372          46.000  
  21199506.365     1962596.6653         30.000  
  22103994.758     1538586.709          34.000  
  22742845.362      215095.6983         31.000  
  23320551.276     1498603.585          35.000  
  22836801.156    -1000772.959          47.000  
 13  7 18 12 16 48.0000000  0  6G25G12G14G 2G 4G31
  20151599.343      448107.582          46.000  
  21200173.626     1966109.2193         30.000  
  22104542.468     1541466.193          34.000  
  22742963.588      215715.0333         31.000  
  23321088.865     1501423.958          36.000  
  22836509.808    -1002303.064          47.000  
 13  7 18 12 16 49.0000000  0  6G25G12G14G 2G 4G31
  20151787.073      449088.581          46.000  
  21200843.540     1969622.2033         31.000  
  22105090.719     1544346.654          33.000  
  22743081.080      216335.2473         30.000  
  23321626.070     1504245.349          36.000  
  22836218.843    -1003832.538          47.000  
 13  7 18 12 16 50.0000000  0  6G25G12G14G 2G 4G31
  20151973.755      450069.708          46.000  
  21201512.564     1973135.3613         31.000  
  22105638.953     1547227.391          33.000  
  22743198.712      216955.7403         30.000  
  23322164.305     1507067.067          36.000  
  22835927.913    -1005362.047          47.000  
 13  7 18 12 16 51.0000000  0  6G25G12G14G 2G 4G31
  20152160.909      451052.509          46.000  
  21202181.535     1976650.1322         31.000  
  22106188.024     1550109.961          33.000  
  22743317.583      217578.0472         30.000  
  23322702.871     1509890.674          36.000  
  22835637.384    -1006890.061          47.000  
 13  7 18 12 16 52.0000000  0  6G25G12G14G 2G 4G31
  20152348.568      452038.241          47.000  
  21202850.472     1980167.7112         30.000  
  22106737.444     1552995.665          33.000  
  22743436.698      218203.4633         29.000  
  23323241.681     1512717.476          36.000  
  22835346.140    -1008415.297          47.000  
 13  7 18 12 16 53.0000000  0  6G25G12G14G 2G 4G31
  20152536.333      453023.911          47.000  
  21203519.147     1983685.0352         30.000  
  22107286.794     1555881.488          33.000  
  22743556.564      218828.9453         29.000  
  23323780.753     1515544.401          37.000  
  22835056.623    -1009940.768          47.000  
 13  7 18 12 16 54.0000000  0  7G25G12G14G29G 2G 4G31
  20152723.556      454008.932          47.000  
  21204188.136     1987201.6023         30.000  
  22107836.144     1558766.778          33.000  
  21585431.838     -972060.1813         24.000  
  22743674.998      219453.8343         29.000  
  23324319.197     1518370.872          37.000  
  22834766.129    -1011467.071          47.000  
 13  7 18 12 16 55.0000000  0  6G25G12G14G 2G 4G31
  20152910.814      454995.743          46.000  
  21204857.561     1990719.8972         30.000  
  22108385.826     1561654.067          33.000  
  22743794.236      220080.7793         29.000  
  23324857.746     1521199.392          37.000  
  22834475.758    -1012991.728          47.000  
 13  7 18 12 16 56.0000000  0  7G25G12G14G29G 2G 4G31
  20153099.067      455985.542          46.000  
  21205526.952     1994240.9343         30.000  
  22108935.927     1564544.525          33.000  
  21584897.913     -974866.9083         24.000  
  22743914.328      220710.8233         29.000  
  23325396.940     1524031.105          37.000  
  22834185.596    -1014513.582          47.000  
 13  7 18 12 16 57.0000000  0  7G25G12G14G29G 2G 4G31
  20153286.640      456972.987          46.000  
  21206196.080     1997759.5293         30.000  
  22109486.150     1567432.799          33.000  
  21584630.489     -976270.4663         24.000  
  22744033.810      221338.7052         30.000  
  23325936.117     1526860.713          37.000  
  22833895.643    -1016037.936          47.000  
 13  7 18 12 16 58.0000000  0  7G25G12G14G29G 2G 4G31
  20153474.718      457959.671          46.000  
  21206865.593     2001277.2963         29.000  
  22110035.552     1570320.499          34.000  
  21584362.454     -977673.3673         24.000  
  22744153.745      221965.8732         30.000  
  23326474.875     1529689.751          38.000  
  22833605.306    -1017563.230          47.000  
 13  7 18 12 16 59.0000000  0  7G25G12G14G29G 2G 4G31
  20153662.779      458947.987          46.000  
  21207536.030     2004796.4263         29.000  
  22110585.391     1573209.952          33.000  
  21584096.826     -979074.6163         25.000  
  22744273.523      222594.8073         29.000  
  23327013.930     1532520.623          38.000  
  22833315.859    -1019087.064          47.000  
 13  7 18 12 17  0.0000000  0  7G25G12G14G29G 2G 4G31
  20153851.084      459938.933          46.000  
  21208206.677     2008318.2383         30.000  
  22111135.911     1576102.239          33.000  
  21583830.606     -980474.7973         26.000  
  22744393.790      223226.6382         29.000  
  23327553.769     1535354.404          38.000  
  22833026.273    -1020608.430          47.000  
 13  7 18 12 17  1.0000000  0  7G25G12G14G29G 2G 4G31
  20154040.175      460931.542          46.000  
  21208876.940     2011841.4323         29.000  
  22111686.709     1578996.343          34.000  
  21583565.258     -981873.1643         26.000  
  22744514.790      223860.1853         29.000  
  23328093.592     1538190.004          38.000  
  22832737.385    -1022128.309          47.000  
 13  7 18 12 17  2.0000000  0  8G25G12G14G29G 2G24G 4G31
  20154228.532      461924.618          46.000  
  21209546.993     2015365.0682         29.000  
  22112238.014     1581891.091          34.000  
  21583299.264     -983270.6533         26.000  
  22744635.441      224494.3183         29.000  
  23471909.963     2698462.3873         28.000  
  23328632.716     1541026.335          38.000  
  22832448.025    -1023647.877          47.000  
 13  7 18 12 17  3.0000000  0  8G25G12G14G29G 2G24G 4G31
  20154417.710      462918.638          46.000  
  21210217.884     2018889.5943         28.000  
  22112788.359     1584786.954          33.000  
  21583035.330     -984667.2123         27.000  
  22744756.301      225129.6373         29.000  
  23472856.463     2703424.4553         28.000  
  23329172.312     1543863.826          38.000  
  22832158.735    -1025166.667          47.000  
 13  7 18 12 17  4.0000000  0  8G25G12G14G29G 2G24G 4G31
  20154607.464      463914.948          46.000  
  21210888.461     2022415.9973         29.000  
  22113340.379     1587685.293          33.000  
  21582769.528     -986061.8623         27.000  
  22744877.283      225767.3393         29.000  
  23473801.950     2708388.6603         28.000  
  23329713.077     1546703.825          38.000  
  22831869.917    -1026683.327          47.000  
 13  7 18 12 17  5.0000000  0  8G25G12G14G29G 2G24G 4G31
  20154797.479      464914.001          46.000  
  21211560.190     2025945.2863         29.000  
  22113892.138     1590586.560          33.000  
  21582506.937     -987452.0713         26.000  
  22744997.742      226407.9623         28.000  
  23474748.084     2713355.4453         28.000  
  23330254.156     1549546.792          39.000  
  22831581.552    -1028197.416          47.000  
 13  7 18 12 17  6.0000000  0  8G25G12G14G29G 2G24G 4G31
  20154987.355      465913.743          46.000  
  21212231.744     2029475.1623         29.000  
  22114443.914     1593488.642          33.000  
  21582241.205     -988842.1923         26.000  
  22745119.632      227049.3423         28.000  
  23475695.072     2718322.8023         28.000  
  23330795.811     1552390.645          38.000  
  22831293.920    -1029710.982          47.000  
 13  7 18 12 17  7.0000000  0  8G25G12G14G29G 2G24G 4G31
  20155177.824      466913.603          46.000  
  21212903.368     2033004.7293         28.000  
  22114996.178     1596391.0133         33.000  
  21581979.085     -990232.8933         26.000  
  22745240.963      227690.9133         28.000  
  23476642.549     2723289.7823         28.000  
  23331337.081     1555234.854          38.000  
  22831005.573    -1031224.587          47.000  
 13  7 18 12 17  8.0000000  0  8G25G12G14G29G 2G24G 4G31
  20155368.416      467917.194          46.000  
  21213575.463     2036538.0843         28.000  
  22115549.856     1599297.3192         33.000  
  21581713.772     -991619.9353         26.000  
  22745362.958      228336.3953         29.000  
  23477586.798     2728260.3193         28.000  
  23331879.172     1558083.006          38.000  
  22830717.801    -1032734.619          47.000  
 13  7 18 12 17  9.0000000  0  8G25G12G14G29G 2G24G 4G31
  20155560.525      468923.368          46.000  
  21214245.394     2040074.0183         27.000  
  22116103.639     1602206.3973         33.000  
  21581447.290     -993004.1763         26.000  
  22745485.790      228984.8453         30.000  
  23478532.320     2733233.4383         28.000  
  23332421.665     1560933.978          38.000  
  22830431.181    -1034242.235          47.000  
 13  7 18 12 17 10.0000000  0  8G25G12G14G29G 2G24G 4G31
  20155752.111      469932.756          46.000  
  21214918.973     2043612.8593         28.000  
  22116657.491     1605118.8622         33.000  
  21581184.664     -994385.3713         26.000  
  22745609.547      229636.5353         29.000  
  23479480.059     2738209.3743         28.000  
  23332964.995     1563788.386          38.000  
  22830144.684    -1035746.795          47.000  
 13  7 18 12 17 11.0000000  0  7G25G14G29G 2G24G 4G31
  20155945.180      470946.479          46.000  
  22117212.042     1608035.7412         32.000  
  21580923.051     -995762.0853         26.000  
  22745733.461      230292.5793         28.000  
  23480427.885     2743189.4473         28.000  
  23333509.285     1566647.298          39.000  
  22829859.669    -1037247.201          47.000  
 13  7 18 12 17 12.0000000  0  7G25G14G29G 2G24G 4G31
  20156139.122      471964.552          46.000  
  22117768.285     1610957.2142         33.000  
  21580663.391     -997134.6503         26.000  
  22745857.933      230953.0153         27.000  
  23481377.352     2748173.6523         28.000  
  23334054.621     1569510.806          39.000  
  22829575.178    -1038743.415          47.000  
 13  7 18 12 17 13.0000000  0  7G25G14G29G 2G24G 4G31
  20156333.674      472986.208          46.000  
  22118325.418     1613882.3632         33.000  
  21580405.913     -998503.4813         27.000  
  22745984.238      231617.3563         28.000  
  23482325.073     2753161.3903         28.000  
  23334601.197     1572378.144          39.000  
  22829291.106    -1040236.206          47.000  
 13  7 18 12 17 14.0000000  0  8G25G12G14G29G 2G24G 4G31
  20156528.436      474009.892          46.000  
  21217619.202     2057806.9473         28.000  
  22118882.220     1616809.8352         32.000  
  21580147.319     -999870.2253         28.000  
  22746110.717      232283.9373         28.000  
  23483274.103     2758150.8943         28.000  
  23335147.005     1575247.717          39.000  
  22829007.156    -1041727.123          47.000  
 13  7 18 12 17 15.0000000  0  8G25G12G14G29G 2G24G 4G31
  20156723.600      475036.932          46.000  
  21218294.613     2061362.7483         28.000  
  22119439.579     1619740.7902         32.000  
  21579888.200    -1001233.8643         28.000  
  22746237.406      232953.8503         29.000  
  23484225.820     2763143.3583         28.000  
  23335694.087     1578120.855          39.000  
  22828723.573    -1043214.875          47.000  
 13  7 18 12 17 16.0000000  0  8G25G12G14G29G 2G24G 4G31
  20156919.723      476067.697          46.000  
  21218972.589     2064922.2693         27.000  
  22119997.812     1622675.6453         32.000  
  21579630.146    -1002593.6763         28.000  
  22746365.525      233627.7483         28.000  
  23485175.863     2768139.4323         27.000  
  23336241.936     1580997.960          39.000  
  22828440.932    -1044699.035          47.000  
 13  7 18 12 17 17.0000000  0  8G25G12G14G29G 2G24G 4G31
  20157116.701      477101.976          46.000  
  21219649.064     2068485.2973         27.000  
  22120557.353     1625614.1182         32.000  
  21579370.574    -1003949.9383         28.000  
  22746494.273      234305.1823         27.000  
  23486128.156     2773138.8923         28.000  
  23336789.629     1583878.764          39.000  
  22828159.878    -1046179.878          47.000  
 13  7 18 12 17 18.0000000  0  7G25G12G14G29G 2G 4G31
  20157313.871      478138.277          46.000  
  21220326.865     2072050.1933         28.000  
  22121117.226     1628554.8832         32.000  
  21579112.399    -1005304.0763         28.000  
  22746621.799      234984.9333         28.000  
  23337338.072     1586761.827          38.000  
  22827878.581    -1047658.841          47.000  
 13  7 18 12 17 19.0000000  0  8G25G12G14G29G 2G24G 4G31
  20157511.320      479176.796          46.000  
  21221004.457     2075617.0103         28.000  
  22121677.011     1631497.9382         33.000  
  21578855.147    -1006656.2793         28.000  
  22746751.646      235666.9513         27.000  
  23488031.538     2783143.2323         28.000  
  23337887.073     1589647.358          39.000  
  22827597.440    -1049135.761          47.000  
 13  7 18 12 17 20.0000000  0  8G25G12G14G29G 2G24G 4G31
  20157709.537      480218.984          46.000  
  21221685.626     2079187.4703         27.000  
  22122237.739     1634444.9272         32.000  
  21578596.884    -1008004.7823         28.000  
  22746881.912      236352.7383         28.000  
  23488982.767     2788149.8163         27.000  
  23338436.999     1592536.747          39.000  
  22827316.981    -1050609.163          47.000  
 13  7 18 12 17 21.0000000  0  7G25G12G14G29G 2G 4G31
  20157908.103      481264.102          46.000  
  21222361.857     2082760.7483         27.000  
  22122799.776     1637394.9343         32.000  
  21578337.696    -1009350.1903         28.000  
  22747013.487      237041.7853         27.000  
  23338987.606     1595429.263          39.000  
  22827036.765    -1052079.831          47.000  
 13  7 18 12 17 22.0000000  0  7G25G12G14G29G 2G 4G31
  20158107.437      482310.965          46.000  
  21223041.456     2086335.6423         27.000  
  22123361.219     1640346.9192         32.000  
  21578084.668    -1010693.9533         28.000  
  22747143.351      237732.6543         28.000  
  23339538.247     1598323.774          39.000  
  22826757.335    -1053548.898          47.000  
 13  7 18 12 17 23.0000000  0  8G25G12G14G29G 2G24G 4G31
  20158307.346      483359.360          46.000  
  21223721.037     2089911.9103         27.000  
  22123923.500     1643300.5532         32.000  
  21577827.260    -1012036.2803         28.000  
  22747272.710      238425.1283         27.000  
  23491845.249     2803182.0823         28.000  
  23340089.605     1601220.048          39.000  
  22826477.904    -1055016.589          47.000  
 13  7 18 12 17 24.0000000  0  8G25G12G14G29G 2G24G 4G31
  20158507.605      484410.814          46.000  
  21224403.114     2093491.0393         27.000  
  22124485.450     1646257.4602         32.000  
  21577574.424    -1013375.5573         29.000  
  22747406.343      239120.7843         27.000  
  23492800.997     2808197.0963         27.000  
  23340641.642     1604119.579          39.000  
  22826199.120    -1056481.385          47.000  
 13  7 18 12 17 25.0000000  0  8G25G12G14G29G 2G24G 4G31
  20158707.811      485465.481          46.000  
  21225084.719     2097073.2873         27.000  
  22125048.673     1649217.6922         32.000  
  21577320.261    -1014711.5583         29.000  
  22747539.000      239819.9513         27.000  
  23493756.344     2813215.0113         27.000  
  23341193.610     1607022.549          39.000  
  22825920.998    -1057943.141          47.000  
 13  7 18 12 17 26.0000000  0  8G25G12G14G29G 2G24G 4G31
  20158909.571      486522.095          46.000  
  21225764.615     2100657.4183         27.000  
  22125612.472     1652180.0922         32.000  
  21577066.535    -1016045.7083         30.000  
  22747673.855      240521.0703         27.000  
  23494709.841     2818234.6703         27.000  
  23341745.927     1609927.669          39.000  
  22825643.662    -1059403.133          47.000  
 13  7 18 12 17 27.0000000  0  8G25G12G14G29G 2G24G 4G31
  20159110.597      487580.200          46.000  
  21226446.290     2104242.8723         27.000  
  22126175.486     1655144.1172         31.000  
  21576812.966    -1017378.1353         31.000  
  22747808.257      241223.9263         27.000  
  23495665.625     2823255.6083         27.000  
  23342298.854     1612834.521          38.000  
  22825366.046    -1060861.764          47.000  
 13  7 18 12 17 28.0000000  0  8G25G12G14G29G 2G24G 4G31
  20159312.688      488641.301          46.000  
  21227128.681     2107831.1363         26.000  
  22126739.791     1658111.3562         31.000  
  21576561.491    -1018707.7942         32.000  
  22747941.158      241929.8393         26.000  
  23496621.932     2828279.3413         26.000  
  23342852.620     1615744.578          38.000  
  22825088.815    -1062317.561          47.000  
 13  7 18 12 17 29.0000000  0  8G25G12G14G29G 2G24G 4G31
  20159515.093      489705.115          46.000  
  21227810.740     2111422.0663         27.000  
  22127305.126     1661081.4772         31.000  
  21576307.660    -1020034.7173         31.000  
  22748076.048      242638.6753         26.000  
  23497578.378     2833305.5133         26.000  
  23343406.367     1618657.573          39.000  
  22824812.455    -1063770.822          47.000  
 13  7 18 12 17 30.0000000  0  8G25G12G14G29G 2G24G 4G31
  20159717.830      490770.608          46.000  
  21228494.631     2115014.5603         27.000  
  22127870.757     1664053.3922         32.000  
  21576062.537    -1021359.9672         32.000  
  22748210.257      243349.3973         27.000  
  23498536.552     2838333.2503         25.000  
  23343960.796     1621572.463          39.000  
  22824536.184    -1065222.560          47.000  
 13  7 18 12 17 31.0000000  0  7G25G14G29G 2G24G 4G31
  20159920.340      491836.827          46.000  
  22128436.772     1667026.176          32.000  
  21575804.622    -1022684.5952         32.000  
  22748346.421      244060.9293         27.000  
  23499492.405     2843361.5083         26.000  
  23344515.538     1624488.292          38.000  
  22824259.877    -1066673.738          47.000  
 13  7 18 12 17 32.0000000  0  7G25G14G29G 2G24G 4G31
  20160123.478      492905.231          46.000  
  22129003.276     1670001.442          32.000  
  21575551.594    -1024006.9562         32.000  
  22748484.767      244774.7583         28.000  
  23500450.440     2848391.6973         25.000  
  23345069.984     1627406.556          39.000  
  22823984.216    -1068122.890          47.000  
 13  7 18 12 17 33.0000000  0  7G25G14G29G 2G24G 4G31
  20160327.069      493975.097          45.000  
  22129568.925     1672978.247          31.000  
  21575302.580    -1025327.9293         32.000  
  22748622.850      245490.3003         29.000  
  23501407.532     2853423.2553         25.000  
  23345625.372     1630326.457          39.000  
  22823707.979    -1069570.747          47.000  
 13  7 18 12 17 34.0000000  0  7G25G14G29G 2G24G 4G31
  20160530.434      495045.734          45.000  
  22130134.486     1675956.041          31.000  
  21575051.052    -1026648.0282         32.000  
  22748759.363      246206.6983         29.000  
  23502365.357     2858457.0823         24.000  
  23346180.673     1633247.372          39.000  
  22823432.353    -1071017.982          47.000  
 13  7 18 12 17 35.0000000  0  6G25G14G29G 2G 4G31
  20160733.555      496115.141          45.000  
  22130700.240     1678932.6993         31.000  
  21574799.734    -1027969.4932         32.000  
  22748894.969      246922.0883         28.000  
  23346736.113     1636167.289          39.000  
  22823157.058    -1072466.618          47.000  
 13  7 18 12 17 36.0000000  0  6G25G14G29G 2G 4G31
  20160937.321      497183.150          45.000  
  22131266.499     1681908.1883         31.000  
  21574548.137    -1029292.3172         32.000  
  22749028.795      247636.1423         28.000  
  23347290.908     1639085.973          39.000  
  22822881.537    -1073916.821          47.000  
 13  7 18 12 17 37.0000000  0  6G25G14G29G 2G 4G31
  20161140.459      498251.345          45.000  
  22131832.934     1684884.0453         31.000  
  21574296.173    -1030614.9552         32.000  
  22749166.320      248350.3293         28.000  
  23347846.191     1642005.084          39.000  
  22822605.998    -1075367.003          47.000  
 13  7 18 12 17 38.0000000  0  6G25G14G29G 2G 4G31
  20161343.998      499320.375          45.000  
  22132398.617     1687860.8603         31.000  
  21574044.995    -1031936.7832         31.000  
  22749303.583      249065.6313         28.000  
  23348401.475     1644925.268          39.000  
  22822329.970    -1076816.514          48.000  
 13  7 18 12 17 39.0000000  0  6G25G14G29G 2G 4G31
  20161547.660      500390.801          45.000  
  22132964.824     1690839.3152         31.000  
  21573794.131    -1033257.2182         32.000  
  22749439.433      249782.5593         27.000  
  23348957.386     1647847.050          39.000  
  22822054.152    -1078264.780          48.000  
 13  7 18 12 17 40.0000000  0  6G25G14G29G 2G 4G31
  20161751.217      501461.201          45.000  
  22133531.311     1693817.8322         31.000  
  21573542.603    -1034577.7372         32.000  
  22749577.150      250499.6603         27.000  
  23349513.158     1650769.031          39.000  
  22821778.351    -1079713.241          48.000  
 13  7 18 12 17 41.0000000  0  7G25G14G29G 2G24G 4G31
  20161954.267      502530.708          45.000  
  22134097.954     1696795.6223         30.000  
  21573290.639    -1035899.0792         32.000  
  22749713.559      251215.8883         27.000  
  23509064.513     2893665.2283         25.000  
  23350068.477     1653690.337          39.000  
  22821502.708    -1081162.750          48.000  
 13  7 18 12 17 42.0000000  0  6G25G14G29G 2G 4G31
  20162157.859      503601.551          45.000  
  22134664.894     1699774.9792         30.000  
  21573040.368    -1037219.1712         32.000  
  22749848.117      251933.5473         28.000  
  23350624.545     1656613.209          39.000  
  22821226.959    -1082611.085          48.000  
 13  7 18 12 17 43.0000000  0  7G25G14G29G 2G24G 4G31
  20162361.817      504673.845          44.000  
  22135232.044     1702755.8752         31.000  
  21572789.277    -1038537.824          32.000  
  22749987.300      252652.8223         28.000  
  23510977.249     2903726.3303         25.000  
  23351181.155     1659537.713          39.000  
  22820951.717    -1084058.158          48.000  
 13  7 18 12 17 44.0000000  0  7G25G14G29G 2G24G 4G31
  20162566.369      505748.201          44.000  
  22135799.351     1705739.0342         31.000  
  21572539.128    -1039854.406          32.000  
  22750123.377      253374.3433         28.000  
  23511935.580     2908758.9423         25.000  
  23351737.695     1662464.545          39.000  
  22820676.684    -1085503.323          48.000  
 13  7 18 12 17 45.0000000  0  7G25G14G29G 2G24G 4G31
  20162771.182      506825.018          44.000  
  22136367.634     1708724.8362         31.000  
  21572289.747    -1041168.494          33.000  
  22750261.653      254098.5143         28.000  
  23512894.155     2913794.8333         25.000  
  23352295.247     1665394.038          39.000  
  22820402.367    -1086946.158          48.000  
 13  7 18 12 17 46.0000000  0  8G25G12G14G29G 2G24G 4G31
  20162976.431      507905.014          44.000  
  21239444.940     2172557.8613         28.000  
  22136937.018     1711713.9752         31.000  
  21572041.361    -1042479.474          34.000  
  22750400.644      254825.9653         28.000  
  23513853.777     2918833.5583         25.000  
  23352852.676     1668326.938          38.000  
  22820128.468    -1088386.005          48.000  
 13  7 18 12 17 47.0000000  0  7G25G12G14G29G 2G 4G31
  20163182.292      508987.742          44.000  
  21240133.979     2176165.4783         28.000  
  22137506.558     1714706.0573         31.000  
  21571792.974    -1043787.729          33.000  
  22750541.100      255556.4113         28.000  
  23353411.363     1671262.785          39.000  
  22819854.971    -1089823.270          48.000  
 13  7 18 12 17 48.0000000  0  7G25G12G14G29G 2G 4G31
  20163389.303      510071.609          44.000  
  21240821.029     2179774.0153         28.000  
  22138075.679     1717699.3502         31.000  
  21571544.030    -1045094.771          32.000  
  22750682.465      256288.0813         28.000  
  23353970.886     1674199.975          39.000  
  22819581.334    -1091259.545          48.000  
 13  7 18 12 17 49.0000000  0  7G25G12G14G29G 2G 4G31
  20163595.495      511156.748          44.000  
  21241509.580     2183383.6263         28.000  
  22138645.656     1720694.2002         31.000  
  21571295.224    -1046400.673          32.000  
  22750821.002      257021.1313         29.000  
  23354528.648     1677138.641          39.000  
  22819308.884    -1092694.728          48.000  
 13  7 18 12 17 50.0000000  0  7G25G12G14G29G 2G 4G31
  20163802.978      512244.628          44.000  
  21242197.851     2186995.8273         28.000  
  22139216.278     1723691.9252         31.000  
  21571046.960    -1047703.742          32.000  
  22750962.645      257756.9893         29.000  
  23355088.276     1680080.302          39.000  
  22819036.329    -1094127.310          48.000  
 13  7 18 12 17 51.0000000  0  7G25G12G14G29G 2G 4G31
  20164009.502      513332.870          44.000  
  21242886.384     2190608.4143         28.000  
  22139787.301     1726690.0873         31.000  
  21570798.993    -1049006.469          31.000  
  22751104.463      258493.5253         29.000  
  23355647.032     1683022.512          38.000  
  22818763.337    -1095559.730          48.000  
 13  7 18 12 17 52.0000000  0  7G25G12G14G29G 2G 4G31
  20164216.374      514421.180          44.000  
  21243573.661     2194220.9833         29.000  
  22140358.220     1729688.6122         31.000  
  21570550.711    -1050309.149          31.000  
  22751244.240      259230.3173         29.000  
  23356206.224     1685965.045          38.000  
  22818490.852    -1096992.203          48.000  
 13  7 18 12 17 53.0000000  0  7G25G12G14G29G 2G 4G31
  20164422.967      515508.174          44.000  
  21244262.352     2197832.0993         29.000  
  22140929.470     1732685.9842         31.000  
  21570302.080    -1051613.1893         31.000  
  22751383.580      259965.9113         29.000  
  23356765.050     1688906.442          38.000  
  22818217.913    -1098426.167          48.000  
 13  7 18 12 17 54.0000000  0  7G25G12G14G29G 2G 4G31
  20164629.002      516592.415          44.000  
  21244949.279     2201440.1583         30.000  
  22141499.325     1735680.6492         31.000  
  21570053.170    -1052919.9672         32.000  
  22751521.436      260698.7703         29.000  
  23357324.556     1691845.322          39.000  
  22817944.469    -1099863.061          48.000  
 13  7 18 12 17 55.0000000  0  7G25G12G14G29G 2G 4G31
  20164835.176      517676.623          44.000  
  21245633.031     2205048.1113         30.000  
  22142069.510     1738675.5342         31.000  
  21569804.226    -1054226.7803         32.000  
  22751662.992      261431.6873         29.000  
  23357883.504     1694784.356          39.000  
  22817670.675    -1101300.129          48.000  
 13  7 18 12 17 56.0000000  0  7G25G12G14G29G 2G 4G31
  20165041.839      518761.563          44.000  
  21246319.994     2208656.6233         31.000  
  22142639.347     1741671.3062         31.000  
  21569555.002    -1055532.8832         32.000  
  22751803.885      262165.5873         29.000  
  23358442.784     1697724.349          39.000  
  22817397.858    -1102736.631          48.000  
 13  7 18 12 17 57.0000000  0  7G25G12G14G29G 2G 4G31
  20165248.101      519845.846          44.000  
  21247005.561     2212264.3823         30.000  
  22143209.900     1744666.5372         31.000  
  21569305.847    -1056839.6432         31.000  
  22751944.412      262898.9973         28.000  
  23359002.482     1700663.909          38.000  
  22817123.855    -1104173.959          48.000  
 13  7 18 12 17 58.0000000  0  7G25G12G14G29G 2G 4G31
  20165453.996      520928.057          44.000  
  21247695.368     2215869.7503         30.000  
  22143779.789     1747659.9152         31.000  
  21569056.327    -1058148.4922         31.000  
  22752085.532      263630.4963         29.000  
  23359561.465     1703601.648          38.000  
  22816850.410    -1105613.528          48.000  
 13  7 18 12 17 59.0000000  0  7G25G12G14G29G 2G 4G31
  20165660.502      522010.650          44.000  
  21248380.184     2219475.6263         30.000  
  22144349.661     1750653.8753         31.000  
  21568807.033    -1059457.0372         31.000  
  22752225.221      264362.3573         29.000  
  23360120.762     1706539.935          39.000  
  22816576.529    -1107052.869          48.000  
 13  7 18 12 18  0.0000000  0  7G25G12G14G29G 2G 4G31
  20165866.763      523095.344          44.000  
  21249069.032     2223083.4143         30.000  
  22144920.038     1753650.0832         32.000  
  21568558.175    -1060763.4312         31.000  
  22752366.289      265096.4863         30.000  
  23360680.373     1709480.577          38.000  
  22816302.386    -1108490.263          48.000  
 13  7 18 12 18  1.0000000  0  7G25G12G14G29G 2G 4G31
  20166072.885      524179.894          44.000  
  21249756.518     2226691.0333         30.000  
  22145489.544     1756646.2943         32.000  
  21568309.928    -1062069.9702         32.000  
  22752508.176      265830.8233         30.000  
  23361239.583     1712421.281          38.000  
  22816028.714    -1109927.978          48.000  
 13  7 18 12 18  2.0000000  0  7G25G12G14G29G 2G 4G31
  20166279.374      525263.852          44.000  
  21250442.241     2230297.8073         29.000  
  22146059.573     1759642.1342         32.000  
  21568061.280    -1063377.1792         32.000  
  22752647.726      266564.6183         30.000  
  23361798.234     1715361.618          38.000  
  22815755.374    -1111366.434          48.000  
 13  7 18 12 18  3.0000000  0  7G25G12G14G29G 2G 4G31
  20166486.124      526347.917          44.000  
  21251127.791     2233904.5143         28.000  
  22146629.776     1762638.1482         32.000  
  21567811.795    -1064684.2312         32.000  
  22752790.660      267298.5683         30.000  
  23362357.601     1718302.250          38.000  
  22815481.841    -1112804.976          48.000  
 13  7 18 12 18  4.0000000  0  7G25G12G14G29G 2G 4G31
  20166692.979      527433.746          44.000  
  21251813.026     2237512.2273         28.000  
  22147200.677     1765636.1152         33.000  
  21567563.059    -1065989.5552         31.000  
  22752926.196      268034.1733         30.000  
  23362917.700     1721244.880          38.000  
  22815208.379    -1114241.884          48.000  
 13  7 18 12 18  5.0000000  0  7G25G12G14G29G 2G 4G31
  20166899.921      528520.100          44.000  
  21252499.483     2241121.2953         28.000  
  22147772.067     1768634.8482         33.000  
  21567314.795    -1067294.3553         30.000  
  22753064.245      268770.7802         31.000  
  23363477.835     1724188.266          38.000  
  22814934.952    -1115678.415          48.000  
 13  7 18 12 18  6.0000000  0  7G25G12G14G29G 2G 4G31
  20167105.554      529605.401          44.000  
  21253186.166     2244728.9723         28.000  
  22148343.091     1771632.6422         33.000  
  21567065.868    -1068600.2182         30.000  
  22753206.080      269506.5302         31.000  
  23364037.411     1727130.818          38.000  
  22814661.262    -1117116.169          48.000  
 13  7 18 12 18  7.0000000  0  7G25G12G14G29G 2G 4G31
  20167312.287      530689.950          44.000  
  21253873.984     2248335.4953         29.000  
  22148914.725     1774629.8422         34.000  
  21566816.905    -1069906.8403         30.000  
  22753340.726      270241.5502         31.000  
  23364596.167     1730072.838          38.000  
  22814387.730    -1118554.837          48.000  
 13  7 18 12 18  8.0000000  0  7G25G12G14G29G 2G 4G31
  20167518.653      531776.222          44.000  
  21254561.243     2251943.7383         29.000  
  22149486.795     1777628.9542         34.000  
  21566568.048    -1071211.7483         30.000  
  22753486.313      270978.5492         30.000  
  23365156.319     1733016.790          37.000  
  22814114.198    -1119991.943          48.000  
 13  7 18 12 18  9.0000000  0  7G25G12G14G29G 2G 4G31
  20167725.752      532863.833          44.000  
  21255246.391     2255553.3753         29.000  
  22150058.325     1780629.5853         34.000  
  21566319.592    -1072515.3302         30.000  
  22753625.392      271717.0183         30.000  
  23365717.064     1735962.294          38.000  
  22813840.945    -1121427.851          48.000  
 13  7 18 12 18 10.0000000  0  7G25G12G14G29G 2G 4G31
  20167932.625      533951.175          44.000  
  21255934.349     2259162.5533         28.000  
  22150630.465     1783630.0932         34.000  
  21566071.170    -1073819.1702         30.000  
  22753765.622      272455.3103         30.000  
  23366277.879     1738907.744          38.000  
  22813567.396    -1122864.206          49.000  
 13  7 18 12 18 11.0000000  0  7G25G12G14G29G 2G 4G31
  20168139.113      535037.388          44.000  
  21256622.829     2262770.3673         28.000  
  22151201.157     1786629.6092         34.000  
  21565822.382    -1075124.2353         30.000  
  22753906.898      273192.6432         30.000  
  23366839.200     1741852.254          39.000  
  22813294.561    -1124301.854          49.000  
 13  7 18 12 18 12.0000000  0  7G25G12G14G29G 2G 4G31
  20168346.090      536125.471          44.000  
  21257309.653     2266379.8283         28.000  
  22151772.809     1789631.2352         35.000  
  21565573.891    -1076427.2793         30.000  
  22754047.617      273932.0032         31.000  
  23367400.818     1744798.888          39.000  
  22813021.274    -1125737.781          49.000  
 13  7 18 12 18 13.0000000  0  7G25G12G14G29G 2G 4G31
  20168553.346      537215.800          43.000  
  21257995.097     2269991.6233         28.000  
  22152344.286     1792635.2002         35.000  
  21565326.203    -1077728.1653         30.000  
  22754188.318      274673.7712         30.000  
  23367961.738     1747747.961          38.000  
  22812748.474    -1127171.638          49.000  
 13  7 18 12 18 14.0000000  0  7G25G12G14G29G 2G 4G31
  20168760.707      538306.189          43.000  
  21258680.228     2273603.3383         27.000  
  22152916.007     1795639.4282         35.000  
  21565078.305    -1079029.0073         29.000  
  22754329.560      275415.6843         30.000  
  23368523.583     1750697.334          38.000  
  22812475.256    -1128605.587          49.000  
 13  7 18 12 18 15.0000000  0  7G25G12G14G29G 2G 4G31
  20168967.824      539394.701          43.000  
  21259365.306     2277213.0633         27.000  
  22153487.572     1798641.9492         35.000  
  21564830.355    -1080331.7473         29.000  
  22754470.523      276155.9653         30.000  
  23369084.607     1753645.038          38.000  
  22812201.881    -1130041.568          48.000  
 13  7 18 12 18 16.0000000  0  7G25G12G14G29G 2G 4G31
  20169174.574      540482.986          43.000  
  21260053.961     2280822.2233         27.000  
  22154059.520     1801644.3802         35.000  
  21564582.265    -1081634.7273         29.000  
  22754611.416      276896.1462         31.000  
  23369645.265     1756592.693          38.000  
  22811928.052    -1131477.954          48.000  
 13  7 18 12 18 17.0000000  0  7G25G12G14G29G 2G 4G31
  20169381.848      541573.679          43.000  
  21260740.016     2284433.6823         27.000  
  22154631.800     1804649.4102         35.000  
  21564334.542    -1082935.3133         29.000  
  22754752.798      277638.8812         31.000  
  23370206.569     1759543.027          38.000  
  22811655.654    -1132912.065          49.000  
 13  7 18 12 18 18.0000000  0  7G25G12G14G29G 2G 4G31
  20169589.052      542666.136          43.000  
  21261427.276     2288046.9123         27.000  
  22155204.167     1807656.3672         35.000  
  21564086.941    -1084234.1543         29.000  
  22754894.022      278383.4422         30.000  
  23370768.309     1762495.349          38.000  
  22811383.222    -1134344.590          49.000  
 13  7 18 12 18 19.0000000  0  7G25G12G14G29G 2G 4G31
  20169797.233      543758.529          43.000  
  21262116.402     2291659.9973         26.000  
  22155776.517     1810663.432          34.000  
  21563838.903    -1085533.0513         28.000  
  22755035.387      279128.1423         30.000  
  23371330.345     1765447.752          38.000  
  22811110.387    -1135777.350          49.000  
 13  7 18 12 18 20.0000000  0  7G25G12G14G29G 2G 4G31
  20170005.414      544851.169          43.000  
  21262805.895     2295272.9713         26.000  
  22156348.029     1813670.863          34.000  
  21563591.808    -1086831.6953         27.000  
  22755176.908      279873.2122         29.000  
  23371891.667     1768400.664          38.000  
  22810837.780    -1137210.010          49.000  
 13  7 18 12 18 21.0000000  0  7G25G12G14G29G 2G 4G31
  20170214.153      545945.877          43.000  
  21263493.381     2298887.9403         27.000  
  22156920.745     1816680.588          34.000  
  21563345.324    -1088128.2903         28.000  
  22755319.110      280620.5533         30.000  
  23372454.139     1771355.864          38.000  
  22810565.906    -1138640.734          49.000  
 13  7 18 12 18 22.0000000  0  7G25G12G14G29G 2G 4G31
  20170422.963      547043.150          43.000  
  21264181.932     2302505.4863         27.000  
  22157493.322     1819693.012          34.000  
  21563098.875    -1089422.3293         29.000  
  22755462.550      281370.4932         30.000  
  23373017.537     1774313.836          37.000  
  22810293.839    -1140069.095          49.000  
 13  7 18 12 18 23.0000000  0  7G25G12G14G29G 2G 4G31
  20170631.615      548140.401          43.000  
  21264870.692     2306123.0303         26.000  
  22158066.980     1822705.609          34.000  
  21562853.019    -1090716.3703         28.000  
  22755604.857      282120.6572         30.000  
  23373581.319     1777271.981          38.000  
  22810022.105    -1141497.637          49.000  
 13  7 18 12 18 24.0000000  0  7G25G12G14G29G 2G 4G31
  20170840.407      549236.513          42.000  
  21265558.667     2309739.3743         26.000  
  22158640.115     1825717.203          34.000  
  21562606.953    -1092011.6373         28.000  
  22755747.129      282869.8173         31.000  
  23374144.228     1780229.216          38.000  
  22809750.038    -1142927.452          49.000  
 13  7 18 12 18 25.0000000  0  7G25G12G14G29G 2G 4G31
  20171049.251      550333.132          43.000  
  21266246.590     2313355.1643         26.000  
  22159213.163     1828729.492          34.000  
  21562358.026    -1093307.4593         27.000  
  22755889.173      283619.6302         31.000  
  23374707.259     1783187.176          37.000  
  22809477.780    -1144356.938          49.000  
 13  7 18 12 18 26.0000000  0  7G25G12G14G29G 2G 4G31
  20171258.706      551432.834          43.000  
  21266936.135     2316974.4263         27.000  
  22159786.856     1831745.031          34.000  
  21562113.042    -1094599.0263         27.000  
  22756033.225      284372.6712         31.000  
  23375271.146     1786148.447          37.000  
  22809206.289    -1145783.480          49.000  
 13  7 18 12 18 27.0000000  0  7G25G12G14G29G 2G 4G31
  20171467.882      552533.088          43.000  
  21267624.092     2320594.3303         28.000  
  22160360.200     1834761.290          34.000  
  21561866.645    -1095889.9613         27.000  
  22756176.893      285126.4602         31.000  
  23375835.329     1789110.437          37.000  
  22808934.799    -1147209.642          49.000  
 13  7 18 12 18 28.0000000  0  7G25G12G14G29G 2G 4G31
  20171677.075      553632.919          43.000  
  21268311.997     2324213.7563         27.000  
  22160933.475     1837777.256          34.000  
  21561622.342    -1097181.3893         27.000  
  22756320.386      285879.8732         31.000  
  23376399.232     1792072.287          37.000  
  22808663.623    -1148636.377          49.000  
 13  7 18 12 18 29.0000000  0  8G25G12G14G29G 2G24G 4G31
  20171886.513      554732.998          43.000  
  21269002.537     2327832.9563         27.000  
  22161507.308     1840793.679          34.000  
  21561377.690    -1098472.7523         27.000  
  22756464.280      286633.7352         32.000  
  23555140.242     3135692.9323         26.000  
  23376962.648     1795034.509          37.000  
  22808391.975    -1150063.050          49.000  
 13  7 18 12 18 30.0000000  0  8G25G12G14G29G 2G24G 4G31
  20172096.299      555834.759          43.000  
  21269691.961     2331453.7253         28.000  
  22162081.699     1843811.955          33.000  
  21561132.148    -1099762.5503         28.000  
  22756607.267      287389.4792         32.000  
  23556101.505     3140743.2363         26.000  
  23377526.604     1797998.729          36.000  
  22808120.921    -1151488.170          49.000  
 13  7 18 12 18 31.0000000  0  8G25G12G14G29G 2G24G 4G31
  20172306.330      556938.839          43.000  
  21270384.228     2335076.9713         28.000  
  22162656.108     1846832.660          33.000  
  21560888.333    -1101049.7233         28.000  
  22756751.354      288147.576          32.000  
  23557064.635     3145795.9563         27.000  
  23378091.677     1800965.452          36.000  
  22807850.216    -1152911.147          49.000  
 13  7 18 12 18 32.0000000  0  8G25G12G14G29G 2G24G 4G31
  20172516.553      558042.746          43.000  
  21271075.990     2338699.8633         28.000  
  22163230.674     1849853.399          33.000  
  21560644.240    -1102337.1503         27.000  
  22756895.632      288905.688          32.000  
  23558025.444     3150848.2293         28.000  
  23378656.034     1803932.239          35.000  
  22807579.231    -1154334.448          49.000  
 13  7 18 12 18 33.0000000  0  8G25G12G14G29G 2G24G 4G31
  20172726.130      559145.229          43.000  
  21271767.472     2342321.0663         28.000  
  22163804.472     1852872.851          33.000  
  21560399.134    -1103626.1313         27.000  
  22757039.038      289662.501          32.000  
  23558986.881     3155898.6793         28.000  
  23379220.235     1806897.773          35.000  
  22807308.369    -1155759.348          49.000  
 13  7 18 12 18 34.0000000  0  8G25G12G14G29G 2G24G 4G31
  20172936.318      560250.152          43.000  
  21272455.168     2345944.4683         28.000  
  22164379.265     1855894.911          33.000  
  21560157.379    -1104912.7713         28.000  
  22757183.351      290421.987          32.000  
  23559947.533     3160951.2133         29.000  
  23379784.069     1809865.972          35.000  
  22807037.716    -1157181.950          49.000  
 13  7 18 12 18 35.0000000  0  8G25G12G14G29G 2G24G 4G31
  20173147.046      561358.422          43.000  
  21273146.371     2349571.3313         28.000  
  22164954.965     1858920.497          33.000  
  21559913.948    -1106195.8463         28.000  
  22757327.979      291184.877          32.000  
  23560911.937     3166007.1123         29.000  
  23380348.740     1812837.726          34.000  
  22806767.377    -1158601.361          49.000  
 13  7 18 12 18 36.0000000  0  8G25G12G14G29G 2G24G 4G31
  20173358.072      562467.652          43.000  
  21273834.154     2353198.9753         28.000  
  22165531.014     1861947.219          33.000  
  21559672.489    -1107478.0753         28.000  
  22757472.816      291948.948          32.000  
  23561874.892     3171063.7353         29.000  
  23380913.935     1815810.704          34.000  
  22806497.510    -1160019.964          49.000  
 13  7 18 12 18 37.0000000  0  8G25G12G14G29G 2G24G 4G31
  20173569.481      563576.769          43.000  
  21274526.910     2356826.3743         28.000  
  22166106.714     1864973.993          32.000  
  21559426.476    -1108760.3053         27.000  
  22757618.211      292713.048          32.000  
  23562835.963     3176120.0113         30.000  
  23381479.811     1818783.735          33.000  
  22806227.555    -1161438.850          49.000  
 13  7 18 12 18 38.0000000  0  8G25G12G14G29G 2G24G 4G31
  20173780.454      564688.285          42.000  
  21275218.968     2360455.9373         29.000  
  22166682.781     1868003.2863         32.000  
  21559184.267    -1110040.3463         27.000  
  22757763.606      293479.701          32.000  
  23563794.939     3181178.2963         30.000  
  23382046.385     1821759.419          33.000  
  22805957.338    -1162855.475          49.000  
 13  7 18 12 18 39.0000000  0  8G25G12G14G29G 2G24G 4G31
  20173992.038      565803.192          42.000  
  21275909.613     2364088.7683         29.000  
  22167258.830     1871036.2092         32.000  
  21558939.615    -1111316.9653         26.000  
  22757909.717      294249.848          33.000  
  23564758.558     3186239.7943         30.000  
  23382613.691     1824738.675          33.000  
  22805688.919    -1164268.875          49.000  
 13  7 18 12 18 40.0000000  0  8G25G12G14G29G 2G24G 4G31
  20174204.268      566919.876          42.000  
  21276601.723     2367723.4033         29.000  
  22167836.013     1874071.0112         32.000  
  21558698.209    -1112591.6653         26.000  
  22758056.316      295021.883          33.000  
  23565721.583     3191302.9873         30.000  
  23383181.399     1827719.945          33.000  
  22805420.203    -1165680.682          49.000  
 13  7 18 12 18 41.0000000  0  8G25G12G14G29G 2G24G 4G31
  20174416.585      568036.632          42.000  
  21277293.851     2371357.9763         30.000  
  22168413.040     1877106.1032         32.000  
  21558456.611    -1113866.2803         26.000  
  22758203.683      295794.208          33.000  
  23566683.561     3196365.9893         30.000  
  23383748.252     1830701.517          32.000  
  22805151.609    -1167092.547          49.000  
 13  7 18 12 18 42.0000000  0  8G25G12G14G29G 2G24G 4G31
  20174629.024      569153.870          42.000  
  21277985.037     2374992.7163         29.000  
  22168990.659     1880141.7683         31.000  
  21558214.175    -1115140.5943         26.000  
  22758351.312      296567.144          33.000  
  23567648.454     3201429.1913         30.000  
  23384315.751     1833683.712          31.000  
  22804883.190    -1168504.107          49.000  
 13  7 18 12 18 43.0000000  0  8G25G12G14G29G 2G24G 4G31
  20174841.672      570273.284          42.000  
  21278673.745     2378629.6063         29.000  
  22169568.279     1883179.7813         31.000  
  21557973.240    -1116412.7203         26.000  
  22758498.784      297342.437          34.000  
  23568607.884     3206494.5803         31.000  
  23384883.685     1836668.343          31.000  
  22804614.858    -1169913.645          49.000  
 13  7 18 12 18 44.0000000  0  8G25G12G14G29G 2G24G 4G31
  20175055.228      571395.519          42.000  
  21279367.897     2382269.1803         29.000  
  22170146.265     1886220.8292         31.000  
  21557731.048    -1117682.0603         26.000  
  22758647.215      298120.678          34.000  
  23569570.176     3211562.3193         30.000  
  23385452.562     1839656.0473         30.000  
  22804347.032    -1171320.513          49.000  
 13  7 18 12 18 45.0000000  0  8G25G12G14G29G 2G24G 4G31
  20175268.766      572518.110          42.000  
  21280062.730     2385908.6703         30.000  
  22170724.443     1889262.3282         31.000  
  21557487.809    -1118950.9073         26.000  
  22758796.066      298899.374          34.000  
  23570541.368     3216630.1823         30.000  
  23386020.497     1842644.3253         29.000  
  22804079.363    -1172727.190          49.000  
 13  7 18 12 18 46.0000000  0  7G25G12G14G 2G24G 4G31
  20175482.252      573641.136          42.000  
  21280750.722     2389548.9353         30.000  
  22171303.092     1892304.4123         31.000  
  22758944.549      299678.655          34.000  
  23571506.156     3221698.2763         30.000  
  23386588.676     1845633.2423         29.000  
  22803811.729    -1174133.604          49.000  
 13  7 18 12 18 47.0000000  0  7G25G12G14G 2G24G 4G31
  20175696.087      574766.157          42.000  
  21281445.502     2393190.8363         30.000  
  22171881.689     1895348.7693         31.000  
  22759094.098      300460.090          35.000  
  23572466.354     3226768.1862         30.000  
  23387157.693     1848625.2233         28.000  
  22803544.322    -1175538.162          49.000  
 13  7 18 12 18 48.0000000  0  7G25G12G14G 2G24G 4G31
  20175910.725      575894.057          42.000  
  21282144.453     2396835.5322         31.000  
  22172460.757     1898396.0563         30.000  
  22759243.210      301244.668          34.000  
  23573431.735     3231840.7842         30.000  
  23387723.446     1851617.2503         26.000  
  22803278.102    -1176939.997          49.000  
 13  7 18 12 18 49.0000000  0  6G25G12G14G 2G24G31
  20176125.834      577023.582          41.000  
  21282837.436     2400481.7422         31.000  
  22173041.274     1901445.2203         30.000  
  22759392.392      302030.863          34.000  
  23574397.587     3236914.6592         30.000  
  22803011.183    -1178340.390          49.000  
 13  7 18 12 18 50.0000000  0  6G25G12G14G 2G24G31
  20176340.593      578152.888          41.000  
  21283528.605     2404127.5492         31.000  
  22173621.301     1904494.2682         30.000  
  22759541.818      302817.049          34.000  
  23575362.741     3241988.1402         30.000  
  22802744.404    -1179741.132          49.000  
 13  7 18 12 18 51.0000000  0  5G25G14G 2G24G31
  20176555.493      579282.127          42.000  
  22174201.399     1907543.4882         30.000  
  22759691.872      303603.281          34.000  
  23576327.878     3247061.3423         29.000  
  22802477.887    -1181142.117          49.000  
 13  7 18 12 18 52.0000000  0  5G25G14G 2G24G31
  20176770.514      580413.981          41.000  
  22174781.863     1910595.3503         30.000  
  22759841.979      304392.318          34.000  
  23577293.555     3252136.8573         29.000  
  22802212.277    -1182540.645          49.000  
 13  7 18 12 18 53.0000000  0  5G25G14G 2G24G31
  20176986.566      581548.926          42.000  
  22175363.095     1913650.6032         31.000  
  22759992.330      305184.553          34.000  
  23578260.210     3257215.3033         30.000  
  22801946.126    -1183936.225          49.000  
 13  7 18 12 18 54.0000000  0  5G25G14G 2G24G31
  20177202.198      582685.092          41.000  
  22175945.130     1916707.2072         31.000  
  22760143.065      305978.183          34.000  
  23579227.109     3262294.7853         29.000  
  22801680.604    -1185330.725          49.000  
 13  7 18 12 18 55.0000000  0  6G25G14G 2G24G 4G31
  20177418.598      583821.497          41.000  
  22176526.449     1919764.1412         31.000  
  22760295.039      306772.243          34.000  
  23580193.939     3267374.2602         29.000  
  23391716.056     1872619.3133         26.000  
  22801415.378    -1186725.177          49.000  
 13  7 18 12 18 56.0000000  0  6G25G14G 2G24G 4G31
  20177634.998      584959.327          41.000  
  22177109.740     1922822.7752         32.000  
  22760446.402      307567.814          34.000  
  23581160.558     3272454.9053         29.000  
  23392289.488     1875625.1173         27.000  
  22801150.135    -1188118.344          49.000  
 13  7 18 12 18 57.0000000  0  6G25G14G 2G24G 4G31
  20177851.363      586099.611          41.000  
  22177693.100     1925883.9382         32.000  
  22760598.219      308365.993          34.000  
  23582127.615     3277537.7903         29.000  
  23392863.705     1878633.5563         28.000  
  22800885.729    -1189509.211          49.000  
 13  7 18 12 18 58.0000000  0  7G25G12G14G 2G24G 4G31
  20178068.287      587241.219          41.000  
  21289087.075     2433343.4113         30.000  
  22178275.816     1928946.6282         32.000  
  22760750.874      309165.653          34.000  
  23583095.055     3282621.7353         30.000  
  23393440.330     1881643.6803         29.000  
  22800621.201    -1190898.895          49.000  
 13  7 18 12 18 59.0000000  0  7G25G12G14G 2G24G 4G31
  20178285.246      588383.094          41.000  
  21289783.443     2437000.6712         30.000  
  22178859.054     1932009.7412         32.000  
  22760903.581      309965.740          33.000  
  23584062.565     3287705.6912         31.000  
  23394013.517     1884654.2683         30.000  
  22800357.336    -1192288.490          49.000  
 13  7 18 12 19  0.0000000  0  6G25G14G 2G24G 4G31
  20178502.274      589525.785          41.000  
  22179442.380     1935073.8112         32.000  
  22761055.590      310766.774          33.000  
  23585030.458     3292790.2193         31.000  
  23394590.962     1887665.5973         32.000  
  22800093.053    -1193677.431          49.000  
 13  7 18 12 19  1.0000000  0  7G25G12G14G 2G24G 4G31
  20178720.419      590669.954          41.000  
  21291174.819     2444317.7633         28.000  
  22180025.933     1938139.549          32.000  
  22761208.768      311569.461          33.000  
  23585998.282     3297876.0603         31.000  
  23395163.801     1890678.8222         33.000  
  22799828.508    -1195065.064          49.000  
 13  7 18 12 19  2.0000000  0  7G25G12G14G 2G24G 4G31
  20178938.111      591816.647          41.000  
  21291871.187     2447979.4233         28.000  
  22180610.306     1941207.958          33.000  
  22761361.771      312374.813          33.000  
  23586966.333     3302964.2033         30.000  
  23395741.961     1893694.8072         34.000  
  22799564.974    -1196450.310          49.000  
 13  7 18 12 19  3.0000000  0  7G25G12G14G 2G24G 4G31
  20179157.198      592963.634          41.000  
  21292568.044     2451640.2153         28.000  
  22181195.115     1944276.804          32.000  
  22761515.263      313180.537          32.000  
  23587934.122     3308052.3702         30.000  
  23396311.606     1896711.2612         34.000  
  22799301.022    -1197835.432          49.000  
 13  7 18 12 19  4.0000000  0  7G25G12G14G 2G24G 4G31
  20179375.308      594109.698          41.000  
  21293261.656     2455301.3753         27.000  
  22181780.151     1947344.942          33.000  
  22761668.110      313985.616          31.000  
  23588902.225     3313139.4023         30.000  
  23396882.577     1899727.0432         34.000  
  22799036.826    -1199221.607          49.000  
 13  7 18 12 19  5.0000000  0  6G25G14G 2G24G 4G31
  20179593.698      595257.866          41.000  
  22182365.134     1950415.320          34.000  
  22761822.038      314792.831          32.000  
  23589870.433     3318228.3093         29.000  
  23397458.801     1902745.0942         34.000  
  22798773.694    -1200605.865          49.000  
 13  7 18 12 19  6.0000000  0  6G25G14G 2G24G 4G31
  20179813.448      596408.348          41.000  
  22182950.467     1953488.178          34.000  
  22761976.106      315602.654          32.000  
  23590838.397     3323319.3153         30.000  
  23398033.157     1905765.7432         35.000  
  22798510.248    -1201987.941          49.000  
 13  7 18 12 19  7.0000000  0  7G25G14G29G 2G24G 4G31
  20180031.681      597560.438          41.000  
  22183536.288     1956562.829          34.000  
  21552246.462    -1146527.8593         26.000  
  22762131.204      316414.118          32.000  
  23591807.495     3328411.6722         29.000  
  23398608.002     1908788.191          35.000  
  22798247.657    -1203368.570          49.000  
 13  7 18 12 19  8.0000000  0  6G25G14G 2G24G 4G31
  20180251.431      598712.726          41.000  
  22184121.691     1959637.768          34.000  
  22762285.481      317225.9123         31.000  
  23592776.645     3333504.0323         29.000  
  23399183.249     1911811.039          35.000  
  22797985.398    -1204749.189          50.000  
 13  7 18 12 19  9.0000000  0  6G25G14G 2G24G 4G31
  20180470.955      599866.030          41.000  
  22184707.320     1962713.980          34.000  
  22762439.933      318038.8863         31.000  
  23593746.109     3338597.1503         29.000  
  23399758.059     1914835.080          35.000  
  22797723.139    -1206128.921          50.000  
 13  7 18 12 19 10.0000000  0  6G25G14G 2G24G 4G31
  20180690.793      601021.820          41.000  
  22185294.171     1965792.791          34.000  
  22762596.269      318854.5112         31.000  
  23594715.800     3343692.5332         29.000  
  23400332.991     1917861.880          35.000  
  22797461.682    -1207506.322          50.000  
 13  7 18 12 19 11.0000000  0  6G25G14G 2G24G 4G31
  20180910.404      602179.860          41.000  
  22185880.812     1968873.993          34.000  
  22762751.838      319672.6252         32.000  
  23595686.032     3348789.8963         28.000  
  23400909.215     1920891.122          35.000  
  22797199.807    -1208881.639          50.000  
 13  7 18 12 19 12.0000000  0  6G25G14G 2G24G 4G31
  20181130.940      603338.313          41.000  
  22186468.047     1971955.810          34.000  
  22762908.332      320491.1282         32.000  
  23596656.038     3353887.4633         28.000  
  23401485.613     1923920.973          36.000  
  22796937.844    -1210256.702          50.000  
 13  7 18 12 19 13.0000000  0  7G25G14G29G 2G24G 4G31
  20181351.807      604496.276          41.000  
  22187054.723     1975037.236          34.000  
  21550839.311    -1153942.3313         28.000  
  22763063.953      321309.4062         32.000  
  23597626.549     3358984.3833         27.000  
  23402061.872     1926950.544          36.000  
  22796676.335    -1211632.417          50.000  
 13  7 18 12 19 14.0000000  0  7G25G14G29G 2G24G 4G31
  20181571.872      605656.045          41.000  
  22187641.871     1978120.677          35.000  
  21550603.105    -1155174.3053         28.000  
  22763220.010      322129.5512         33.000  
  23598596.345     3364082.7183         28.000  
  23402638.846     1929982.157          36.000  
  22796413.919    -1213006.479          50.000  
 13  7 18 12 19 15.0000000  0  7G25G14G29G 2G24G 4G31
  20181793.402      606818.563          41.000  
  22188230.222     1981207.081          35.000  
  21550368.941    -1156403.5623         28.000  
  22763376.765      322952.6942         32.000  
  23599566.891     3369183.4223         27.000  
  23403217.076     1933016.731          37.000  
  22796153.439    -1214377.943          50.000  
 13  7 18 12 19 16.0000000  0  7G25G14G29G 2G24G 4G31
  20182014.078      607981.841          41.000  
  22188818.208     1984294.342          35.000  
  21550134.846    -1157631.9483         29.000  
  22763533.817      323776.6422         32.000  
  23600535.343     3374284.9613         27.000  
  23403794.608     1936052.268          37.000  
  22795892.594    -1215748.800          50.000  
 13  7 18 12 19 17.0000000  0  6G25G14G29G 2G 4G31
  20182235.451      609144.885          40.000  
  22189406.664     1987381.547          35.000  
  21549897.453    -1158860.6833         29.000  
  22763690.991      324600.5633         31.000  
  23404372.682     1939087.812          37.000  
  22795631.957    -1217120.040          50.000  
 13  7 18 12 19 18.0000000  0  7G25G14G29G 2G24G 4G31
  20182456.441      610309.027          40.000  
  22189994.021     1990470.009          35.000  
  21549661.352    -1160088.2683         27.000  
  22763847.799      325425.7222         31.000  
  23602479.280     3384487.8123         27.000  
  23404950.546     1942124.614          37.000  
  22795370.727    -1218490.346          50.000  
 13  7 18 12 19 19.0000000  0  7G25G14G29G 2G24G 4G31
  20182678.146      611475.215          40.000  
  22190582.686     1993560.702          35.000  
  21549428.810    -1161313.9323         27.000  
  22764004.502      326253.1122         32.000  
  23603446.947     3389591.5003         27.000  
  23405529.369     1945163.726          37.000  
  22795110.684    -1219858.742          50.000  
 13  7 18 12 19 20.0000000  0  7G25G14G29G 2G24G 4G31
  20182900.462      612642.537          40.000  
  22191171.509     1996652.657          35.000  
  21549195.204    -1162538.3173         28.000  
  22764161.885      327081.7452         31.000  
  23604418.662     3394696.1403         28.000  
  23406108.158     1948204.161          37.000  
  22794850.763    -1221226.184          50.000  
 13  7 18 12 19 21.0000000  0  7G25G14G29G 2G24G 4G31
  20183122.603      613809.722          40.000  
  22191760.140     1999744.650          35.000  
  21548960.097    -1163762.8763         27.000  
  22764319.025      327910.4362         30.000  
  23605391.652     3399800.4253         29.000  
  23406686.598     1951244.640          38.000  
  22794590.668    -1222593.900          50.000  
 13  7 18 12 19 22.0000000  0  7G25G14G29G 2G24G 4G31
  20183344.919      614977.555          40.000  
  22192348.369     2002837.403          35.000  
  21548725.741    -1164986.8893         28.000  
  22764475.728      328739.8342         31.000  
  23606362.652     3404904.9323         29.000  
  23407266.399     1954285.944          38.000  
  22794329.804    -1223961.158          50.000  
 13  7 18 12 19 23.0000000  0  7G25G14G29G 2G24G 4G31
  20183567.374      616147.647          40.000  
  22192936.721     2005932.622          34.000  
  21548495.102    -1166208.7043         29.000  
  22764634.088      329571.6572         31.000  
  23607333.407     3410011.5583         29.000  
  23407845.572     1957329.748          38.000  
  22794070.686    -1225326.276          50.000  
 13  7 18 12 19 24.0000000  0  7G25G14G29G 2G24G 4G31
  20183790.493      617320.930          40.000  
  22193526.381     2009031.241          34.000  
  21548265.945    -1167427.2313         30.000  
  22764793.217      330406.8793         30.000  
  23608305.437     3415121.3393         28.000  
  23408425.687     1960376.981          38.000  
  22793811.236    -1226688.346          50.000  
 13  7 18 12 19 25.0000000  0  7G25G14G29G 2G24G 4G31
  20184014.065      618494.394          40.000  
  22194117.088     2012130.095          35.000  
  21548036.475    -1168645.6072         31.000  
  22764952.153      331242.4323         29.000  
  23609276.733     3420230.9653         28.000  
  23409005.575     1963424.639          39.000  
  22793551.560    -1228050.413          50.000  
 13  7 18 12 19 26.0000000  0  7G25G14G29G 2G24G 4G31
  20184238.126      619666.852          40.000  
  22194706.958     2015228.158          35.000  
  21547796.150    -1169864.9332         29.000  
  22765111.387      332077.0453         29.000  
  23610248.449     3425339.3983         28.000  
  23409585.097     1966471.453          39.000  
  22793292.563    -1229413.636          50.000  
 13  7 18 12 19 27.0000000  0  7G25G14G29G 2G24G 4G31
  20184461.541      620841.089          40.000  
  22195296.566     2018328.179          35.000  
  21547569.472    -1171082.5402         29.000  
  22765271.074      332913.6922         30.000  
  23611222.118     3430449.2083         28.000  
  23410165.369     1969520.270          39.000  
  22793033.410    -1230775.231          50.000  
 13  7 18 12 19 28.0000000  0  7G25G14G29G 2G24G 4G31
  20184684.729      622017.681          40.000  
  22195886.453     2021430.674          34.000  
  21547335.238    -1172297.7663         29.000  
  22765430.795      333752.7683         29.000  
  23612195.160     3435561.1543         28.000  
  23410745.868     1972571.645          39.000  
  22792774.449    -1232134.621          50.000  
 13  7 18 12 19 29.0000000  0  7G25G14G29G 2G24G 4G31
  20184908.738      623195.480          40.000  
  22196476.340     2024534.547          34.000  
  21547102.469    -1173511.7923         29.000  
  22765590.203      334593.2143         28.000  
  23613168.969     3440674.3493         28.000  
  23411326.855     1975624.501          39.000  
  22792515.680    -1233492.955          50.000  
 13  7 18 12 19 30.0000000  0  7G25G14G29G 2G24G 4G31
  20185132.589      624372.551          40.000  
  22197066.681     2027637.858          34.000  
  21546868.863    -1174726.5163         28.000  
  22765749.541      335433.0823         27.000  
  23614139.201     3445786.4053         28.000  
  23411907.808     1978676.738          39.000  
  22792257.469    -1234852.193          50.000  
 13  7 18 12 19 31.0000000  0  8G25G12G14G29G 2G24G 4G31
  20185356.318      625548.114          40.000  
  21312165.581     2554521.7403         27.000  
  22197656.952     2030739.878          33.000  
  21546636.200    -1175942.6023         27.000  
  22765907.727      336271.8493         27.000  
  23615113.011     3450896.7473         28.000  
  23412488.534     1981727.743          39.000  
  22791998.665    -1236213.046          50.000  
 13  7 18 12 19 32.0000000  0  8G25G12G14G29G 2G24G 4G31
  20185581.042      626725.361          40.000  
  21312862.386     2558209.8063         29.000  
  22198246.735     2033843.670          33.000  
  21546404.461    -1177158.0323         27.000  
  22766068.479      337112.0683         28.000  
  23616085.285     3456008.2943         28.000  
  23413070.080     1984780.609          39.000  
  22791739.546    -1237572.414          50.000  
 13  7 18 12 19 33.0000000  0  7G25G12G14G 2G24G 4G31
  20185805.190      627905.525          40.000  
  21313565.612     2561900.8963         30.000  
  22198837.774     2036950.574          33.000  
  22766228.672      337955.4603         29.000  
  23617058.326     3461122.8623         28.000  
  23413651.643     1987836.660          40.000  
  22791481.248    -1238928.982          50.000  
 13  7 18 12 19 34.0000000  0  7G25G12G14G 2G24G 4G31
  20186030.036      629086.555          40.000  
  21314270.531     2565592.6533         30.000  
  22199428.795     2040058.543          33.000  
  22766389.894      338799.9173         28.000  
  23618032.101     3466238.0203         29.000  
  23414232.875     1990893.753          39.000  
  22791223.683    -1240284.850          50.000  
 13  7 18 12 19 35.0000000  0  7G25G12G14G 2G24G 4G31
  20186255.545      630267.544          40.000  
  21314972.327     2569284.2413         29.000  
  22200020.235     2043166.498          33.000  
  22766551.518      339644.5603         29.000  
  23619005.404     3471352.8533         28.000  
  23414815.189     1993951.005          39.000  
  22790965.664    -1241640.958          50.000  
 13  7 18 12 19 36.0000000  0  7G25G12G14G 2G24G 4G31
  20186480.391      631449.550          41.000  
  21315674.541     2572976.6883         29.000  
  22200611.745     2046275.779          32.000  
  22766711.903      340490.2483         29.000  
  23619979.528     3476468.4413         28.000  
  23415396.892     1997009.495          40.000  
  22790707.366    -1242996.147          50.000  
 13  7 18 12 19 37.0000000  0  7G25G12G14G 2G24G 4G31
  20186706.337      632634.485          41.000  
  21316377.052     2576671.8563         30.000  
  22201203.377     2049388.087          32.000  
  22766872.602      341339.0033         27.000  
  23620953.197     3481586.6543         28.000  
  23415979.328     2000071.106          40.000  
  22790450.481    -1244348.588          50.000  
 13  7 18 12 19 38.0000000  0  7G25G12G14G 2G24G 4G31
  20186932.265      633820.285          41.000  
  21317077.713     2580367.8953         29.000  
  22201795.411     2052501.416          31.000  
  22767034.244      342188.8183         27.000  
  23621927.077     3486705.5893         28.000  
  23416562.357     2003133.860          40.000  
  22790193.073    -1245700.286          50.000  
 13  7 18 12 19 39.0000000  0  6G25G12G14G24G 4G31
  20187157.931      635006.154          41.000  
  21317781.323     2584063.8183         28.000  
  22202387.532     2055614.9863         31.000  
  23622901.270     3491824.4473         28.000  
  23417145.456     2006196.850          40.000  
  22789935.770    -1247052.074          50.000  
 13  7 18 12 19 40.0000000  0  5G25G14G24G 4G31
  20187383.405      636193.150          41.000  
  22202978.815     2058729.7883         31.000  
  23623873.491     3496943.9663         29.000  
  23417728.380     2009261.182          39.000  
  22789678.606    -1248402.918          50.000  
 13  7 18 12 19 41.0000000  0  5G25G14G24G 4G31
  20187609.351      637381.789          41.000  
  22203570.831     2061846.4863         30.000  
  23624846.149     3502065.0193         29.000  
  23418311.863     2012327.368          39.000  
  22789422.332    -1249752.267          50.000  
 13  7 18 12 19 42.0000000  0  7G25G14G29G 2G24G 4G31
  20187835.610      638572.924          40.000  
  22204163.214     2064965.7923         29.000  
  21544104.679    -1189233.2223         27.000  
  22767680.792      345598.8833         27.000  
  23625822.908     3507188.3713         29.000  
  23418896.236     2015396.281          40.000  
  22789166.058    -1251099.250          50.000  
 13  7 18 12 19 43.0000000  0  7G25G14G29G 2G24G 4G31
  20188062.271      639764.154          40.000  
  22204755.701     2068085.3223         28.000  
  21543879.344    -1190433.6413         28.000  
  22767843.986      346454.8843         27.000  
  23626801.306     3512311.4443         30.000  
  23419480.941     2018465.460          40.000  
  22788909.383    -1252446.325          50.000  
 13  7 18 12 19 44.0000000  0  6G25G14G29G24G 4G31
  20188288.949      640954.822          40.000  
  22205348.694     2071204.2803         28.000  
  21543652.893    -1191634.8413         27.000  
  23627768.083     3517433.8563         30.000  
  23420064.633     2021534.296          40.000  
  22788653.266    -1253794.116          50.000  
 13  7 18 12 19 45.0000000  0  6G25G14G29G24G 4G31
  20188516.204      642146.946          40.000  
  22205940.972     2074325.0223         27.000  
  21543427.733    -1192834.5923         29.000  
  23628749.658     3522557.4983         31.000  
  23420649.320     2024604.812          40.000  
  22788396.800    -1255140.579          50.000  
 13  7 18 12 19 46.0000000  0  6G25G29G 2G24G 4G31
  20188743.161      643341.629          40.000  
  21543200.932    -1194031.7933         29.000  
  22768333.883      349027.5633         27.000  
  23629725.910     3527683.3672         31.000  
  23421233.902     2027678.087          40.000  
  22788141.015    -1256484.653          50.000  
 13  7 18 12 19 47.0000000  0  6G25G29G 2G24G 4G31
  20188969.647      644536.455          40.000  
  21542973.312    -1195228.8343         28.000  
  22768497.078      349887.6843         27.000  
  23630700.069     3532809.2613         31.000  
  23421818.677     2030751.716          40.000  
  22787885.561    -1257828.737          50.000  
 13  7 18 12 19 48.0000000  0  8G25G12G14G29G 2G24G 4G31
  20189197.635      645731.138          40.000  
  21324114.059     2617359.4413         29.000  
  22207715.816     2083694.9283         27.000  
  21542747.785    -1196425.9943         28.000  
  22768663.623      350747.9883         27.000  
  23631675.117     3537934.7833         31.000  
  23422403.992     2033825.447          40.000  
  22787629.566    -1259173.093          50.000  
 13  7 18 12 19 49.0000000  0  7G25G12G29G 2G24G 4G31
  20189424.993      646926.498          40.000  
  21324823.289     2621063.2793         29.000  
  21542519.222    -1197622.6933         28.000  
  22768825.578      351608.9113         27.000  
  23632649.363     3543060.7002         31.000  
  23422989.394     2036900.026          40.000  
  22787373.432    -1260516.954          50.000  
 13  7 18 12 19 50.0000000  0  6G25G12G29G24G 4G31
  20189652.771      648124.291          40.000  
  21325531.366     2624769.6313         29.000  
  21542289.909    -1198816.8143         28.000  
  23633625.301     3548188.8492         31.000  
  23423575.425     2039977.265          40.000  
  22787118.467    -1261858.507          50.000  
 13  7 18 12 19 51.0000000  0  6G25G12G29G24G 4G31
  20189880.933      649323.234          40.000  
  21326227.961     2628476.9493         29.000  
  21542063.230    -1200009.7543         28.000  
  23634600.960     3553317.9313         31.000  
  23424161.630     2043055.833          40.000  
  22786863.397    -1263199.082          50.000  
 13  7 18 12 19 52.0000000  0  6G25G12G29G24G 4G31
  20190109.339      650522.270          40.000  
  21326938.185     2632184.3963         29.000  
  21541840.670    -1201202.5963         30.000  
  23635577.213     3558446.8032         31.000  
  23424748.114     2046134.734          40.000  
  22786608.223    -1264539.725          50.000  
 13  7 18 12 19 53.0000000  0  6G25G12G29G24G 4G31
  20190337.657      651722.006          40.000  
  21327644.552     2635892.1123         29.000  
  21541614.533    -1202394.9373         30.000  
  23636553.395     3563576.3082         30.000  
  23425334.075     2049214.540          39.000  
  22786353.519    -1265879.785          50.000  
 13  7 18 12 19 54.0000000  0  6G25G12G29G24G 4G31
  20190566.133      652924.053          40.000  
  21328349.873     2639602.1493         29.000  
  21541387.977    -1203584.8213         29.000  
  23637529.822     3568707.7502         30.000  
  23425920.769     2052296.886          40.000  
  22786098.537    -1267217.698          50.000  
 13  7 18 12 19 55.0000000  0  7G25G12G14G29G24G 4G31
  20190795.464      654128.673          40.000  
  21329056.572     2643314.7173         29.000  
  22211881.864     2105600.9573         27.000  
  21541163.602    -1204772.1723         30.000  
  23638506.720     3573841.5683         30.000  
  23426508.021     2055381.949          39.000  
  22785844.374    -1268553.214          50.000  
 13  7 18 12 19 56.0000000  0  7G25G12G14G29G24G 4G31
  20191024.725      655333.645          40.000  
  21329762.346     2647027.5183         29.000  
  22212481.488     2108736.3833         27.000  
  21540939.192    -1205959.0683         31.000  
  23639484.107     3578975.4673         29.000  
  23427095.116     2058467.656          39.000  
  22785590.055    -1269888.525          50.000  
 13  7 18 12 19 57.0000000  0  7G25G12G14G29G24G 4G31
  20191253.881      656538.163          40.000  
  21330470.371     2650739.6423         29.000  
  22213078.111     2111871.4273         27.000  
  21540712.845    -1207146.4662         31.000  
  23640461.250     3584108.7173         29.000  
  23427682.369     2061553.108          39.000  
  22785335.875    -1271224.414          50.000  
 13  7 18 12 19 58.0000000  0  6G25G12G29G24G 4G31
  20191483.945      657745.185          40.000  
  21331176.110     2654454.1543         28.000  
  21540497.091    -1208331.3953         30.000  
  23641438.322     3589244.3023         29.000  
  23428269.882     2064641.230          39.000  
  22785082.236    -1272557.980          50.000  
 13  7 18 12 19 59.0000000  0  6G25G14G29G24G 4G31
  20191713.921      658954.437          40.000  
  22214273.015     2118149.1823         27.000  
  21540263.363    -1209514.0782         29.000  
  23642416.215     3594381.7283         29.000  
  23428857.990     2067731.818          39.000  
  22784828.527    -1273889.456          50.000  
 13  7 18 12 20  0.0000000  0  7G25G14G29G 2G24G 4G31
  20191943.775      660164.615          40.000  
  22214871.243     2121290.4563         27.000  
  21540035.777    -1210695.7883         27.000  
  22770643.472      361176.5403         27.000  
  23643393.706     3599519.9103         29.000  
  23429446.498     2070823.531          38.000  
  22784575.621    -1275220.181          50.000  
 13  7 18 12 20  1.0000000  0  7G25G14G29G 2G24G 4G31
  20192173.350      661374.321          40.000  
  22215469.541     2124431.4423         27.000  
  21539811.158    -1211878.0713         27.000  
  22770811.587      362053.7393         27.000  
  23644371.599     3604657.3713         29.000  
  23430034.728     2073914.992          38.000  
  22784322.104    -1276551.506          50.000  
 13  7 18 12 20  2.0000000  0  7G25G14G29G 2G24G 4G31
  20192404.252      662584.681          40.000  
  22216065.553     2127572.9813         28.000  
  21539585.596    -1213059.8103         27.000  
  22770977.365      362931.5343         28.000  
  23645348.689     3609795.3033         28.000  
  23430623.097     2077007.295          38.000  
  22784069.164    -1277882.356          50.000  
 13  7 18 12 20  3.0000000  0  6G25G14G 2G24G 4G31
  20192635.519      663796.872          40.000  
  22216667.150     2130716.6243         27.000  
  22771142.740      363811.4393         28.000  
  23646325.989     3614934.7913         28.000  
  23431211.501     2080101.638          38.000  
  22783815.752    -1279211.500          50.000  
 13  7 18 12 20  4.0000000  0  6G25G14G 2G24G 4G31
  20192866.560      665011.702          40.000  
  22217265.954     2133863.1463         28.000  
  22771309.372      364694.1553         27.000  
  23647304.509     3620076.7153         28.000  
  23431801.702     2083198.866          37.000  
  22783563.805    -1280538.160          50.000  
 13  7 18 12 20  5.0000000  0  5G25G14G24G 4G31
  20193097.811      666227.343          40.000  
  22217864.950     2137010.6833         28.000  
  23648282.769     3625219.1713         28.000  
  23432391.048     2086297.066          37.000  
  22783311.458    -1281864.186          50.000  
 13  7 18 12 20  6.0000000  0  5G25G14G24G 4G31
  20193329.392      667442.883          40.000  
  22218465.412     2140158.1563         28.000  
  23649260.539     3630361.2653         29.000  
  23432980.220     2089395.418          37.000  
  22783059.162    -1283190.430          50.000  
 13  7 18 12 20  7.0000000  0  5G25G14G24G 4G31
  20193560.887      668660.313          40.000  
  22219065.036     2143307.7223         28.000  
  23650239.776     3635505.0963         29.000  
  23433570.473     2092495.840          36.000  
  22782807.094    -1284514.957          51.000  
 13  7 18 12 20  8.0000000  0  6G25G14G29G24G 4G31
  20193792.643      669880.134          40.000  
  22219666.214     2146459.7943         28.000  
  21538249.538    -1220116.6703         27.000  
  23651218.995     3640650.9783         28.000  
  23434160.465     2095598.825          36.000  
  22782554.956    -1285837.247          50.000  
 13  7 18 12 20  9.0000000  0  6G25G14G29G24G 4G31
  20194025.202      671100.725          40.000  
  22220265.629     2149612.9103         29.000  
  21538028.950    -1221288.0213         27.000  
  23652198.528     3645797.4503         28.000  
  23434750.352     2098702.846          36.000  
  22782303.219    -1287158.909          50.000  
 13  7 18 12 20 10.0000000  0  6G25G14G29G24G 4G31
  20194257.430      672320.307          40.000  
  22220865.847     2152765.2183         29.000  
  21537802.952    -1222460.3023         27.000  
  23653177.834     3650942.7863         28.000  
  23435341.339     2101806.089          36.000  
  22782052.233    -1288481.712          50.000  
 13  7 18 12 20 11.0000000  0  5G25G14G24G 4G31
  20194489.623      673540.854          40.000  
  22221467.024     2155918.3703         29.000  
  23654157.053     3656088.6653         28.000  
  23435932.064     2104910.482          35.000  
  22781800.740    -1289803.735          51.000  
 13  7 18 12 20 12.0000000  0  6G25G14G29G24G 4G31
  20194722.147      674763.566          40.000  
  22222068.899     2159073.9113         29.000  
  21537361.095    -1224801.3723         27.000  
  23655137.860     3661234.7543         28.000  
  23436524.027     2108017.176          36.000  
  22781549.474    -1291123.747          50.000  
 13  7 18 12 20 13.0000000  0  6G25G14G29G24G 4G31
  20194955.578      675988.414          40.000  
  22222668.698     2162231.9483         29.000  
  21537139.931    -1225968.3553         27.000  
  23656118.318     3666385.2163         28.000  
  23437116.497     2111126.299          36.000  
  22781298.540    -1292441.738          50.000  
 13  7 18 12 20 14.0000000  0  4G25G14G 4G31
  20195189.254      677213.271          40.000  
  22223269.928     2165390.1383         30.000  
  23437708.409     2114235.631          35.000  
  22781047.676    -1293759.897          51.000  
 13  7 18 12 20 15.0000000  0  4G25G14G 4G31
  20195422.372      678437.504          40.000  
  22223874.718     2168547.6443         31.000  
  23438299.186     2117344.535          35.000  
  22780796.864    -1295078.828          51.000  
 13  7 18 12 20 16.0000000  0  4G25G14G 4G31
  20195655.838      679663.958          41.000  
  22224471.480     2171707.6882         31.000  
  23438891.533     2120455.861          35.000  
  22780546.069    -1296395.668          51.000  
 13  7 18 12 20 17.0000000  0  4G25G14G 4G31
  20195889.723      680893.256          40.000  
  22225078.207     2174870.6082         30.000  
  23439484.684     2123570.266          34.000  
  22780296.374    -1297709.829          51.000  
 13  7 18 12 20 18.0000000  0  4G25G14G 4G31
  20196123.451      682123.314          41.000  
  22225677.151     2178034.5583         31.000  
  23440078.026     2126685.601          34.000  
  22780046.470    -1299023.391          51.000  
 13  7 18 12 20 19.0000000  0  5G25G14G29G 4G31
  20196358.384      683352.619          41.000  
  22226284.034     2181197.8882         31.000  
  21535809.666    -1232956.1883         28.000  
  23440670.583     2129800.393          34.000  
  22779796.076    -1300337.846          51.000  
 13  7 18 12 20 20.0000000  0  5G25G14G29G 4G31
  20196592.007      684582.407          41.000  
  22226888.318     2184361.8333         32.000  
  21535588.537    -1234118.6353         28.000  
  23441263.576     2132915.909          34.000  
  22779545.893    -1301651.988          51.000  
 13  7 18 12 20 21.0000000  0  5G25G14G29G 4G31
  20196826.259      685814.469          41.000  
  22227491.240     2187528.1942         32.000  
  21535368.856    -1235278.6603         29.000  
  23441857.861     2136033.946          35.000  
  22779296.616    -1302963.982          51.000  
 13  7 18 12 20 22.0000000  0  5G25G14G29G 4G31
  20197061.139      687048.367          40.000  
  22228093.517     2190696.5902         32.000  
  21535147.849    -1236436.6573         29.000  
  23442452.233     2139153.965          34.000  
  22779046.816    -1304274.296          51.000  
 13  7 18 12 20 23.0000000  0  5G25G14G29G 4G31
  20197295.705      688282.057          40.000  
  22228696.422     2193864.9562         32.000  
  21534926.475    -1237594.9723         29.000  
  23443047.111     2142273.981          33.000  
  22778796.982    -1305584.970          51.000  
 13  7 18 12 20 24.0000000  0  5G25G14G29G 4G31
  20197530.794      689515.576          40.000  
  22229298.682     2197033.2863         31.000  
  21534705.399    -1238753.5683         29.000  
  23443641.221     2145394.038          32.000  
  22778547.758    -1306895.970          51.000  
 13  7 18 12 20 25.0000000  0  6G25G14G29G 2G 4G31
  20197765.185      690750.469          40.000  
  22229901.220     2200203.1102         31.000  
  21534484.217    -1239910.7513         29.000  
  22774895.322      383493.6603         28.000  
  23444235.715     2148515.680          31.000  
  22778298.848    -1308205.762          51.000  
 13  7 18 12 20 26.0000000  0  5G25G14G29G 4G31
  20198000.990      691987.302          40.000  
  22230504.771     2203375.0692         31.000  
  21534265.601    -1241065.8913         29.000  
  23444830.610     2151639.4863         30.000  
  22778049.938    -1309513.726          51.000  
 13  7 18 12 20 27.0000000  0  5G25G14G29G 4G31
  20198235.591      693223.589          40.000  
  22231108.182     2206546.5982         31.000  
  21534045.117    -1242221.5363         28.000  
  23445425.523     2154762.9133         29.000  
  22777800.696    -1310822.402          51.000  
 13  7 18 12 20 28.0000000  0  5G25G14G29G 4G31
  20198470.610      694459.775          40.000  
  22231711.227     2209718.1963         31.000  
  21533824.494    -1243377.5313         28.000  
  23446020.453     2157886.4783         29.000  
  22777551.664    -1312131.321          51.000  
 13  7 18 12 20 29.0000000  0  4G25G14G29G31
  20198706.764      695698.081          40.000  
  22232314.812     2212892.1432         31.000  
  21533605.895    -1244531.3373         28.000  
  22777303.295    -1313438.294          51.000  
 13  7 18 12 20 30.0000000  0  3G25G14G31
  20198942.587      696939.023          40.000  
  22232918.939     2216068.7273         31.000  
  22777055.206    -1314742.769          51.000  
 13  7 18 12 20 31.0000000  0  4G25G14G 2G31
  20199179.526      698181.477          40.000  
  22233523.205     2219247.1232         30.000  
  22775939.700      388954.1573         28.000  
  22776807.325    -1316045.880          51.000  
 13  7 18 12 20 32.0000000  0  3G25G14G31
  20199415.557      699423.433          40.000  
  22234127.872     2222425.0563         30.000  
  22776558.590    -1317349.647          51.000  
 13  7 18 12 20 33.0000000  0  3G25G14G31
  20199651.728      700664.941          40.000  
  22234732.313     2225602.7752         30.000  
  22776310.395    -1318653.977          51.000  
 13  7 18 12 20 34.0000000  0  3G25G14G31
  20199888.859      701908.018          40.000  
  22235337.748     2228782.2572         30.000  
  22776062.585    -1319956.918          51.000  
 13  7 18 12 20 35.0000000  0  3G25G14G31
  20200125.572      703152.914          40.000  
  22235942.259     2231963.6072         30.000  
  22775814.966    -1321258.186          51.000  
 13  7 18 12 20 36.0000000  0  3G25G14G31
  20200362.877      704397.983          40.000  
  22236547.485     2235145.3413         30.000  
  22775567.575    -1322559.416          51.000  
 13  7 18 12 20 37.0000000  0  4G25G12G14G31
  20200599.816      705642.852          40.000  
  21358886.689     2799998.2973         28.000  
  22237153.094     2238327.0532         30.000  
  22775320.043    -1323861.039          51.000  
 13  7 18 12 20 38.0000000  0  3G25G14G31
  20200837.139      706889.839          40.000  
  22237759.053     2241510.9422         30.000  
  22775072.145    -1325160.658          51.000  
 13  7 18 12 20 39.0000000  0  3G25G14G31
  20201075.073      708138.746          40.000  
  22238365.274     2244697.0343         30.000  
  22774825.713    -1326458.500          51.000  
 13  7 18 12 20 40.0000000  0  3G25G14G31
  20201312.535      709386.903          40.000  
  22238970.744     2247882.4373         30.000  
  22774578.112    -1327757.257          51.000  
 13  7 18 12 20 41.0000000  0  3G25G14G31
  20201549.579      710633.042          40.000  
  22239576.546     2251066.0233         30.000  
  22774330.581    -1329058.177          51.000  
 13  7 18 12 20 42.0000000  0  4G25G12G14G31
  20201786.588      711878.012          40.000  
  21362449.134     2818736.6543         29.000  
  22240182.260     2254248.5792         30.000  
  22774083.085    -1330360.441          51.000  
 13  7 18 12 20 43.0000000  0  5G25G12G14G29G31
  20202023.859      713122.983          40.000  
  21363167.053     2822483.0023         30.000  
  22240787.748     2257431.3643         29.000  
  21530549.716    -1260595.0543         28.000  
  22773834.873    -1331662.804          51.000  
 13  7 18 12 20 44.0000000  0  4G25G12G14G31
  20202260.745      714367.566          40.000  
  21363883.559     2826228.8773         30.000  
  22241392.869     2260613.7532         30.000  
  22773587.132    -1332965.746          51.000  
 13  7 18 12 20 45.0000000  0  4G25G12G14G31
  20202496.917      715610.680          41.000  
  21364594.935     2829973.4613         30.000  
  22241998.776     2263794.9552         30.000  
  22773339.077    -1334270.303          51.000  
 13  7 18 12 20 46.0000000  0  4G25G12G14G31
  20202733.594      716853.077          40.000  
  21365303.065     2833716.7993         29.000  
  22242603.879     2266975.6043         30.000  
  22773090.202    -1335575.686          51.000  
 13  7 18 12 20 47.0000000  0  4G25G12G14G31
  20202970.690      718097.096          41.000  
  21366013.411     2837461.5363         29.000  
  22243209.367     2270157.9723         30.000  
  22772842.444    -1336879.619          51.000  
 13  7 18 12 20 48.0000000  0  4G25G12G14G31
  20203207.996      719343.015          41.000  
  21366724.315     2841208.3053         29.000  
  22243815.221     2273342.4573         30.000  
  22772594.686    -1338181.806          51.000  
 13  7 18 12 20 49.0000000  0  4G25G12G14G31
  20203444.551      720588.281          41.000  
  21367436.877     2844954.5233         29.000  
  22244420.587     2276526.4002         30.000  
  22772347.085    -1339484.814          51.000  
 13  7 18 12 20 50.0000000  0  4G25G12G14G31
  20203681.193      721832.313          41.000  
  21368148.881     2848698.9173         29.000  
  22245026.231     2279709.1812         30.000  
  22772098.401    -1340789.181          51.000  
 13  7 18 12 20 51.0000000  0  5G25G12G14G29G31
  20203918.551      723077.161          41.000  
  21368860.449     2852444.0353         29.000  
  22245630.812     2282893.0793         29.000  
  21528807.836    -1269777.5593         28.000  
  22771850.190    -1342092.866          51.000  
 13  7 18 12 20 52.0000000  0  4G25G14G29G31
  20204156.781      724325.272          41.000  
  22246237.399     2286080.3203         29.000  
  21528590.231    -1270921.5643         28.000  
  22771602.711    -1343393.439          51.000  
 13  7 18 12 20 53.0000000  0  4G25G14G29G31
  20204394.157      725573.557          41.000  
  22246843.375     2289267.9553         29.000  
  21528371.353    -1272065.3133         28.000  
  22771355.127    -1344694.005          51.000  
 13  7 18 12 20 54.0000000  0  4G25G14G29G31
  20204631.619      726821.073          41.000  
  22247449.107     2292454.9363         28.000  
  21528152.371    -1273209.7433         28.000  
  22771107.159    -1345995.482          51.000  
 13  7 18 12 20 55.0000000  0  3G25G14G31
  20204868.907      728068.926          41.000  
  22248054.752     2295642.2773         28.000  
  22770859.488    -1347296.804          51.000  
 13  7 18 12 20 56.0000000  0  3G25G14G31
  20205106.963      729318.131          41.000  
  22248661.426     2298831.2713         28.000  
  22770612.428    -1348596.890          51.000  
 13  7 18 12 20 57.0000000  0  3G25G14G31
  20205344.810      730568.813          41.000  
  22249268.344     2302021.9143         28.000  
  22770364.949    -1349895.653          51.000  
 13  7 18 12 20 58.0000000  0  3G25G14G31
  20205582.656      731819.320          41.000  
  22249875.263     2305212.5383         29.000  
  22770117.435    -1351194.741          51.000  
 13  7 18 12 20 59.0000000  0  3G25G14G31
  20205820.695      733068.760          41.000  
  22250482.269     2308402.1203         29.000  
  22769870.480    -1352495.027          51.000  
 13  7 18 12 21  0.0000000  0  3G25G14G31
  20206059.309      734319.491          41.000  
  22251089.589     2311593.1073         30.000  
  22769623.472    -1353794.170          51.000  
 13  7 18 12 21  1.0000000  0  3G25G14G31
  20206297.766      735573.565          41.000  
  22251698.235     2314787.8203         29.000  
  22769376.674    -1355090.131          52.000  
 13  7 18 12 21  2.0000000  0  3G25G14G31
  20206536.712      736827.575          41.000  
  22252305.904     2317982.5413         30.000  
  22769130.381    -1356386.301          52.000  
 13  7 18 12 21  3.0000000  0  3G25G14G31
  20206774.890      738080.001          41.000  
  22252913.154     2321175.9043         29.000  
  22768882.937    -1357684.213          51.000  
 13  7 18 12 21  4.0000000  0  3G25G14G31
  20207012.614      739332.664          41.000  
  22253521.346     2324369.4543         30.000  
  22768636.400    -1358982.007          51.000  
 13  7 18 12 21  5.0000000  0  3G25G14G31
  20207251.368      740587.256          41.000  
  22254129.591     2327565.1493         30.000  
  22768389.724    -1360278.040          51.000  
 13  7 18 12 21  6.0000000  0  3G25G14G31
  20207490.139      741842.646          41.000  
  22254738.464     2330761.7602         30.000  
  22768143.589    -1361573.425          52.000  
 13  7 18 12 21  7.0000000  0  3G25G14G31
  20207728.091      743098.229          40.000  
  22255347.320     2333958.7793         30.000  
  22767896.564    -1362868.757          52.000  
 13  7 18 12 21  8.0000000  0  4G25G12G14G31
  20207967.036      744353.739          40.000  
  21380993.725     2916202.2082         33.000  
  22255955.355     2337155.9313         30.000  
  22767650.062    -1364164.324          52.000  
 13  7 18 12 21  9.0000000  0  4G25G12G14G31
  20208205.633      745610.741          40.000  
  21381708.887     2919957.0142         33.000  
  22256564.071     2340354.7123         30.000  
  22767404.275    -1365458.519          52.000  
 13  7 18 12 21 10.0000000  0  4G25G12G14G31
  20208445.137      746870.518          40.000  
  21382423.805     2923714.4302         34.000  
  22257173.642     2343556.3872         30.000  
  22767157.826    -1366750.102          52.000  
 13  7 18 12 21 11.0000000  0  4G25G12G14G31
  20208684.834      748129.986          40.000  
  21383138.880     2927471.4322         33.000  
  22257782.916     2346757.9282         30.000  
  22766912.057    -1368042.120          52.000  
 13  7 18 12 21 12.0000000  0  4G25G12G14G31
  20208925.036      749388.347          41.000  
  21383853.711     2931227.1943         33.000  
  22258391.946     2349958.4633         30.000  
  22766665.678    -1369335.419          52.000  
 13  7 18 12 21 13.0000000  0  4G25G12G14G31
  20209165.343      750649.473          41.000  
  21384569.012     2934985.5442         33.000  
  22259001.448     2353161.9933         30.000  
  22766420.013    -1370626.111          52.000  
 13  7 18 12 21 14.0000000  0  4G25G12G14G31
  20209405.720      751912.904          41.000  
  21385284.890     2938746.0602         34.000  
  22259611.874     2356367.8813         30.000  
  22766174.908    -1371914.624          52.000  
 13  7 18 12 21 15.0000000  0  4G25G12G14G31
  20209646.096      753177.186          41.000  
  21386000.227     2942507.2962         34.000  
  22260222.841     2359574.7753         30.000  
  22765929.924    -1373202.427          52.000  
 13  7 18 12 21 16.0000000  0  4G25G12G14G31
  20209886.700      754440.752          41.000  
  21386715.459     2946267.7362         34.000  
  22260833.249     2362781.1972         31.000  
  22765684.801    -1374491.103          52.000  
 13  7 18 12 21 17.0000000  0  4G25G12G14G31
  20210127.024      755705.678          41.000  
  21387431.651     2950029.3022         33.000  
  22261444.094     2365989.0633         31.000  
  22765439.555    -1375778.577          52.000  
 13  7 18 12 21 18.0000000  0  4G25G12G14G31
  20210368.431      756972.680          41.000  
  21388146.953     2953792.8632         33.000  
  22262055.864     2369199.1472         31.000  
  22765195.689    -1377064.098          52.000  
 13  7 18 12 21 19.0000000  0  5G25G12G14G 4G31
  20210610.012      758240.956          41.000  
  21388863.406     2957557.5662         34.000  
  22262667.424     2372410.7572         31.000  
  23476510.276     2318195.6503         29.000  
  22764950.845    -1378348.470          52.000  
 13  7 18 12 21 20.0000000  0  5G25G12G14G 4G31
  20210851.400      759509.323          41.000  
  21389579.895     2961322.2162         34.000  
  22263279.159     2375622.5152         31.000  
  23477113.932     2321362.2513         30.000  
  22764706.437    -1379632.929          52.000  
 13  7 18 12 21 21.0000000  0  5G25G12G14G 4G31
  20211092.719      760776.876          41.000  
  21390295.720     2965085.9103         34.000  
  22263890.877     2378833.6102         31.000  
  23477720.903     2324528.0703         31.000  
  22764461.558    -1380918.354          52.000  
 13  7 18 12 21 22.0000000  0  5G25G12G14G 4G31
  20211333.916      762045.147          41.000  
  21391011.685     2968850.1842         34.000  
  22264502.245     2382045.6872         31.000  
  23478316.653     2327694.8953         31.000  
  22764217.517    -1382203.189          52.000  
 13  7 18 12 21 23.0000000  0  4G25G12G14G31
  20211576.108      763315.854          41.000  
  21391728.558     2972616.7822         34.000  
  22265113.823     2385260.2602         31.000  
  22763972.551    -1383485.717          52.000  
 13  7 18 12 21 24.0000000  0  4G25G12G14G31
  20211818.491      764585.913          41.000  
  21392444.749     2976382.5672         34.000  
  22265726.378     2388474.3072         32.000  
  22763728.719    -1384769.083          52.000  
 13  7 18 12 21 25.0000000  0  5G25G12G14G 4G31
  20212060.456      765855.229          42.000  
  21393161.308     2980147.4742         35.000  
  22266338.863     2391687.826          32.000  
  23480129.242     2337201.7233         29.000  
  22763484.520    -1386053.308          52.000  
 13  7 18 12 21 26.0000000  0  5G25G12G14G 4G31
  20212302.421      767124.852          42.000  
  21393878.023     2983912.4882         34.000  
  22266951.278     2394901.737          32.000  
  23480733.159     2340370.6892         30.000  
  22763240.217    -1387337.398          52.000  
 13  7 18 12 21 27.0000000  0  5G25G12G14G 4G31
  20212544.717      768396.576          42.000  
  21394594.895     2987679.5582         34.000  
  22267563.903     2398118.001          32.000  
  23481337.670     2343541.9372         31.000  
  22762996.595    -1388619.515          52.000  
 13  7 18 12 21 28.0000000  0  5G25G12G14G 4G31
  20212786.909      769669.138          42.000  
  21395311.785     2991447.3082         35.000  
  22268176.929     2401335.166          33.000  
  23481942.564     2346714.1853         31.000  
  22762752.344    -1389900.938          52.000  
 13  7 18 12 21 29.0000000  0  5G25G12G14G 4G31
  20213028.507      770940.689          42.000  
  21396028.588     2995213.8982         35.000  
  22268789.292     2404551.527          32.000  
  23482546.778     2349885.7623         30.000  
  22762508.198    -1391183.515          52.000  
 13  7 18 12 21 30.0000000  0  5G25G12G14G 4G31
  20213270.629      772212.164          42.000  
  21396745.425     2998980.2722         35.000  
  22269401.394     2407767.889          32.000  
  23483150.381     2353057.3583         30.000  
  22762263.930    -1392466.340          52.000  
 13  7 18 12 21 31.0000000  0  5G25G12G14G 4G31
  20213513.326      773485.072          42.000  
  21397462.507     3002747.901          35.000  
  22270013.914     2410985.902          32.000  
  23483754.228     2356230.5943         31.000  
  22762020.081    -1393747.849          52.000  
 13  7 18 12 21 32.0000000  0  5G25G12G14G 4G31
  20213755.640      774758.253          42.000  
  21398179.449     3006515.694          35.000  
  22270626.277     2414204.322          32.000  
  23484358.442     2359404.3402         31.000  
  22761776.022    -1395029.238          52.000  
 13  7 18 12 21 33.0000000  0  5G25G12G14G 4G31
  20213998.128      776030.826          42.000  
  21398895.886     3010282.788          35.000  
  22271238.884     2417422.264          31.000  
  23484962.743     2362577.7072         30.000  
  22761532.644    -1396311.380          52.000  
 13  7 18 12 21 34.0000000  0  5G25G12G14G 4G31
  20214239.727      777302.514          42.000  
  21399612.252     3014048.796          35.000  
  22271851.142     2420639.496          32.000  
  23485566.643     2365750.3332         31.000  
  22761288.306    -1397594.555          52.000  
 13  7 18 12 21 35.0000000  0  5G25G12G14G 4G31
  20214482.215      778575.837          42.000  
  21400329.700     3017816.304          35.000  
  22272463.069     2423858.525          32.000  
  23486171.083     2368924.8242         31.000  
  22761044.421    -1398876.234          52.000  
 13  7 18 12 21 36.0000000  0  5G25G12G14G 4G31
  20214724.511      779850.595          42.000  
  21401047.375     3021585.135          35.000  
  22273074.839     2427079.099          31.000  
  23486774.966     2372100.9193         31.000  
  22760800.869    -1400156.639          52.000  
 13  7 18 12 21 37.0000000  0  5G25G12G14G 4G31
  20214967.872      781124.764          42.000  
  21401764.021     3025353.255          35.000  
  22273687.813     2430299.3113         31.000  
  23487379.738     2375276.6863         31.000  
  22760556.758    -1401437.756          52.000  
 13  7 18 12 21 38.0000000  0  5G25G12G14G 4G31
  20215210.116      782398.330          42.000  
  21402480.178     3029120.598          35.000  
  22274301.083     2433519.0392         32.000  
  23487984.109     2378452.0092         31.000  
  22760313.030    -1402719.639          52.000  
 13  7 18 12 21 39.0000000  0  5G25G12G14G 4G31
  20215452.342      783673.499          42.000  
  21403197.242     3032889.371          35.000  
  22274913.568     2436740.2603         31.000  
  23488589.213     2381629.0942         31.000  
  22760069.530    -1404000.050          52.000  
 13  7 18 12 21 40.0000000  0  5G25G12G14G 4G31
  20215695.424      784952.442          42.000  
  21403914.882     3036661.814          34.000  
  22275527.153     2439965.7273         31.000  
  23489194.944     2384810.1842         30.000  
  22759826.292    -1405276.844          52.000  
 13  7 18 12 21 41.0000000  0  5G25G12G14G 4G31
  20215939.238      786232.917          42.000  
  21404631.982     3040435.649          34.000  
  22276141.226     2443192.8893         31.000  
  23489800.589     2387993.0623         30.000  
  22759583.262    -1406552.252          52.000  
 13  7 18 12 21 42.0000000  0  5G25G12G14G 4G31
  20216182.983      787512.408          41.000  
  21405349.761     3044208.346          35.000  
  22276754.933     2446419.1213         31.000  
  23490405.588     2391175.1683         30.000  
  22759341.193    -1407828.770          52.000  
 13  7 18 12 21 43.0000000  0  5G25G12G14G 4G31
  20216426.675      788791.830          41.000  
  21406067.297     3047980.843          34.000  
  22277368.500     2449645.4432         31.000  
  23491010.448     2394357.4393         29.000  
  22759097.727    -1409105.500          52.000  
 13  7 18 12 21 44.0000000  0  4G25G12G14G31
  20216670.106      790074.372          41.000  
  21406785.251     3051756.362          34.000  
  22277982.573     2452875.0732         31.000  
  22758855.588    -1410379.268          52.000  
 13  7 18 12 21 45.0000000  0  4G25G12G14G31
  20216914.444      791359.718          41.000  
  21407503.467     3055534.524          34.000  
  22278597.344     2456107.5562         31.000  
  22758613.240    -1411650.374          52.000  
 13  7 18 12 21 46.0000000  0  4G25G12G14G31
  20217159.148      792646.110          41.000  
  21408221.456     3059313.565          34.000  
  22279212.272     2459341.3013         30.000  
  22758371.606    -1412920.583          52.000  
 13  7 18 12 21 47.0000000  0  4G25G12G14G31
  20217404.899      793933.210          41.000  
  21408941.243     3063093.195          35.000  
  22279827.323     2462575.8613         29.000  
  22758130.532    -1414190.216          52.000  
 13  7 18 12 21 48.0000000  0  4G25G12G14G31
  20217650.127      795222.670          41.000  
  21409660.768     3066875.075          35.000  
  22280443.001     2465813.0363         30.000  
  22757889.317    -1415457.630          52.000  
 13  7 18 12 21 49.0000000  0  4G25G12G14G31
  20217896.141      796515.633          41.000  
  21410381.113     3070660.253          35.000  
  22281059.046     2469053.7623         30.000  
  22757647.981    -1416721.707          52.000  
 13  7 18 12 21 50.0000000  0  4G25G12G14G31
  20218142.415      797809.786          41.000  
  21411101.214     3074446.522          35.000  
  22281675.301     2472295.8493         30.000  
  22757408.075    -1417984.716          52.000  
 13  7 18 12 21 51.0000000  0  4G25G12G14G31
  20218388.586      799103.928          41.000  
  21411821.157     3078232.552          35.000  
  22282292.201     2475538.0712         29.000  
  22757167.419    -1419247.920          52.000  
 13  7 18 12 21 52.0000000  0  4G25G12G14G31
  20218635.367      800400.145          41.000  
  21412541.363     3082020.669          35.000  
  22282908.682     2478782.5523         29.000  
  22756927.444    -1420509.155          52.000  
 13  7 18 12 21 53.0000000  0  4G25G12G14G31
  20218883.072      801699.211          41.000  
  21413263.208     3085811.464          35.000  
  22283526.437     2482029.9083         29.000  
  22756687.818    -1421767.675          52.000  
 13  7 18 12 21 54.0000000  0  4G25G12G14G31
  20219130.464      803000.019          41.000  
  21413984.478     3089603.730          35.000  
  22284144.367     2485279.3243         29.000  
  22756448.540    -1423024.625          52.000  
 13  7 18 12 21 55.0000000  0  4G25G12G14G31
  20219378.170      804300.988          41.000  
  21414706.324     3093396.139          35.000  
  22284762.314     2488528.9282         29.000  
  22756209.245    -1424281.547          52.000  
 13  7 18 12 21 56.0000000  0  4G25G12G14G31
  20219625.405      805602.538          41.000  
  21415428.187     3097188.992          35.000  
  22285380.488     2491779.3053         29.000  
  22755970.596    -1425538.026          52.000  
 13  7 18 12 21 57.0000000  0  4G25G12G14G31
  20219873.547      806906.688          41.000  
  21416150.731     3100984.259          35.000  
  22285999.081     2495032.4403         29.000  
  22755731.842    -1426792.075          52.000  
 13  7 18 12 21 58.0000000  0  4G25G12G14G31
  20220122.544      808213.325          41.000  
  21416874.252     3104781.904          35.000  
  22286618.581     2498288.2773         30.000  
  22755493.629    -1428043.745          52.000  
 13  7 18 12 21 59.0000000  0  4G25G12G14G31
  20220371.454      809520.222          41.000  
  21417596.586     3108579.6373         34.000  
  22287237.889     2501544.4333         29.000  
  22755255.626    -1429295.330          52.000  
 13  7 18 12 22  0.0000000  0  4G25G12G14G31
  20220620.416      810826.644          41.000  
  21418319.356     3112376.7772         34.000  
  22287857.477     2504800.3073         29.000  
  22755017.186    -1430547.512          52.000  
 13  7 18 12 22  1.0000000  0  4G25G12G14G31
  20220868.890      812134.952          41.000  
  21419041.953     3116175.6172         34.000  
  22288477.291     2508058.0993         29.000  
  22754779.217    -1431797.965          52.000  
 13  7 18 12 22  2.0000000  0  4G25G12G14G31
  20221118.637      813445.590          41.000  
  21419765.299     3119976.7152         34.000  
  22289097.001     2511318.5203         29.000  
  22754541.929    -1433046.223          52.000  
 13  7 18 12 22  3.0000000  0  4G25G12G14G31
  20221368.245      814757.470          41.000  
  21420488.628     3123778.9342         34.000  
  22289718.124     2514580.2383         30.000  
  22754304.205    -1434293.372          52.000  
 13  7 18 12 22  4.0000000  0  5G25G12G14G 2G31
  20221617.661      816069.590          41.000  
  21421211.782     3127581.2102         34.000  
  22290338.496     2517842.4143         30.000  
  22792687.320      477012.3013         29.000  
  22754067.126    -1435540.444          52.000  
 13  7 18 12 22  5.0000000  0  5G25G12G14G 2G31
  20221867.601      817383.052          41.000  
  21421934.867     3131384.7352         34.000  
  22290959.899     2521106.0643         30.000  
  22792877.527      478011.6313         30.000  
  22753830.205    -1436786.310          52.000  
 13  7 18 12 22  6.0000000  0  5G25G12G14G 2G31
  20222118.186      818698.856          41.000  
  21422659.540     3135190.4172         34.000  
  22291581.196     2524372.1282         30.000  
  22793067.368      479013.9633         30.000  
  22753593.876    -1438030.000          52.000  
 13  7 18 12 22  7.0000000  0  5G25G12G14G 2G31
  20222368.090      820015.962          41.000  
  21423383.253     3138997.239          35.000  
  22292202.965     2527639.7052         30.000  
  22793259.460      480017.6803         29.000  
  22753356.833    -1439272.514          52.000  
 13  7 18 12 22  8.0000000  0  5G25G12G14G 2G31
  20222617.960      821332.221          41.000  
  21424108.588     3142803.151          34.000  
  22292823.966     2530906.5943         30.000  
  22793450.017      481020.6153         29.000  
  22753120.609    -1440516.013          52.000  
 13  7 18 12 22  9.0000000  0  5G25G12G14G 2G31
  20222868.301      822648.707          41.000  
  21424832.388     3146609.113          34.000  
  22293446.432     2534173.8943         30.000  
  22793644.290      482024.0282         30.000  
  22752883.862    -1441759.407          52.000  
 13  7 18 12 22 10.0000000  0  5G25G12G14G 2G31
  20223119.828      823967.218          41.000  
  21425556.782     3150416.939          34.000  
  22294069.353     2537443.3032         31.000  
  22793832.019      483029.6423         30.000  
  22752647.307    -1443000.948          52.000  
 13  7 18 12 22 11.0000000  0  5G25G12G14G 2G31
  20223371.583      825288.512          41.000  
  21426281.821     3154227.413          34.000  
  22294692.151     2540715.6673         31.000  
  22794020.726      484038.1623         30.000  
  22752411.485    -1444239.836          52.000  
 13  7 18 12 22 12.0000000  0  5G25G12G14G 2G31
  20223623.285      826610.990          41.000  
  21427006.878     3158038.914          34.000  
  22295315.403     2543989.4113         30.000  
  22794211.998      485047.9422         30.000  
  22752175.854    -1445477.705          52.000  
 13  7 18 12 22 13.0000000  0  5G25G12G14G 2G31
  20223875.388      827933.427          41.000  
  21427732.248     3161850.273          34.000  
  22295938.411     2547263.1842         30.000  
  22794404.613      486057.9493         29.000  
  22751940.346    -1446715.721          52.000  
 13  7 18 12 22 14.0000000  0  5G25G12G14G 2G31
  20224127.177      829256.819          41.000  
  21428457.933     3165662.433          34.000  
  22296561.227     2550538.1273         30.000  
  22794596.985      487069.0463         30.000  
  22751704.664    -1447952.922          52.000  
 13  7 18 12 22 15.0000000  0  5G25G12G14G 2G31
  20224379.019      830582.632          41.000  
  21429184.246     3169476.834          34.000  
  22297185.142     2553815.5622         30.000  
  22794790.298      488082.6553         30.000  
  22751469.853    -1449187.882          52.000  
 13  7 18 12 22 16.0000000  0  5G25G12G14G 2G31
  20224631.296      831910.512          41.000  
  21429911.152     3173293.235          34.000  
  22297809.318     2557095.2762         30.000  
  22794985.147      489098.5052         31.000  
  22751235.410    -1450420.879          52.000  
 13  7 18 12 22 17.0000000  0  5G25G12G14G 2G31
  20224885.180      833238.106          41.000  
  21430637.570     3177109.171          34.000  
  22298432.605     2560374.8092         30.000  
  22795178.740      490114.1932         31.000  
  22751000.704    -1451654.334          52.000  
 13  7 18 12 22 18.0000000  0  5G25G12G14G 2G31
  20225137.405      834564.582          41.000  
  21431363.586     3180923.804          33.000  
  22299056.817     2563653.4462         30.000  
  22795372.403      491128.9823         31.000  
  22750766.086    -1452889.024          52.000  
 13  7 18 12 22 19.0000000  0  5G25G12G14G 2G31
  20225389.962      835893.201          41.000  
  21432090.021     3184740.520          32.000  
  22299681.099     2566934.3353         30.000  
  22795566.362      492146.0052         31.000  
  22750531.032    -1454121.709          52.000  
 13  7 18 12 22 20.0000000  0  5G25G12G14G 2G31
  20225642.903      837224.820          41.000  
  21432817.730     3188560.074          33.000  
  22300306.549     2570218.2383         30.000  
  22795760.949      493166.2122         32.000  
  22750297.269    -1455351.559          52.000  
 13  7 18 12 22 21.0000000  0  5G25G12G14G 2G31
  20225896.036      838557.179          41.000  
  21433544.898     3192380.184          33.000  
  22300931.616     2573503.2053         31.000  
  22795955.205      494187.3122         31.000  
  22750063.279    -1456580.802          52.000  
 13  7 18 12 22 22.0000000  0  5G25G12G14G 2G31
  20226148.942      839889.433          40.000  
  21434271.630     3196200.0693         33.000  
  22301556.892     2576788.1592         31.000  
  22796149.391      495208.4583         31.000  
  22749829.079    -1457810.278          52.000  
 13  7 18 12 22 23.0000000  0  5G25G12G14G 2G31
  20226401.918      841221.857          40.000  
  21434998.746     3200019.9712         33.000  
  22302182.378     2580073.4383         31.000  
  22796343.245      496229.9602         31.000  
  22749594.705    -1459039.749          52.000  
 13  7 18 12 22 24.0000000  0  5G25G12G14G 2G31
  20226655.434      842556.365          40.000  
  21435726.594     3203841.8183         33.000  
  22302808.492     2583360.9512         31.000  
  22796537.606      497253.6512         31.000  
  22749361.378    -1460267.255          52.000  
 13  7 18 12 22 25.0000000  0  5G25G12G14G 2G31
  20226909.789      843893.279          40.000  
  21436453.832     3207665.9272         33.000  
  22303434.169     2586650.9743         31.000  
  22796732.891      498279.9473         29.000  
  22749128.523    -1461492.521          52.000  
 13  7 18 12 22 26.0000000  0  4G25G12G14G31
  20227164.161      845230.924          40.000  
  21437181.384     3211490.6772         32.000  
  22304060.353     2589941.8132         30.000  
  22748895.144    -1462717.172          52.000  
 13  7 18 12 22 27.0000000  0  4G25G12G14G31
  20227419.265      846569.059          40.000  
  21437909.512     3215315.7692         33.000  
  22304686.816     2593233.4623         30.000  
  22748662.515    -1463941.486          52.000  
 13  7 18 12 22 28.0000000  0  4G25G12G14G31
  20227674.422      847908.990          40.000  
  21438638.896     3219142.4792         33.000  
  22305313.488     2596527.0172         31.000  
  22748429.485    -1465164.150          52.000  
 13  7 18 12 22 29.0000000  0  5G25G12G14G 2G31
  20227929.527      849251.714          40.000  
  21439367.739     3222971.8582         32.000  
  22305940.509     2599823.3842         31.000  
  22797516.266      502397.2363         29.000  
  22748197.536    -1466384.186          52.000  
 13  7 18 12 22 30.0000000  0  5G25G12G14G 2G31
  20228185.260      850595.342          40.000  
  21440097.385     3226802.0413         32.000  
  22306568.473     2603120.9702         31.000  
  22797712.355      503431.1043         30.000  
  22747965.815    -1467603.394          52.000  
 13  7 18 12 22 31.0000000  0  4G25G12G14G31
  20228441.133      851938.282          40.000  
  21440826.927     3230631.2982         33.000  
  22307195.302     2606417.8672         31.000  
  22747733.395    -1468823.477          52.000  
 13  7 18 12 22 32.0000000  0  4G25G12G14G31
  20228697.267      853282.425          40.000  
  21441556.485     3234461.7112         33.000  
  22307822.777     2609716.1683         31.000  
  22747501.569    -1470042.499          52.000  
 13  7 18 12 22 33.0000000  0  5G25G12G14G 2G31
  20228953.715      854629.445          40.000  
  21442286.358     3238294.7732         32.000  
  22308450.985     2613017.4573         31.000  
  22798303.236      506536.4913         29.000  
  22747270.075    -1471258.763          52.000  
 13  7 18 12 22 34.0000000  0  4G25G12G14G31
  20229211.054      855978.562          40.000  
  21443016.301     3242129.7792         32.000  
  22309079.454     2616321.0393         31.000  
  22747038.807    -1472473.084          52.000  
 13  7 18 12 22 35.0000000  0  6G25G12G14G 2G 4G31
  20229468.060      857328.133          40.000  
  21443746.226     3245965.2122         31.000  
  22309708.447     2619625.1963         30.000  
  22798698.309      508616.8953         29.000  
  23522938.640     2562079.2423         29.000  
  22746807.661    -1473687.079          52.000  
 13  7 18 12 22 36.0000000  0  6G25G12G14G 2G 4G31
  20229724.858      858678.201          40.000  
  21444477.372     3249800.9252         31.000  
  22310337.249     2622929.9873         30.000  
  22798895.916      509657.9673         29.000  
  23523557.163     2565342.5873         29.000  
  22746576.812    -1474900.744          52.000  
 13  7 18 12 22 37.0000000  0  6G25G12G14G 2G 4G31
  20229982.493      860030.107          40.000  
  21445207.804     3253638.384          31.000  
  22310966.608     2626236.7903         29.000  
  22799094.429      510701.0983         29.000  
  23524178.809     2568608.1433         30.000  
  22746346.016    -1476112.699          52.000  
 13  7 18 12 22 38.0000000  0  5G25G12G14G 4G31
  20230240.058      861384.547          40.000  
  21445939.736     3257478.1833         30.000  
  22311596.020     2629546.2852         29.000  
  23524804.644     2571876.5403         30.000  
  22746115.847    -1477322.253          52.000  
 13  7 18 12 22 39.0000000  0  5G25G12G14G 4G31
  20230498.060      862739.442          41.000  
  21446671.633     3261318.3143         31.000  
  22312224.856     2632856.2883         29.000  
  23525424.458     2575145.4643         29.000  
  22745885.714    -1478531.497          52.000  
 13  7 18 12 22 40.0000000  0  5G25G12G14G 2G31
  20230755.538      864094.438          41.000  
  21447403.477     3265158.3023         31.000  
  22312854.425     2636166.5963         30.000  
  22799690.058      513839.4613         29.000  
  22745655.668    -1479740.782          52.000  
 13  7 18 12 22 41.0000000  0  4G25G12G14G31
  20231013.539      865450.946          41.000  
  21448135.217     3268999.7423         29.000  
  22313485.442     2639478.5772         30.000  
  22745425.674    -1480948.692          52.000  
 13  7 18 12 22 42.0000000  0  4G25G12G14G31
  20231273.059      866809.706          41.000  
  21448867.708     3272843.3623         29.000  
  22314115.831     2642792.8793         29.000  
  22745196.273    -1482154.479          52.000  
 13  7 18 12 22 43.0000000  0  5G25G12G14G 4G31
  20231531.915      868169.908          41.000  
  21449600.948     3276688.2523         29.000  
  22314747.442     2646108.8993         29.000  
  23527916.315     2588233.9013         30.000  
  22744966.960    -1483358.976          52.000  
 13  7 18 12 22 44.0000000  0  4G25G12G 4G31
  20231790.684      869530.446          41.000  
  21450334.765     3280533.3513         29.000  
  23528539.375     2591509.5453         31.000  
  22744737.891    -1484563.266          52.000  
 13  7 18 12 22 45.0000000  0  5G25G12G14G 4G31
  20232050.204      870892.230          41.000  
  21451067.744     3284378.4673         29.000  
  22316009.372     2652743.1483         29.000  
  23529158.927     2594786.6713         31.000  
  22744509.014    -1485766.448          52.000  
 13  7 18 12 22 46.0000000  0  4G25G14G 4G31
  20232309.602      872256.310          41.000  
  22316641.489     2656063.3653         30.000  
  23529784.779     2598066.1732         32.000  
  22744280.608    -1486967.476          52.000  
 13  7 18 12 22 47.0000000  0  4G25G14G 4G31
  20232569.557      873622.605          41.000  
  22317273.291     2659386.0943         30.000  
  23530412.847     2601348.1112         33.000  
  22744052.132    -1488166.429          52.000  
 13  7 18 12 22 48.0000000  0  4G25G14G 4G31
  20232829.444      874988.113          41.000  
  22317905.513     2662707.9943         29.000  
  23531035.332     2604629.4382         33.000  
  22743824.128    -1489366.317          52.000  
 13  7 18 12 22 49.0000000  0  4G25G14G 4G31
  20233090.063      876352.905          41.000  
  22318538.345     2666029.4362         30.000  
  23531660.241     2607910.2802         33.000  
  22743595.408    -1490567.032          52.000  
 13  7 18 12 22 50.0000000  0  4G25G14G 4G31
  20233349.984      877719.356          41.000  
  22319170.863     2669352.7173         29.000  
  23532285.134     2611192.9472         33.000  
  22743367.107    -1491766.257          52.000  
 13  7 18 12 22 51.0000000  0  4G25G14G 4G31
  20233609.852      879087.824          41.000  
  22319803.852     2672677.9973         29.000  
  23532909.206     2614477.8673         33.000  
  22743139.189    -1492963.574          52.000  
 13  7 18 12 22 52.0000000  0  4G25G14G 4G31
  20233870.157      880456.620          41.000  
  22320437.260     2676003.9103         29.000  
  23533534.220     2617763.2812         33.000  
  22742911.551    -1494160.734          52.000  
 13  7 18 12 22 53.0000000  0  4G25G14G 4G31
  20234130.619      881824.717          41.000  
  22321070.424     2679329.1433         30.000  
  23534159.095     2621048.2252         33.000  
  22742683.773    -1495358.710          52.000  
 13  7 18 12 22 54.0000000  0  4G25G14G 4G31
  20234391.622      883195.362          41.000  
  22321703.500     2682657.0912         30.000  
  23534784.842     2624335.8742         33.000  
  22742456.240    -1496554.296          52.000  
 13  7 18 12 22 55.0000000  0  4G25G14G 4G31
  20234652.520      884568.815          41.000  
  22322336.943     2685987.9962         30.000  
  23535411.323     2627626.5472         34.000  
  22742229.248    -1497747.198          52.000  
 13  7 18 12 22 56.0000000  0  4G25G14G 4G31
  20234913.994      885942.542          41.000  
  22322971.887     2689319.3812         29.000  
  23536037.803     2630917.7122         33.000  
  22742002.430    -1498939.974          52.000  
 13  7 18 12 22 57.0000000  0  4G25G14G 4G31
  20235174.526      887314.839          41.000  
  22323605.661     2692649.5112         29.000  
  23536663.131     2634207.5612         33.000  
  22741774.861    -1500134.325          52.000  
 13  7 18 12 22 58.0000000  0  4G25G14G 4G31
  20235435.529      888686.160          41.000  
  22324239.663     2695978.7323         29.000  
  23537288.477     2637496.7292         33.000  
  22741547.485    -1501329.761          52.000  
 13  7 18 12 22 59.0000000  0  4G25G14G 4G31
  20235696.671      890059.211          41.000  
  22324873.489     2699309.8313         29.000  
  23537914.085     2640787.7852         33.000  
  22741319.969    -1502523.632          52.000  
 13  7 18 12 23  0.0000000  0  3G25G 4G31
  20235958.215      891432.815          41.000  
  23538540.356     2644079.6292         33.000  
  22741092.698    -1503717.072          52.000  
 13  7 18 12 23  1.0000000  0  4G25G14G 4G31
  20236219.864      892804.829          41.000  
  22326141.684     2705971.9672         29.000  
  23539167.011     2647369.509          34.000  
  22740865.705    -1504912.244          52.000  
 13  7 18 12 23  2.0000000  0  4G25G14G 4G31
  20236480.343      894175.168          41.000  
  22326774.376     2709300.7953         29.000  
  23539793.247     2650658.431          33.000  
  22740637.631    -1506109.256          52.000  
 13  7 18 12 23  3.0000000  0  4G25G14G 4G31
  20236741.957      895547.297          41.000  
  22327408.029     2712631.5763         29.000  
  23540419.361     2653949.319          34.000  
  22740409.871    -1507304.611          52.000  
 13  7 18 12 23  4.0000000  0  4G25G 2G 4G31
  20237003.989      896922.321          41.000  
  22804544.359      539312.5023         30.000  
  23541046.487     2657243.386          34.000  
  22740183.279    -1508497.176          52.000  
 13  7 18 12 23  5.0000000  0  4G25G 2G 4G31
  20237265.411      898297.511          41.000  
  22804751.964      540383.3153         30.000  
  23541673.543     2660537.755          34.000  
  22739956.880    -1509689.726          52.000  
 13  7 18 12 23  6.0000000  0  5G25G14G 2G 4G31
  20237527.164      899671.753          41.000  
  22329311.045     2722632.9033         29.000  
  22804954.858      541453.2783         29.000  
  23542299.709     2663831.394          33.000  
  22739729.556    -1510883.386          52.000  
 13  7 18 12 23  7.0000000  0  4G25G 2G 4G31
  20237787.609      901044.998          41.000  
  22805153.668      542522.3222         30.000  
  23542927.009     2667124.247          34.000  
  22739502.180    -1512078.162          52.000  
 13  7 18 12 23  8.0000000  0  4G25G 2G 4G31
  20238049.659      902419.721          41.000  
  22805358.394      543593.0313         29.000  
  23543554.188     2670418.729          34.000  
  22739275.135    -1513271.594          52.000  
 13  7 18 12 23  9.0000000  0  5G25G14G 2G 4G31
  20238311.674      903796.088          41.000  
  22331214.933     2732635.3433         29.000  
  22805564.761      544665.5913         29.000  
  23544181.139     2673715.110          33.000  
  22739048.352    -1514463.531          52.000  
 13  7 18 12 23 10.0000000  0  5G25G14G 2G 4G31
  20238572.624      905171.204          41.000  
  22331849.842     2735970.1203         29.000  
  22805768.317      545737.0953         29.000  
  23544808.631     2677010.410          34.000  
  22738821.063    -1515656.845          52.000  
 13  7 18 12 23 11.0000000  0  5G25G14G 2G 4G31
  20238834.325      906545.452          41.000  
  22332484.280     2739304.0153         29.000  
  22805971.054      546807.6883         30.000  
  23545435.967     2680304.994          34.000  
  22738593.966    -1516851.196          52.000  
 13  7 18 12 23 12.0000000  0  5G25G14G 2G 4G31
  20239096.480      907922.103          41.000  
  22333119.014     2742640.5913         29.000  
  22806175.117      547880.9643         30.000  
  23546063.319     2683602.209          34.000  
  22738366.956    -1518043.246          52.000  
 13  7 18 12 23 13.0000000  0  5G25G14G 2G 4G31
  20239359.071      909300.420          41.000  
  22333754.167     2745978.9853         29.000  
  22806379.494      548956.0863         30.000  
  23546691.684     2686901.317          34.000  
  22738140.051    -1519233.798          52.000  
 13  7 18 12 23 14.0000000  0  5G25G14G 2G 4G31
  20239621.190      910677.242          41.000  
  22334389.233     2749316.0563         29.000  
  22806583.103      550029.9563         30.000  
  23547318.636     2690199.113          33.000  
  22737913.425    -1520425.971          52.000  
 13  7 18 12 23 15.0000000  0  6G25G12G14G 2G 4G31
  20239882.228      912052.480          41.000  
  21473056.850     3399976.1233         33.000  
  22335024.159     2752651.7463         29.000  
  22806786.572      551102.3072         30.000  
  23547945.500     2693495.554          34.000  
  22737686.607    -1521619.844          52.000  
 13  7 18 12 23 16.0000000  0  6G25G12G14G 2G 4G31
  20240144.400      913428.216          41.000  
  21473789.079     3403831.8082         33.000  
  22335659.260     2755987.9673         29.000  
  22806990.077      552175.2903         30.000  
  23548572.940     2696792.601          33.000  
  22737459.632    -1522813.367          52.000  
 13  7 18 12 23 17.0000000  0  5G25G12G 2G 4G31
  20240406.642      914806.489          41.000  
  21474526.368     3407689.9302         34.000  
  22807194.053      553251.0342         30.000  
  23549201.497     2700092.447          33.000  
  22737232.832    -1524004.506          52.000  
 13  7 18 12 23 18.0000000  0  5G25G12G 2G 4G31
  20240669.285      916185.945          41.000  
  21475262.244     3411549.0332         34.000  
  22807398.220      554328.0382         30.000  
  23549830.141     2703393.655          32.000  
  22737006.275    -1525194.583          52.000  
 13  7 18 12 23 19.0000000  0  5G25G12G 2G 4G31
  20240931.649      917565.102          41.000  
  21475995.397     3415407.7022         35.000  
  22807602.667      555404.9283         29.000  
  23550457.721     2706694.780          33.000  
  22736779.545    -1526385.100          52.000  
 13  7 18 12 23 20.0000000  0  5G25G12G 2G 4G31
  20241194.118      918944.755          41.000  
  21476730.156     3419266.7382         35.000  
  22807806.817      556482.5162         30.000  
  23551086.051     2709996.540          33.000  
  22736553.303    -1527575.268          52.000  
 13  7 18 12 23 21.0000000  0  5G25G12G 2G 4G31
  20241456.674      920326.588          41.000  
  21477464.618     3423127.8292         34.000  
  22808012.398      557562.3123         30.000  
  23551715.497     2713300.734          33.000  
  22736326.834    -1528763.384          52.000  
 13  7 18 12 23 22.0000000  0  5G25G12G 2G 4G31
  20241720.225      921710.405          41.000  
  21478200.128     3426990.7422         35.000  
  22808217.700      558644.3373         29.000  
  23552345.590     2716607.046          32.000  
  22736101.482    -1529949.651          52.000  
 13  7 18 12 23 23.0000000  0  5G25G12G 2G 4G31
  20241983.409      923094.419          41.000  
  21478935.585     3430853.6942         35.000  
  22808423.263      559726.7542         30.000  
  23552975.333     2719913.812          32.000  
  22735876.007    -1531135.854          52.000  
 13  7 18 12 23 24.0000000  0  5G25G12G 2G 4G31
  20242246.611      924477.508          41.000  
  21479670.745     3434715.5912         35.000  
  22808629.158      560808.3193         30.000  
  23553605.216     2723219.790          33.000  
  22735649.643    -1532323.138          52.000  
 13  7 18 12 23 25.0000000  0  5G25G12G 2G 4G31
  20242510.091      925862.589          41.000  
  21480405.748     3438579.3972         35.000  
  22808835.019      561892.1283         31.000  
  23554235.222     2726528.055          33.000  
  22735424.256    -1533508.514          52.000  
 13  7 18 12 23 26.0000000  0  5G25G12G 2G 4G31
  20242774.776      927250.855          41.000  
  21481142.234     3442446.1422         35.000  
  22809042.554      562979.1063         31.000  
  23554865.977     2729839.602          33.000  
  22735199.096    -1534690.902          52.000  
 13  7 18 12 23 27.0000000  0  5G25G12G 2G 4G31
  20243039.234      928640.472          41.000  
  21481879.070     3446314.1542         36.000  
  22809249.601      564067.7862         31.000  
  23555496.314     2733152.772          33.000  
  22734974.442    -1535872.031          52.000  
 13  7 18 12 23 28.0000000  0  5G25G12G 2G 4G31
  20243303.553      930029.761          41.000  
  21482614.806     3450181.6892         36.000  
  22809457.311      565156.1883         30.000  
  23556126.267     2736465.760          33.000  
  22734749.666    -1537053.641          52.000  
 13  7 18 12 23 29.0000000  0  6G25G12G14G 2G 4G31
  20243567.784      931418.771          41.000  
  21483351.414     3454048.7972         36.000  
  22343934.135     2799477.2933         29.000  
  22809663.677      566244.4582         30.000  
  23556757.127     2739778.624          32.000  
  22734524.907    -1538235.665          52.000  
 13  7 18 12 23 30.0000000  0  6G25G12G14G 2G 4G31
  20243832.521      932809.814          41.000  
  21484087.395     3457917.8262         36.000  
  22344570.667     2802830.7243         29.000  
  22809870.968      567334.9432         30.000  
  23557388.127     2743094.2623         32.000  
  22734299.729    -1539415.776          52.000  
 13  7 18 12 23 31.0000000  0  6G25G12G14G 2G 4G31
  20244097.363      934202.806          41.000  
  21484824.265     3461788.6312         36.000  
  22345211.125     2806186.4083         29.000  
  22810078.469      568427.5642         30.000  
  23558019.214     2746411.6342         31.000  
  22734075.284    -1540594.099          52.000  
 13  7 18 12 23 32.0000000  0  6G25G12G14G 2G 4G31
  20244362.362      935595.718          41.000  
  21485560.263     3465659.1772         36.000  
  22345850.117     2809542.2323         29.000  
  22810285.585      569520.2083         30.000  
  23558650.353     2749729.0213         31.000  
  22733850.805    -1541772.658          52.000  
 13  7 18 12 23 33.0000000  0  6G25G12G14G 2G 4G31
  20244627.640      936988.716          41.000  
  21486297.221     3469529.7202         36.000  
  22346490.365     2812897.9733         29.000  
  22810493.609      570613.1222         31.000  
  23559280.882     2753046.6842         31.000  
  22733627.512    -1542951.239          52.000  
 13  7 18 12 23 34.0000000  0  6G25G12G14G 2G 4G31
  20244893.337      938384.038          41.000  
  21487034.614     3473402.4132         36.000  
  22347129.288     2816256.2683         29.000  
  22810701.791      571708.4712         31.000  
  23559912.458     2756366.8732         31.000  
  22733403.521    -1544127.668          52.000  
 13  7 18 12 23 35.0000000  0  6G25G12G14G 2G 4G31
  20245159.767      939782.444          41.000  
  21487772.375     3477278.0462         35.000  
  22347767.617     2819617.9883         29.000  
  22810910.617      572807.1083         32.000  
  23560545.552     2759690.3542         31.000  
  22733180.315    -1545301.115          52.000  
 13  7 18 12 23 36.0000000  0  6G25G12G14G 2G 4G31
  20245425.883      941180.832          41.000  
  21488509.350     3481153.4942         34.000  
  22348408.912     2822979.7763         30.000  
  22811120.299      573905.9182         33.000  
  23561178.401     2763014.0112         31.000  
  22732956.865    -1546474.709          52.000  
 13  7 18 12 23 37.0000000  0  6G25G12G14G 2G 4G31
  20245691.912      942578.151          41.000  
  21489246.412     3485027.248          34.000  
  22349048.114     2826340.6433         30.000  
  22811328.568      575003.7532         34.000  
  23561810.832     2766336.8782         30.000  
  22732733.816    -1547649.528          52.000  
 13  7 18 12 23 38.0000000  0  6G25G12G14G 2G 4G31
  20245958.028      943975.982          41.000  
  21489983.771     3488901.903          35.000  
  22349686.757     2829701.9723         30.000  
  22811538.668      576102.2292         33.000  
  23562443.437     2769660.3483         30.000  
  22732510.331    -1548823.971          52.000  
 13  7 18 12 23 39.0000000  0  6G25G12G14G 2G 4G31
  20246224.772      945376.691          41.000  
  21490721.305     3492779.277          35.000  
  22350327.895     2833066.4133         30.000  
  22811749.100      577203.7892         33.000  
  23563076.147     2772986.9562         29.000  
  22732287.335    -1549995.657          52.000  
 13  7 18 12 23 40.0000000  0  6G25G12G14G 2G 4G31
  20246491.987      946778.590          41.000  
  21491459.449     3496657.712          34.000  
  22350967.620     2836432.2733         29.000  
  22811959.341      578306.7252         34.000  
  23563708.753     2776314.9632         30.000  
  22732064.548    -1551166.305          52.000  
 13  7 18 12 23 41.0000000  0  6G25G12G14G 2G 4G31
  20246758.487      948179.795          41.000  
  21492197.314     3500535.275          35.000  
  22351607.153     2839797.6343         29.000  
  22812169.546      579409.0722         33.000  
  23564341.341     2779642.3882         31.000  
  22731841.569    -1552337.775          52.000  
 13  7 18 12 23 42.0000000  0  6G25G12G14G 2G 4G31
  20247025.213      949581.125          41.000  
  21492934.812     3504412.863          35.000  
  22352248.065     2843162.9263         29.000  
  22812379.594      580511.7432         33.000  
  23564975.115     2782970.1862         31.000  
  22731618.556    -1553509.247          52.000  
 13  7 18 12 23 43.0000000  0  5G25G12G 2G 4G31
  20247292.359      950984.259          42.000  
  21493673.026     3508292.050          35.000  
  22812590.724      581615.828          34.000  
  23565609.413     2786299.9882         32.000  
  22731396.048    -1554679.061          52.000  
 13  7 18 12 23 44.0000000  0  5G25G12G 2G 4G31
  20247560.062      952389.609          41.000  
  21494411.066     3512173.320          35.000  
  22812801.575      582722.823          33.000  
  23566243.624     2789632.1712         32.000  
  22731173.558    -1555846.784          52.000  
 13  7 18 12 23 45.0000000  0  5G25G12G 2G 4G31
  20247827.522      953795.314          42.000  
  21495149.699     3516054.820          35.000  
  22813012.217      583830.262          33.000  
  23566878.026     2792964.8772         32.000  
  22730951.364    -1557014.302          52.000  
 13  7 18 12 23 46.0000000  0  5G25G12G 2G 4G31
  20248094.440      955200.127          41.000  
  21495887.616     3519935.278          34.000  
  22813222.876      584937.5343         32.000  
  23567512.010     2796296.9772         31.000  
  22730729.066    -1558182.844          52.000  
 13  7 18 12 23 47.0000000  0  5G25G12G 2G 4G31
  20248362.580      956606.384          41.000  
  21496625.865     3523817.052          34.000  
  22813433.238      586045.9162         32.000  
  23568145.575     2799630.7252         32.000  
  22730507.570    -1559350.054          52.000  
 13  7 18 12 23 48.0000000  0  5G25G12G 2G 4G31
  20248630.616      958015.103          41.000  
  21497365.213     3527701.132          34.000  
  22813643.827      587156.8452         32.000  
  23568780.414     2802967.0222         32.000  
  22730285.359    -1560514.968          52.000  
 13  7 18 12 23 49.0000000  0  5G25G12G 2G 4G31
  20248897.656      959424.930          41.000  
  21498103.811     3531586.173          34.000  
  22813855.499      588269.1652         31.000  
  23569415.096     2806304.176          33.000  
  22730063.951    -1561678.897          52.000  
 13  7 18 12 23 50.0000000  0  5G25G12G 2G 4G31
  20249166.041      960834.621          41.000  
  21498843.945     3535470.930          34.000  
  22814066.838      589381.3903         31.000  
  23570050.162     2809641.873          33.000  
  22729842.350    -1562843.112          52.000  
 13  7 18 12 23 51.0000000  0  5G25G12G 2G 4G31
  20249434.443      962243.622          41.000  
  21499584.096     3539354.842          34.000  
  22814277.759      590493.1212         31.000  
  23570685.280     2812979.055          33.000  
  22729620.750    -1564008.131          52.000  
 13  7 18 12 23 52.0000000  0  5G25G12G 2G 4G31
  20249703.124      963653.914          41.000  
  21500323.496     3543239.946          34.000  
  22814489.186      591606.2632         31.000  
  23571320.817     2816317.725          33.000  
  22729399.219    -1565172.005          52.000  
 13  7 18 12 23 53.0000000  0  5G25G12G 2G 4G31
  20249972.206      965066.765          41.000  
  21501063.124     3547127.387          33.000  
  22814701.346      592722.1192         31.000  
  23571956.022     2819659.141          34.000  
  22729178.736    -1566333.465          52.000  
 13  7 18 12 23 54.0000000  0  5G25G12G 2G 4G31
  20250241.009      966480.203          41.000  
  21501802.350     3551015.309          33.000  
  22814914.325      593838.7823         31.000  
  23572590.966     2823001.328          34.000  
  22728957.415    -1567494.449          52.000  
 13  7 18 12 23 55.0000000  0  5G25G12G 2G 4G31
  20250509.882      967892.591          41.000  
  21502542.082     3554902.100          33.000  
  22815125.613      594954.5242         31.000  
  23573226.468     2826342.699          34.000  
  22728735.797    -1568656.628          52.000  
 13  7 18 12 23 56.0000000  0  5G25G12G 2G 4G31
  20250779.156      969306.399          41.000  
  21503282.373     3558790.106          33.000  
  22815337.860      596071.8552         31.000  
  23573862.022     2829685.693          34.000  
  22728514.842    -1569817.547          52.000  
 13  7 18 12 23 57.0000000  0  5G25G12G 2G 4G31
  20251048.500      970722.281          41.000  
  21504022.262     3562680.035          33.000  
  22815550.543      597191.4242         31.000  
  23574498.624     2833030.915          35.000  
  22728294.167    -1570976.492          52.000  
 13  7 18 12 23 58.0000000  0  5G25G12G 2G 4G31
  20251317.932      972139.542          41.000  
  21504762.692     3566571.230          32.000  
  22815763.907      598312.4732         31.000  
  23575135.400     2836377.753          35.000  
  22728074.102    -1572134.193          52.000  
 13  7 18 12 23 59.0000000  0  5G25G12G 2G 4G31
  20251587.887      973557.295          41.000  
  21505503.681     3570462.783          32.000  
  22815977.288      599434.1592         30.000  
  23575772.472     2839725.235          35.000  
  22727854.334    -1573291.544          52.000  
 13  7 18 12 24  0.0000000  0  5G25G12G 2G 4G31
  20251858.103      974977.590          41.000  
  21506244.477     3574356.713          32.000  
  22816190.600      600558.5973         30.000  
  23576409.737     2843075.454          35.000  
  22727634.479    -1574446.469          52.000  
 13  7 18 12 24  1.0000000  0  5G25G12G 2G 4G31
  20252128.774      976400.654          41.000  
  21506986.548     3578253.7343         31.000  
  22816405.726      601685.9742         31.000  
  23577048.031     2846428.649          35.000  
  22727415.758    -1575598.797          52.000  
 13  7 18 12 24  2.0000000  0  4G25G 2G 4G31
  20252399.636      977825.771          41.000  
  22816620.678      602815.6063         31.000  
  23577686.272     2849784.113          36.000  
  22727196.618    -1576749.179          52.000  
 13  7 18 12 24  3.0000000  0  4G25G 2G 4G31
  20252671.563      979250.948          41.000  
  22816835.333      603945.3412         30.000  
  23578324.357     2853139.789          36.000  
  22726977.356    -1577899.647          52.000  
 13  7 18 12 24  4.0000000  0  4G25G 2G 4G31
  20252942.948      980676.159          41.000  
  22817050.442      605075.3473         31.000  
  23578962.651     2856495.773          35.000  
  22726758.042    -1579050.181          52.000  
 13  7 18 12 24  5.0000000  0  4G25G 2G 4G31
  20253214.387      982103.619          41.000  
  22817265.132      606207.7602         31.000  
  23579601.765     2859854.094          36.000  
  22726540.019    -1580198.637          52.000  
 13  7 18 12 24  6.0000000  0  4G25G 2G 4G31
  20253486.139      983533.300          41.000  
  22817481.095      607342.5443         32.000  
  23580241.194     2863214.882          36.000  
  22726322.065    -1581345.009          52.000  
 13  7 18 12 24  7.0000000  0  4G25G 2G 4G31
  20253759.078      984963.338          41.000  
  22817697.862      608477.7792         32.000  
  23580881.791     2866576.182          36.000  
  22726103.414    -1582491.150          52.000  
 13  7 18 12 24  8.0000000  0  5G25G14G 2G 4G31
  20254031.563      986392.793          41.000  
  22368975.250     2931092.7593         29.000  
  22817914.140      609612.6952         32.000  
  23581521.708     2869937.119          36.000  
  22725885.286    -1583638.003          52.000  
 13  7 18 12 24  9.0000000  0  4G25G 2G 4G31
  20254304.589      987824.384          41.000  
  22818130.488      610749.7922         32.000  
  23582162.166     2873300.441          36.000  
  22725667.246    -1584782.860          52.000  
 13  7 18 12 24 10.0000000  0  4G25G 2G 4G31
  20254577.790      989259.509          41.000  
  22818347.795      611890.6392         32.000  
  23582802.275     2876667.479          36.000  
  22725450.148    -1585924.282          52.000  
 13  7 18 12 24 11.0000000  0  4G25G 2G 4G31
  20254851.165      990696.003          41.000  
  22818565.382      613032.9662         32.000  
  23583443.274     2880036.022          36.000  
  22725233.783    -1587064.505          52.000  
 13  7 18 12 24 12.0000000  0  4G25G 2G 4G31
  20255124.575      992132.276          41.000  
  22818782.742      614175.2762         32.000  
  23584083.453     2883404.559          36.000  
  22725016.545    -1588205.071          52.000  
 13  7 18 12 24 13.0000000  0  4G25G 2G 4G31
  20255397.705      993569.262          41.000  
  22819000.556      615317.949          32.000  
  23584724.556     2886774.009          36.000  
  22724799.656    -1589345.070          52.000  
 13  7 18 12 24 14.0000000  0  4G25G 2G 4G31
  20255671.622      995008.649          41.000  
  22819219.399      616463.755          32.000  
  23585365.799     2890146.130          37.000  
  22724583.029    -1590482.772          52.000  
 13  7 18 12 24 15.0000000  0  4G25G 2G 4G31
  20255946.044      996450.687          41.000  
  22819438.434      617612.242          32.000  
  23586007.740     2893521.016          37.000  
  22724366.943    -1591617.973          52.000  
 13  7 18 12 24 16.0000000  0  4G25G 2G 4G31
  20256220.099      997892.578          41.000  
  22819657.312      618760.805          31.000  
  23586649.839     2896895.949          37.000  
  22724151.084    -1592753.456          52.000  
 13  7 18 12 24 17.0000000  0  4G25G 2G 4G31
  20256494.120      999334.065          41.000  
  22819876.051      619909.076          32.000  
  23587292.233     2900270.662          37.000  
  22723934.928    -1593889.488          52.000  
 13  7 18 12 24 18.0000000  0  4G25G 2G 4G31
  20256769.362     1000777.177          41.000  
  22820095.208      621059.201          32.000  
  23587934.559     2903647.201          38.000  
  22723719.086    -1595024.001          52.000  
 13  7 18 12 24 19.0000000  0  4G25G 2G 4G31
  20257044.029     1002220.974          41.000  
  22820314.121      622210.6553         31.000  
  23588577.215     2907024.658          37.000  
  22723503.000    -1596157.975          52.000  
 13  7 18 12 24 20.0000000  0  4G25G 2G 4G31
  20257319.062     1003665.466          41.000  
  22820533.121      623362.3832         31.000  
  23589219.976     2910402.961          37.000  
  22723287.158    -1597291.390          52.000  
 13  7 18 12 24 21.0000000  0  4G25G 2G 4G31
  20257594.391     1005109.481          41.000  
  22820752.104      624513.8922         31.000  
  23589862.668     2913780.983          38.000  
  22723070.968    -1598425.410          52.000  
 13  7 18 12 24 22.0000000  0  4G25G 2G 4G31
  20257869.162     1006555.141          41.000  
  22820971.505      625667.1102         31.000  
  23590505.394     2917160.831          38.000  
  22722855.248    -1599557.921          52.000  
 13  7 18 12 24 23.0000000  0  4G25G 2G 4G31
  20258144.841     1008002.995          41.000  
  22821191.710      626822.6682         32.000  
  23591148.801     2920543.081          37.000  
  22722640.174    -1600688.380          52.000  
 13  7 18 12 24 24.0000000  0  4G25G 2G 4G31
  20258420.642     1009452.985          41.000  
  22821411.757      627980.6062         32.000  
  23591791.702     2923927.617          37.000  
  22722425.275    -1601816.826          52.000  
 13  7 18 12 24 25.0000000  0  4G25G 2G 4G31
  20258696.617     1010903.316          41.000  
  22821631.490      629139.0143         31.000  
  23592435.912     2927312.734          37.000  
  22722210.340    -1602945.057          52.000  
 13  7 18 12 24 26.0000000  0  5G25G14G 2G 4G31
  20258972.941     1012353.355          41.000  
  22380659.951     2992497.5893         29.000  
  22821851.590      630297.2453         30.000  
  23593080.052     2930697.738          37.000  
  22721996.348    -1604073.718          52.000  
