     2.11           OBSERVATION DATA    M (MIXED)           RINEX VERSION / TYPE
CONVBIN 2.4.2                           20180514 142205 UTC PGM / RUN BY / DATE 
log: 135700.ubx                                             COMMENT             
format: u-blox                                              COMMENT             
                                                            MARKER NAME         
                                                            MARKER NUMBER       
                                                            OBSERVER / AGENCY   
                                                            REC # / TYPE / VERS 
                                                            ANT # / TYPE        
  4146487.9864   612939.2039  4791575.1206                  APPROX POSITION XYZ 
        0.0000        0.0000        0.0000                  ANTENNA: DELTA H/E/N
     1     1                                                WAVELENGTH FACT L1/2
     4    C1    L1    C2    L2                              # / TYPES OF OBSERV 
  2018     5    14    13    57   19.0010000     GPS         TIME OF FIRST OBS   
  2018     5    14    14     6   58.0010000     GPS         TIME OF LAST OBS    
                                                            END OF HEADER       
 18  5 14 13 57 19.0010000  0  7G29G31G25G26G21G23S25
  20387637.460      219338.300                                  
  21339478.189      219180.145                                  
  21908834.356      259090.967                                  
  22282023.116      113274.407                                  
  22819413.007      104246.0323                                 
  25491151.907      175748.2103                                 
  38904660.397      182654.4372                                 
 18  5 14 13 57 20.0010000  0  7G29G31G25G26G21G23S25
  20389026.096      226638.613                                  
  21340867.444      226483.895                                  
  21910510.598      267901.165                                  
  22282725.200      116964.126                                  
  22820089.752      107786.9703                                 
  25492292.209      181729.3503                                 
  38905843.705      188879.4012                                 
 18  5 14 13 57 21.0010000  0  6G29G31G25G26G21S25
  20390413.441      233929.383                                  
  21342255.670      233778.266                                  
  21912185.348      276701.714                                  
  22283425.808      120644.108                                  
  22820762.476      111317.9593                                 
  38907024.483      195094.2972                                 
 18  5 14 13 57 22.0010000  0  7G29G31G25G26G21G 5S25
  20391799.895      241214.112                                  
  21343642.814      241066.768                                  
  21913859.077      285496.155                                  
  22284124.873      124317.895                                  
  22821434.449      114842.7152                                 
  24274602.099      184368.9473                                 
  38908204.205      201302.6072                                 
 18  5 14 13 57 23.0010000  0  8G29G31G25G26G21G 5G12S25
  20393184.282      248490.434                                  
  21345028.012      248347.032                                  
  21915530.895      294282.027                                  
  22284822.219      127983.024                                  
  22822102.295      118358.9213                                 
  24275552.159      189369.4213                                 
  25177821.931      333133.5233                                 
  38909380.690      207501.9932                                 
 18  5 14 13 57 24.0010000  0  7G29G31G25G26G21G 5S25
  20394566.732      255753.883                                  
  21346411.596      255614.622                                  
  21917200.689      303055.000                                  
  22285517.409      131635.100                                  
  22822768.125      121862.1653                                 
  24276507.968      194355.6623                                 
  38910554.941      213687.7612                                 
 18  5 14 13 57 25.0010000  0  7G29G31G25G26G21G 5S25
  20395947.079      263005.333                                  
  21347792.310      262870.405                                  
  21918867.446      311815.840                                  
  22286210.331      135275.021                                  
  22823431.513      125353.3752                                 
  24277456.230      199329.5233                                 
  38911726.261      219860.8942                                 
 18  5 14 13 57 26.0010000  0  7G29G31G25G26G21G 5S25
  20397325.620      270250.195                                  
  21349172.011      270119.788                                  
  21920533.201      320570.031                                  
  22286901.316      138908.168                                  
  22824098.207      128837.8792                                 
  24278402.669      204297.0703                                 
  38912896.429      226026.8702                                 
 18  5 14 13 57 27.0010000  0  7G29G31G25G26G21G 5S25
  20398702.259      277487.275                                  
  21350549.715      277361.584                                  
  21922197.157      329316.381                                  
  22287591.184      142533.356                                  
  22824756.019      132314.5772                                 
  24279343.916      209256.9322                                 
  38914065.646      232184.7642                                 
 18  5 14 13 57 28.0010000  0  7G29G31G25G26G21G 5S25
  20400077.153      284711.752                                  
  21351925.743      284590.937                                  
  21923860.189      338049.983                                  
  22288278.199      146145.739                                  
  22825413.465      135778.4762                                 
  24280286.917      214204.2672                                 
  38915230.692      238329.8292                                 
 18  5 14 13 57 29.0010000  0  8G29G31G25G26G21G 5G23S25
  20401449.691      291924.288                                  
  21353298.438      291808.548                                  
  21925519.941      346771.556                                  
  22288963.365      149745.996                                  
  22826070.658      139230.2762                                 
  24281228.313      219139.7382                                 
  25502460.530      235139.8473                                 
  38916394.683      244462.7312                                 
 18  5 14 13 57 30.0010000  0  8G29G31G25G26G21G 5G23S25
  20402821.313      299131.213                                  
  21354670.837      299020.728                                  
  21927178.758      355487.434                                  
  22289647.204      153340.436                                  
  22826725.555      142676.4922                                 
  24282168.740      224069.7312                                 
  25503580.703      241026.4993                                 
  38917556.666      250589.7222                                 
 18  5 14 13 57 31.0010000  0  7G29G31G25G26G21G 5S25
  20404191.845      306332.237                                  
  21356042.258      306227.187                                  
  21928835.848      364197.310                                  
  22290330.336      156928.792                                  
  22827379.555      146116.077                                  
  24283109.228      228993.9352                                 
  38918717.429      256710.4602                                 
 18  5 14 13 57 32.0010000  0  8G29G31G25G26S20G21G 5S25
  20405560.282      313522.127                                  
  21357412.449      313422.705                                  
  21930490.783      372895.938                                  
  22291010.659      160505.830                                  
  38869916.368      264391.2842                                 
  22828031.303      149545.006                                  
  24284042.675      233907.1182                                 
  38919876.394      262819.7352                                 
 18  5 14 13 57 33.0010000  0  8G29G31G25G26S20G21G 5S25
  20406926.268      320700.338                                  
  21358779.360      320606.727                                  
  21932144.523      381582.835                                  
  22291689.411      164070.991                                  
  38871079.102      270501.1072                                 
  22828681.350      152962.5763                                 
  24284976.262      238808.7652                                 
  38921033.805      268916.9092                                 
 18  5 14 13 57 34.0010000  0  8G29G31G25G26S20G21G 5S25
  20408290.822      327872.285                                  
  21360144.787      327784.688                                  
  21933796.893      390263.355                                  
  22292366.907      167629.704                                  
  38872240.824      276604.4302                                 
  22829329.494      156373.3222                                 
  24285907.598      243704.2052                                 
  38922189.690      275007.3092                                 
 18  5 14 13 57 35.0010000  0  8G29G31G25G26S20G21G 5S25
  20409655.054      335039.698                                  
  21361509.882      334958.270                                  
  21935448.050      398939.222                                  
  22293043.164      171183.691                                  
  38873401.054      282702.6202                                 
  22829976.889      159779.4073                                 
  24286838.087      248595.2162                                 
  38923343.665      281092.6922                                 
 18  5 14 13 57 36.0010000  0  8G29G31G25G26S20G21G 5S25
  20411017.646      342197.672                                  
  21362873.312      342122.622                                  
  21937097.706      407605.584                                  
  22293717.249      174728.043                                  
  38874559.775      288790.8772                                 
  22830622.486      163175.9643                                 
  24287766.857      253476.8963                                 
  38924495.475      287168.1382                                 
 18  5 14 13 57 37.0010000  0  8G29G31G25G26S20G21G 5S25
  20412377.672      349345.012                                  
  21364235.615      349276.499                                  
  21938745.705      416261.180                                  
  22294389.885      178261.546                                  
  38875715.904      294868.2032                                 
  22831265.744      166561.7693                                 
  24288694.711      258347.9972                                 
  38925645.514      293232.5712                                 
 18  5 14 13 57 38.0010000  0  8G29G31G25G26S20G21G 5S25
  20413736.390      356485.747                                  
  21365595.650      356423.970                                  
  21940391.862      424910.121                                  
  22295061.369      181788.286                                  
  38876870.585      300938.6902                                 
  22831908.279      169940.8083                                 
  24289620.725      263212.6552                                 
  38926794.314      299289.9032                                 
 18  5 14 13 57 39.0010000  0  8G29G31G25G26S20G21G 5S25
  20415094.592      363622.505                                  
  21366955.371      363567.654                                  
  21942037.339      433554.995                                  
  22295731.475      185310.865                                  
  38878024.899      307004.6372                                 
  22832549.941      173315.9083                                 
  24290545.979      268073.4543                                 
  38927941.910      305342.8122                                 
 18  5 14 13 57 40.0010000  0  7G29G31G25G26S20G21G 5
  20416451.539      370751.612                                  
  21368313.286      370703.853                                  
  21943681.700      442192.076                                  
  22296400.726      188825.614                                  
  38879177.268      313062.4092                                 
  22833190.442      176683.2123                                 
  24291470.465      272926.7063                                 
 18  5 14 13 57 41.0010000  0  7G29G31G25G26S20G21S25
  20417806.217      377871.165                                  
  21369669.351      377830.687                                  
  21945324.018      450819.549                                  
  22297067.726      192330.604                                  
  38880328.049      319110.1522                                 
  22833828.798      180040.7883                                 
  38930220.577      317425.5083                                 
 18  5 14 13 57 42.0010000  0  7G29G31G25G26S20G21S25
  20419160.066      384984.658                                  
  21371024.081      384951.527                                  
  21946965.237      459440.856                                  
  22297733.478      195829.374                                  
  38881478.428      325151.3592                                 
  22834467.074      183392.2022                                 
  38931363.122      323453.6203                                 
 18  5 14 13 57 43.0010000  0  7G29G31G25G26S20G23S25
  20420513.330      392094.888                                  
  21372378.349      392069.475                                  
  21948605.610      468058.873                                  
  22298398.645      199324.687                                  
  38882626.880      331188.9012                                 
  25517996.991      316855.7273                                 
  38932510.159      329477.9133                                 
 18  5 14 13 57 44.0010000  0  9G29G31G25G26S20G21G 5G23S25
  20421865.251      399199.567                                  
  21373731.849      399181.984                                  
  21950245.381      476671.050                                  
  22299063.071      202814.233                                  
  38883774.833      337220.6252                                 
  22835739.073      190083.2283                                 
  24295193.094      292272.6383                                 
  25519098.859      322642.4773                                 
  38933648.594      335496.3402                                 
 18  5 14 13 57 45.0010000  0  8G29G31G25G26S20G21G 5G23
  20423214.598      406294.386                                  
  21375083.081      406284.867                                  
  21951882.988      485273.388                                  
  22299725.341      206293.767                                  
  38884919.777      343242.1472                                 
  22836375.500      193415.9693                                 
  24296120.381      297092.2823                                 
  25520195.788      328419.2583                                 
 18  5 14 13 57 46.0010000  0  8G29G31G25G26S20G21G 5G23
  20424563.482      413381.750                                  
  21376432.759      413380.428                                  
  21953518.483      493868.210                                  
  22300385.876      209765.633                                  
  38886064.808      349255.7802                                 
  22837009.449      196740.6073                                 
  24297040.645      301904.2033                                 
  25521293.485      334188.2223                                 
 18  5 14 13 57 47.0010000  0  8G29G31G25G26S20G21G 5G23
  20425911.651      420465.757                                  
  21377782.062      420472.766                                  
  21955153.874      502459.595                                  
  22301045.555      213233.957                                  
  38887208.399      355265.6372                                 
  22837641.722      200062.2303                                 
  24297957.968      306712.9993                                 
  25522391.627      339954.2033                                 
 18  5 14 13 57 48.0010000  0  8G29G31G25G26S20G21G 5G23
  20427258.328      427545.336                                  
  21379131.069      427560.933                                  
  21956787.651      511046.438                                  
  22301705.103      216697.668                                  
  38888351.048      361270.4442                                 
  22838267.409      203379.1162                                 
  24298877.978      311517.8963                                 
  25523487.161      345716.0913                                 
 18  5 14 13 57 49.0010000  0  8G29G31G25G26S20G21G 5G23
  20428603.504      434614.835                                  
  21380477.746      434639.177                                  
  21958419.517      519623.092                                  
  22302362.270      220151.105                                  
  38889491.446      367264.9332                                 
  22838903.661      206685.8552                                 
  24299792.186      316312.5533                                 
  25524581.272      351467.9533                                 
 18  5 14 13 57 50.0010000  0  9G29G31G25G26S20G21G 5G12G23
  20429947.258      441675.562                                  
  21381823.288      441708.847                                  
  21960049.210      528190.900                                  
  22303016.976      223595.591                                  
  38890630.090      373250.0752                                 
  22839530.735      209983.6202                                 
  24300700.767      321098.2303                                 
  25227359.915      593792.2723                                 
  25525672.312      357210.7863                                 
 18  5 14 13 57 51.0010000  0 10G29G31G25G26S20G21G 5G12G23S25
  20431290.794      448733.082                                  
  21383168.098      448775.493                                  
  21961678.467      536755.398                                  
  22303672.162      227036.695                                  
  38891768.656      379231.3472                                 
  22840156.465      213278.1702                                 
  24301611.860      325880.8663                                 
  25229173.856      603326.6373                                 
  25526765.533      362950.6323                                 
  38941610.204      377411.2562                                 
 18  5 14 13 57 52.0010000  0 10G29G31G25G26S20G21G 5G12G23S25
  20432633.195      455787.350                                  
  21384512.681      455839.062                                  
  21963306.799      545316.608                                  
  22304325.786      230474.323                                  
  38892906.375      385208.9062                                 
  22840783.067      216569.3543                                 
  24302518.093      330660.7173                                 
  25230988.792      612857.6623                                 
  25527858.423      368687.2933                                 
  38942742.304      383374.9362                                 
 18  5 14 13 57 53.0010000  0  9G29G31G26S20G21G 5G12G23S25
  20433973.555      462832.382                                  
  21385854.594      462893.617                                  
  22304977.456      233902.572                                  
  38894041.983      391176.7402                                 
  22841407.000      219851.4193                                 
  24303421.622      335431.4083                                 
  25232801.172      622379.1603                                 
  25528951.260      374415.0803                                 
  38943872.301      389328.9032                                 
 18  5 14 13 57 54.0010000  0  8G29G31G25G26S20G21G 5G23
  20435312.135      469868.330                                  
  21387195.085      469939.227                                  
  21966560.890      562411.0533                                 
  22305628.244      237321.498                                  
  38895175.410      397135.2422                                 
  22842032.695      223123.9213                                 
  24304326.119      340192.7983                                 
  25530034.360      380133.8872                                 
 18  5 14 13 57 55.0010000  0  8G29G31G25G26S20G21G 5G23
  20436649.773      476898.093                                  
  21388534.747      476978.845                                  
  21968183.725      570947.4932                                 
  22306277.601      240734.084                                  
  38896308.540      403087.3622                                 
  22842654.524      226390.2083                                 
  24305229.892      344948.3883                                 
  25531122.268      385846.6393                                 
 18  5 14 13 57 56.0010000  0  8G29G31G25G26S20G21G 5G23
  20437986.800      483921.128                                  
  21389873.327      484011.942                                  
  21969806.682      579476.9612                                 
  22306926.226      244139.764                                  
  38897439.785      409032.4702                                 
  22843274.845      229649.6662                                 
  24306133.098      349697.1503                                 
  25532210.307      391552.6653                                 
 18  5 14 13 57 57.0010000  0  8G29G31G25G26S20G21G 5G23
  20439321.000      490938.096                                  
  21391210.729      491039.098                                  
  21971427.633      588003.2903                                 
  22307573.638      247539.153                                  
  38898570.533      414970.7872                                 
  22843894.266      232903.0392                                 
  24307031.453      354440.2593                                 
  25533292.909      397252.9002                                 
 18  5 14 13 57 58.0010000  0  8G29G31G25G26S20G21G 5G23
  20440655.383      497947.324                                  
  21392546.857      498058.717                                  
  21973047.580      596519.2173                                 
  22308218.476      250930.621                                  
  38899698.794      420900.3912                                 
  22844511.079      236148.5733                                 
  24307927.190      359175.5513                                 
  25534375.242      402945.5323                                 
 18  5 14 13 57 59.0010000  0  7G29G31G25G26S20G12G23
  20441987.585      504948.322                                  
  21393881.162      505070.232                                  
  21974667.667      605026.7483                                 
  22308861.944      254313.687                                  
  38900825.371      426821.5312                                 
  25243645.566      679346.7823                                 
  25535457.513      408629.9432                                 
 18  5 14 13 58  0.0010000  0  9G29G31G25G26S20G21G 5G12S25
  20443319.648      511941.824                                  
  21395214.908      512074.539                                  
  21976283.872      613526.3922                                 
  22309504.653      257689.108                                  
  38901950.657      432734.9652                                 
  22845741.948      242615.3813                                 
  24309681.739      368622.8453                                 
  25245445.731      688813.9403                                 
  38951740.195      430792.8092                                 
 18  5 14 13 58  1.0010000  0  9G29G31G25G26S20G21G 5G23S25
  20444649.363      518930.579                                  
  21396546.299      519074.245                                  
  21977902.196      622021.2042                                 
  22310146.062      261059.547                                  
  38903074.600      438643.0302                                 
  22846354.826      245840.1793                                 
  24310572.826      373337.8543                                 
  25537618.155      419979.6113                                 
  38952843.772      436686.4763                                 
 18  5 14 13 58  2.0010000  0 10G29G31G25G26S20G21G 5G16G23S25
  20445978.965      525915.679                                  
  21397877.445      526070.461                                  
  21979515.853      630512.2422                                 
  22310787.130      264426.144                                  
  38904198.298      444547.1502                                 
  22846968.724      249061.0563                                 
  24311461.906      378049.7093                                 
  24568162.976      227446.3863                                 
  25538694.895      425648.7393                                 
  38953957.646      442578.4403                                 
 18  5 14 13 58  3.0010000  0 10G29G31G25G26S20G21G 5G16G23S25
  20447306.229      532895.077                                  
  21399207.466      533061.207                                  
  21981130.678      638997.5242                                 
  22311426.000      267786.885                                  
  38905320.120      450445.1772                                 
  22847582.466      252276.2112                                 
  24312355.828      382755.7062                                 
  24568661.983      230052.3763                                 
  25539774.191      431312.2263                                 
  38955076.790      448463.9323                                 
 18  5 14 13 58  4.0010000  0 10G29G31G25G26S20G21G 5G16G23S25
  20448633.902      539869.358                                  
  21400536.108      540046.984                                  
  21982744.492      647477.6082                                 
  22312064.757      271142.312                                  
  38906441.567      456337.5302                                 
  22848192.124      255486.1442                                 
  24313255.841      387456.7532                                 
  24569158.947      232652.5463                                 
  25540849.054      436970.4813                                 
  38956189.712      454343.4683                                 
 18  5 14 13 58  5.0010000  0  9G29G31G25G26S20G21G16G23S25
  20449960.991      546842.644                                  
  21401865.841      547031.970                                  
  21984358.306      655956.4772                                 
  22312702.615      274496.576                                  
  38907562.953      462228.3792                                 
  22848803.300      258695.0202                                 
  24569656.296      235251.4633                                 
  25541926.562      442627.8723                                 
  38957306.011      460221.6442                                 
 18  5 14 13 58  6.0010000  0  8G29G31G25G26S20G21G 5S25
  20451286.859      553813.061                                  
  21403195.504      554014.262                                  
  21985970.697      664432.6322                                 
  22313340.385      277847.717                                  
  38908683.841      468116.1452                                 
  22849414.259      261900.8582                                 
  24315046.826      396854.1902                                 
  38958420.347      466096.5972                                 
 18  5 14 13 58  7.0010000  0  8G29G31G25G26S20G21G 5S25
  20452612.281      560776.599                                  
  21404522.636      560989.826                                  
  21987582.050      672901.076                                  
  22313976.856      281191.839                                  
  38909802.435      473996.5432                                 
  22850027.398      265099.8142                                 
  24315942.511      401544.7702                                 
  38959533.924      471964.1592                                 
 18  5 14 13 58  8.0010000  0  8G29G31G25G26S20G21G 5S25
  20453936.046      567734.326                                  
  21405849.211      567959.768                                  
  21989192.513      681364.201                                  
  22314611.939      284529.937                                  
  38910920.157      479870.6522                                 
  22850634.299      268292.7292                                 
  24316826.906      406229.6732                                 
  38960647.388      477825.5032                                 
 18  5 14 13 58  9.0010000  0  9G29G31G25G26S20G21G 5G23S25
  20455259.270      574690.785                                  
  21407174.520      574928.660                                  
  21990802.767      689825.978                                  
  22315247.074      287866.606                                  
  38912038.009      485743.0332                                 
  22851242.501      271484.3992                                 
  24317717.495      410913.4863                                 
  25546219.368      465214.4443                                 
  38961760.136      483685.0562                                 
 18  5 14 13 58 10.0010000  0  9G29G31G25G26S20G21G 5G23S25
  20456582.886      581645.969                                  
  21408500.361      581896.458                                  
  21992412.960      698286.371                                  
  22315881.242      291201.831                                  
  38913155.084      491613.5832                                 
  22851850.335      274674.6632                                 
  24318608.442      415596.0933                                 
  25547296.735      470854.6483                                 
  38962872.421      489542.9232                                 
 18  5 14 13 58 11.0010000  0  9G29G31G25G26S20G21G 5G23S25
  20457904.993      588594.384                                  
  21409824.335      588857.664                                  
  21994021.460      706739.915                                  
  22316514.248      294530.087                                  
  38914270.511      497476.9442                                 
  22852456.181      277858.0582                                 
  24319499.084      420271.9963                                 
  25548369.740      476488.1043                                 
  38963982.360      495393.6182                                 
 18  5 14 13 58 12.0010000  0  9G29G31G25G26S20G21G 5G23S25
  20459225.722      595535.475                                  
  21411148.144      595811.730                                  
  21995628.450      715186.014                                  
  22317146.810      297850.823                                  
  38915384.987      503332.5982                                 
  22853060.787      281033.9653                                 
  24320387.064      424940.6913                                 
  25549439.692      482114.2463                                 
  38965091.033      501236.4602                                 
 18  5 14 13 58 13.0010000  0  9G29G31G25G26S20G21G 5G23S25
  20460545.822      602474.825                                  
  21412471.097      602764.238                                  
  21997235.545      723630.300                                  
  22317778.010      301169.649                                  
  38916499.157      509186.1482                                 
  22853666.301      284208.0963                                 
  24321274.408      429607.8873                                 
  25550512.557      487738.6543                                 
  38966199.044      507077.0502                                 
 18  5 14 13 58 14.0010000  0  9G29G31G25G26S20G21G 5G23S25
  20461866.053      609413.243                                  
  21413793.553      609715.998                                  
  21998842.388      732073.558                                  
  22318409.028      304487.344                                  
  38917612.516      515038.3512                                 
  22854267.827      287381.7533                                 
  24322161.332      434274.1193                                 
  25551582.797      493362.2683                                 
  38967306.373      512916.3162                                 
 18  5 14 13 58 15.0010000  0  9G29G31G25G26S20G21G 5G23S25
  20463185.508      616345.688                                  
  21415115.442      616661.954                                  
  22000448.549      740510.757                                  
  22319039.731      307798.864                                  
  38918724.871      520884.1872                                 
  22854868.621      290548.7723                                 
  24323046.748      438934.6263                                 
  25552653.053      498980.4153                                 
  38968413.459      518749.2202                                 
 18  5 14 13 58 16.0010000  0  7G29G31G25G26S20G21G23
  20464503.409      623271.856                                  
  21416435.830      623601.821                                  
  22002053.193      748941.540                                  
  22319668.489      311103.947                                  
  38919835.944      526722.9432                                 
  22855468.132      293709.4453                                 
  25553718.215      504592.1683                                 
 18  5 14 13 58 17.0010000  0  7G29G31G25G26S20G21S25
  20465821.058      630196.092                                  
  21417755.285      630539.933                                  
  22003657.121      757370.330                                  
  22320296.949      314406.907                                  
  38920946.406      532559.2422                                 
  22856063.725      296867.8703                                 
  38970614.795      530398.9503                                 
 18  5 14 13 58 18.0010000  0  7G29G31G25G26S20G21S25
  20467138.575      637120.884                                  
  21419075.638      637478.797                                  
  22005261.084      765799.565                                  
  22320925.497      317710.234                                  
  38922057.200      538396.2172                                 
  22856660.532      300026.9332                                 
  38971714.560      536223.7243                                 
 18  5 14 13 58 19.0010000  0  9G29G31G25G26S20G21G 5G23S25
  20468455.351      644041.149                                  
  21420394.813      644413.298                                  
  22006864.148      774224.203                                  
  22321553.330      321008.853                                  
  38923167.260      544228.0562                                 
  22857263.567      303181.4213                                 
  24326579.300      457544.7013                                 
  25556919.073      521419.0373                                 
  38972823.103      542042.6613                                 
 18  5 14 13 58 20.0010000  0  9G29G31G25G26S20G21G 5G23S25
  20469770.697      650954.781                                  
  21421713.422      651341.376                                  
  22008466.750      782642.103                                  
  22322180.308      324300.651                                  
  38924275.236      550052.8672                                 
  22857860.234      306329.0543                                 
  24327466.329      462186.8803                                 
  25557984.549      527018.7243                                 
  38973923.260      547854.5602                                 
 18  5 14 13 58 21.0010000  0  9G29G31G25G26S20G21G 5G23S25
  20471085.928      657865.277                                  
  21423031.227      658266.485                                  
  22010067.833      791056.782                                  
  22322805.741      327589.120                                  
  38925382.723      555873.9272                                 
  22858456.464      309473.1153                                 
  24328350.584      466825.8113                                 
  25559050.984      532615.2733                                 
  38975027.536      553662.8122                                 
 18  5 14 13 58 22.0010000  0  9G29G31G25G26S20G21G 5G23S25
  20472400.889      664775.428                                  
  21424348.553      665191.475                                  
  22011668.699      799471.009                                  
  22323431.043      330877.074                                  
  38926489.852      561694.1872                                 
  22859061.245      312616.9813                                 
  24329231.611      471464.7153                                 
  25560119.993      538211.7173                                 
  38976128.523      559470.2332                                 
 18  5 14 13 58 23.0010000  0  9G29G31G25G26S20G21G 5G23S25
  20473715.449      671682.230                                  
  21425665.538      672113.266                                  
  22013269.722      807881.810                                  
  22324056.381      334161.508                                  
  38927596.562      567510.5032                                 
  22859661.367      315758.4893                                 
  24330118.082      476100.6413                                 
  25561186.585      543805.2913                                 
  38977230.513      565273.8022                                 
 18  5 14 13 58 24.0010000  0  9G29G31G25G26S20G21G 5G23S25
  20475028.403      678581.961                                  
  21426981.145      679028.162                                  
  22014868.860      816285.454                                  
  22324679.764      337438.674                                  
  38928702.260      573319.1802                                 
  22860255.189      318891.7003                                 
  24331000.478      480729.3743                                 
  25562249.844      549391.7023                                 
  38978331.691      571069.8252                                 
 18  5 14 13 58 25.0010000  0  8G29G31G25G26S20G 5G23S25
  20476340.529      685476.416                                  
  21428295.722      685937.980                                  
  22016466.226      824683.707                                  
  22325301.960      340710.338                                  
  38929806.388      579122.1112                                 
  24331889.070      485352.6293                                 
  25563310.486      554972.6043                                 
  38979431.282      576860.0972                                 
 18  5 14 13 58 26.0010000  0  8G29G31G25G26S20G 5G23S25
  20477652.916      692369.944                                  
  21429610.919      692847.043                                  
  22018064.588      833080.959                                  
  22325924.077      343980.933                                  
  38930909.931      584924.0312                                 
  24332777.609      489975.3702                                 
  25564377.052      560552.9093                                 
  38980530.323      582649.0492                                 
 18  5 14 13 58 27.0010000  0  8G29G31G25G26S20G 5G23S25
  20478964.501      699261.481                                  
  21430925.374      699754.323                                  
  22019661.440      841476.105                                  
  22326546.291      347249.370                                  
  38932013.605      590723.6902                                 
  24333660.677      494596.2092                                 
  25565439.927      566131.3882                                 
  38981627.811      588435.5872                                 
 18  5 14 13 58 28.0010000  0  9G29G31G25G26S20G21G 5G23S25
  20480274.707      706145.731                                  
  21432239.175      706654.496                                  
  22021258.091      849863.911                                  
  22327166.943      350510.293                                  
  38933116.258      596515.3652                                 
  22862636.202      331401.1513                                 
  24334536.285      499209.8332                                 
  25566497.777      571702.7152                                 
  38982723.841      594214.2942                                 
 18  5 14 13 58 29.0010000  0  8G29G31G25G26S20G 5G23S25
  20481582.766      713023.172                                  
  21433551.475      713548.040                                  
  22022852.893      858244.792                                  
  22327786.722      353764.273                                  
  38934217.288      602299.9532                                 
  24335418.333      503816.8382                                 
  25567552.791      577267.3712                                 
  38983819.113      599985.7942                                 
 18  5 14 13 58 30.0010000  0  8G29G31G25G26S20G 5G23S25
  20482891.149      719898.599                                  
  21434863.103      720439.755                                  
  22024447.083      866623.550                                  
  22328405.237      357016.042                                  
  38935317.995      608082.0022                                 
  24336298.461      508421.9002                                 
  25568613.468      582830.2032                                 
  38984914.263      605754.8562                                 
 18  5 14 13 58 31.0010000  0  9G29G31G25G26S20G 5G12G23S25
  20484199.173      726772.929                                  
  21436173.832      727330.559                                  
  22026041.449      875001.155                                  
  22329024.082      360266.520                                  
  38936418.502      613862.7722                                 
  24337173.022      513025.9492                                 
  25300841.124      980908.5713                                 
  25569672.635      588392.0502                                 
  38986007.746      611522.2672                                 
 18  5 14 13 58 32.0010000  0  9G29G31G25G26S20G 5G12G23S25
  20485506.151      733639.849                                  
  21437484.021      734214.137                                  
  22027633.476      883371.233                                  
  22329640.695      363509.418                                  
  38937516.548      619635.5772                                 
  24338047.522      517622.7222                                 
  25302626.185      990237.6083                                 
  25570728.748      593946.5822                                 
  38987099.527      617281.8862                                 
 18  5 14 13 58 33.0010000  0  9G29G31G25G26S20G 5G12G23S25
  20486811.602      740499.080                                  
  21438792.447      741090.207                                  
  22029224.569      891733.542                                  
  22330256.120      366744.428                                  
  38938613.879      625400.0892                                 
  24338921.455      522211.9342                                 
  25304401.789      999558.4223                                 
  25571784.303      599493.5312                                 
  38988189.729      623033.4122                                 
 18  5 14 13 58 34.0010000  0  9G29G31G25G26S20G 5G12G23S25
  20488116.800      747356.537                                  
  21440100.803      747964.666                                  
  22030815.540      900093.995                                  
  22330871.502      369977.491                                  
  38939710.137      631162.2882                                 
  24339794.900      526799.4592                                 
  25306174.975     1008876.9803                                 
  25572840.381      605038.8602                                 
  38989280.002      628782.8202                                 
 18  5 14 13 58 35.0010000  0  9G29G31G25G26S20G 5G12G23S25
  20489421.779      754213.710                                  
  21441409.160      754839.071                                  
  22032406.450      908454.127                                  
  22331486.788      373210.102                                  
  38940805.914      636923.8562                                 
  24340668.911      531386.8532                                 
  25307944.715     1018194.9653                                 
  25573895.727      610584.0092                                 
  38990370.937      634531.4142                                 
 18  5 14 13 58 36.0010000  0 10G29G31G25G26S20G21G 5G12G23S25
  20490726.061      761065.373                                  
  21442716.643      761708.119                                  
  22033996.497      916808.567                                  
  22332101.254      376437.004                                  
  38941900.846      642679.6992                                 
  22867351.277      356209.0073                                 
  24341540.820      535968.8372                                 
  25309714.289     1027507.4043                                 
  25574950.287      616123.9092                                 
  38991460.319      640274.1352                                 
 18  5 14 13 58 37.0010000  0 10G29G31G25G26S20G21G 5G12G23S25
  20492029.444      767911.012                                  
  21444022.356      768571.331                                  
  22035585.976      925156.907                                  
  22332714.071      379657.705                                  
  38942994.922      648429.4242                                 
  22867934.890      359287.1543                                 
  24342411.708      540544.886                                  
  25311482.022     1036813.1833                                 
  25576003.478      621657.261                                  
  38992548.532      646010.3342                                 
 18  5 14 13 58 38.0000000  0 10G29G31G25G26S20G21G 5G12G23S25
  20193538.810      774754.730                                  
  21145536.172      775432.813                                  
  21737381.613      933503.249                                  
  22033533.987      382876.289                                  
  38644296.168      654176.3402                                 
  22568727.306      362362.8743                                 
  24043490.202      545119.119                                  
  25013457.929     1046116.4303                                 
  25277263.567      627189.8373                                 
  38693843.932      651744.2592                                 
 18  5 14 13 58 39.0000000  0 10G29G31G25G26S20G21G 5G12G23S25
  20194841.286      781598.671                                  
  21146842.181      782294.678                                  
  21738969.993      941849.661                                  
  22034146.185      386094.925                                  
  38645390.218      659923.2682                                 
  22569312.464      365438.9393                                 
  24044361.090      549693.687                                  
  25015225.505     1055419.7443                                 
  25278316.200      632722.2612                                 
  38694931.735      657477.9922                                 
 18  5 14 13 58 40.0000000  0 10G29G31G25G26S20G21G 5G23S23S25
  20196143.220      788438.774                                  
  21148146.925      789152.916                                  
  21740557.073      950192.192                                  
  22034757.544      389309.518                                  
  38646482.759      665665.8332                                 
  22569898.067      368511.4013                                 
  24045230.460      554264.521                                  
  25279368.387      638250.9373                                 
  38593253.688      635258.4212                                 
  38696007.847      663205.4503                                 
 18  5 14 13 58 41.0000000  0 10G29G31G25G26S20G21G 5G23S23S25
  20197444.369      795273.392                                  
  21149450.133      796005.816                                  
  21742143.481      958529.196                                  
  22035368.424      392518.469                                  
  38647574.357      671402.5152                                 
  22570481.576      371578.0943                                 
  24046098.451      558830.026                                  
  25280419.134      643774.3162                                 
  38594367.945      641110.5502                                 
  38697095.807      668930.1653                                 
 18  5 14 13 58 42.0000000  0 10G29G31G25G26S20G21G 5G23S23S25
  20198744.402      802105.548                                  
  21150753.516      802856.501                                  
  21743729.008      966863.557                                  
  22035978.475      395724.768                                  
  38648665.484      677136.4002                                 
  22571060.749      374642.2293                                 
  24046966.844      563393.216                                  
  25281469.890      649295.3482                                 
  38595481.583      646959.7852                                 
  38698181.053      674651.0733                                 
 18  5 14 13 58 43.0000000  0 10G29G31G25G26S20G21G 5G23S23S25
  20200044.033      808937.454                                  
  21152056.786      809707.112                                  
  21745314.761      975197.686                                  
  22036587.994      398930.642                                  
  38649756.786      682869.5392                                 
  22571648.969      377705.7703                                 
  24047832.837      567956.258                                  
  25282520.254      654816.2802                                 
  38596593.851      652808.2722                                 
  38699263.359      680370.9023                                 
 18  5 14 13 58 44.0000000  0 10G29G31G25G26S20G21G 5G23S23S25
  20201343.184      815766.537                                  
  21153360.195      816555.046                                  
  21746899.948      983528.782                                  
  22037197.661      402133.506                                  
  38650846.709      688599.0902                                 
  22572231.100      380766.6002                                 
  24048698.717      572516.543                                  
  25283570.408      660334.4683                                 
  38597705.457      658653.5312                                 
  38700347.550      686087.7102                                 
 18  5 14 13 58 45.0000000  0 10G29G31G25G26S20G21G 5G23S23S25
  20202641.795      822589.536                                  
  21154662.409      823397.108                                  
  21748484.288      991853.743                                  
  22037805.766      405330.106                                  
  38651936.310      694322.1642                                 
  22572813.196      383821.1662                                 
  24049564.169      577070.897                                  
  25284619.297      665846.7583                                 
  38598816.355      664492.2452                                 
  38701432.177      691798.0362                                 
 18  5 14 13 58 46.0000000  0 10G29G31G25G26S20G21G 5G23S23S25
  20203939.306      829409.428                                  
  21155963.968      830236.242                                  
  21750068.148     1000175.487                                  
  22038413.199      408523.415                                  
  38653024.453      700041.7142                                 
  22573392.368      386872.5472                                 
  24050428.915      581622.243                                  
  25285667.645      671356.0173                                 
  38599927.000      670327.3932                                 
  38702512.878      697504.7412                                 
 18  5 14 13 58 47.0000000  0 10G29G31G25G26S20G21G 5G23S23S25
  20205237.157      836229.620                                  
  21157265.039      837075.840                                  
  21751652.105     1008497.459                                  
  22039020.676      411716.843                                  
  38654112.526      705761.4832                                 
  22573975.633      389924.1352                                 
  24051293.573      586174.014                                  
  25286716.560      676865.7512                                 
  38601037.244      676162.4072                                 
  38703598.124      703211.3092                                 
 18  5 14 13 58 48.0000000  0 10G29G31G25G26S20G21G 5G23S23S25
  20206534.092      843048.447                                  
  21158566.363      843914.281                                  
  21753235.537     1016817.965                                  
  22039627.822      414908.740                                  
  38655200.469      711479.2502                                 
  22574555.129      392974.2822                                 
  24052157.603      590724.505                                  
  25287764.672      682374.2263                                 
  38602146.615      681995.6172                                 
  38704682.315      708916.0572                                 
 18  5 14 13 58 49.0000000  0 10G29G31G25G26S20G21G 5G23S23S25
  20207830.521      849861.930                                  
  21159866.613      850747.552                                  
  21754817.548     1025133.040                                  
  22040234.452      418095.084                                  
  38656286.649      717191.0232                                 
  22575134.136      396018.9702                                 
  24053020.412      595269.796                                  
  25288811.485      687877.4552                                 
  38603255.219      687823.0942                                 
  38705763.522      714615.0322                                 
 18  5 14 13 58 50.0000000  0 10G29G31G25G26S20G21G 5G23S23S25
  20209125.833      856670.323                                  
  21161166.306      857575.921                                  
  21756398.826     1033442.917                                  
  22040839.957      421276.174                                  
  38657372.506      722897.6092                                 
  22575712.828      399058.4582                                 
  24053882.426      599810.112                                  
  25289856.953      693375.7882                                 
  38604363.273      693644.9762                                 
  38706843.219      720308.4782                                 
 18  5 14 13 58 51.0000000  0 10G29G31G25G26S20G21G 5G23S23S25
  20210421.939      863478.915                                  
  21162466.504      864404.667                                  
  21757980.635     1041752.912                                  
  22041445.148      424457.280                                  
  38658458.599      728603.9442                                 
  22576292.237      402098.1032                                 
  24054743.760      604350.812                                  
  25290903.216      698874.4162                                 
  38605471.022      699466.6332                                 
  38707923.745      726001.6092                                 
 18  5 14 13 58 52.0000000  0 10G29G31G25G26S20G21G 5G23S23S25
  20211717.095      870288.756                                  
  21163765.917      871234.848                                  
  21759562.279     1050064.052                                  
  22042050.444      427639.437                                  
  38659544.814      734310.8862                                 
  22576871.026      405138.8612                                 
  24055605.216      608892.795                                  
  25291949.906      704374.3913                                 
  38606578.875      705289.1242                                 
  38709003.678      731695.5282                                 
 18  5 14 13 58 53.0000000  0 10G29G31G25G26S20G21G 5G23S23S25
  20213012.511      877096.525                                  
  21165065.112      878063.139                                  
  21761143.932     1058373.031                                  
  22042656.150      430819.359                                  
  38660630.471      740015.2882                                 
  22577449.247      408177.4612                                 
  24056466.638      613432.849                                  
  25292995.951      709872.4802                                 
  38607686.170      711109.0472                                 
  38710083.306      737386.8942                                 
 18  5 14 13 58 54.0000000  0 10G29G31G25G26S20G21G 5G23S23S25
  20214307.073      883901.904                                  
  21166364.202      884889.229                                  
  21762724.486     1066679.522                                  
  22043261.184      433996.677                                  
  38661715.298      745716.9402                                 
  22578026.308      411213.5452                                 
  24057328.705      617970.613                                  
  25294041.149      715368.2783                                 
  38608793.613      716926.1292                                 
  38711163.361      743075.4092                                 
 18  5 14 13 58 55.0000000  0 10G29G31G25G26S20G21G 5G23S23S25
  20215602.002      890707.133                                  
  21167663.057      891715.345                                  
  21764305.458     1074985.747                                  
  22043865.441      437173.695                                  
  38662800.082      751417.7262                                 
  22578604.120      414248.906                                  
  24058190.388      622508.2783                                 
  25295086.958      720864.0152                                 
  38609900.759      722742.6732                                 
  38712241.959      748763.3122                                 
 18  5 14 13 58 56.0000000  0 10G29G31G25G26S20G21G 5G23S23S25
  20216897.165      897511.790                                  
  21168962.042      898541.080                                  
  21765885.008     1083291.324                                  
  22044469.716      440349.957                                  
  38663884.831      757117.6722                                 
  22579181.181      417284.101                                  
  24059051.076      627045.5833                                 
  25296132.549      726359.3642                                 
  38611008.438      728558.1372                                 
  38713320.513      754450.2402                                 
 18  5 14 13 58 57.0000000  0  9G29G31G25G26S20G21G23S23S25
  20218191.623      904314.744                                  
  21170260.993      905365.267                                  
  21767464.864     1091595.056                                  
  22045073.781      443524.290                                  
  38664969.424      762815.4182                                 
  22579758.129      420318.0043                                 
  25297178.594      731853.0792                                 
  38612115.035      734371.4372                                 
  38714399.495      760134.9872                                 
 18  5 14 13 58 58.0000000  0 10G29G31G25G26S20G21G 5G23S23S25
  20219486.001      911114.764                                  
  21171558.975      912186.715                                  
  21769044.449     1099895.802                                  
  22045677.899      446695.581                                  
  38666052.576      768509.9762                                 
  22580335.810      423348.4223                                 
  24060771.624      636113.6243                                 
  25298223.382      737343.9942                                 
  38613220.419      740181.4792                                 
  38715476.374      765816.3272                                 
 18  5 14 13 58 59.0000000  0  9G29G31G25G26S20G 5G23S23S25
  20220779.682      917913.893                                  
  21172857.472      919007.500                                  
  21770624.426     1108195.706                                  
  22046281.720      449865.769                                  
  38667136.365      774203.5282                                 
  24061636.649      640645.8113                                 
  25299268.659      742834.2062                                 
  38614325.768      745990.2082                                 
  38716553.279      771496.3462                                 
 18  5 14 13 59  0.0000000  0  9G29G31G25G26S20G 5G23S23S25
  20222073.694      924713.236                                  
  21174155.881      925828.670                                  
  21772205.294     1116495.623                                  
  22046884.948      453035.990                                  
  38668220.068      779896.8422                                 
  24062502.223      645178.1883                                 
  25300313.229      748324.7573                                 
  38615431.021      751798.6542                                 
  38717631.572      777175.9792                                 
 18  5 14 13 59  1.0000000  0  9G29G31G25G26S20G 5G23S23S25
  20223367.663      931511.234                                  
  21175453.750      932648.660                                  
  21773784.190     1124794.103                                  
  22047487.975      456204.697                                  
  38669303.412      785588.2202                                 
  24063366.052      649709.6443                                 
  25301357.519      753814.0222                                 
  38616535.829      757605.3282                                 
  38718708.067      782853.8302                                 
 18  5 14 13 59  2.0000000  0  9G29G31G25G26S20G 5G23S23S25
  20224659.869      938305.547                                  
  21176751.060      939465.158                                  
  21775362.710     1133088.789                                  
  22048090.270      459369.538                                  
  38670385.195      791275.1352                                 
  24064229.751      654237.3533                                 
  25302400.676      759299.7732                                 
  38617640.036      763407.8832                                 
  38719784.239      788527.4902                                 
 18  5 14 13 59  3.0000000  0  9G29G31G25G26S20G 5G23S23S25
  20225951.743      945096.926                                  
  21178047.672      946278.929                                  
  21776940.751     1141380.455                                  
  22048691.822      462531.278                                  
  38671467.021      796958.6922                                 
  24065090.448      658762.0903                                 
  25303443.405      764782.6822                                 
  38618743.064      769207.0472                                 
  38720859.915      794197.7312                                 
 18  5 14 13 59  4.0000000  0  8G29G31G25G26S20G 5G23S23
  20227244.167      951888.773                                  
  21179344.922      953093.333                                  
  21778518.119     1149672.514                                  
  22049293.977      465693.288                                  
  38672549.065      802642.5302                                 
  24065957.515      663287.4612                                 
  25304486.562      770266.2312                                 
  38619847.148      775006.2972                                 
 18  5 14 13 59  5.0000000  0 10G29G31G25G26S20G21G 5G23S23S25
  20228536.688      958680.829                                  
  21180641.333      959908.127                                  
  21780096.151     1157964.666                                  
  22049895.922      468855.323                                  
  38673630.909      808326.2602                                 
  22584362.151      444524.8403                                 
  24066818.726      667813.1812                                 
  25305529.736      775750.1172                                 
  38620950.272      780805.2502                                 
  38723001.440      805554.4573                                 
 18  5 14 13 59  6.0000000  0 10G29G31G25G26S20G21G 5G23S23S25
  20229828.422      965469.410                                  
  21181937.169      966719.628                                  
  21781673.381     1166253.229                                  
  22050496.480      472013.701                                  
  38674712.543      814005.9102                                 
  22584935.853      447543.1453                                 
  24067675.523      672335.5652                                 
  25306572.552      781230.6522                                 
  38622053.649      786600.2962                                 
  38724075.274      811221.0073                                 
 18  5 14 13 59  7.0000000  0 10G29G31G25G26S20G21G 5G23S23S25
  20231119.259      972254.460                                  
  21183232.839      973527.788                                  
  21783249.057     1174538.190                                  
  22051096.916      475168.376                                  
  38675792.738      819681.5922                                 
  22585508.901      450557.5803                                 
  24068535.924      676854.5352                                 
  25307614.304      786707.7512                                 
  38623155.814      792391.3802                                 
  38725150.199      816883.1533                                 
 18  5 14 13 59  8.0000000  0 10G29G31G25G26S20G21G 5G23S23S25
  20232410.156      979039.377                                  
  21184528.439      980335.989                                  
  21784825.204     1182822.842                                  
  22051697.378      478322.709                                  
  38676872.671      825356.5382                                 
  22586086.538      453571.6903                                 
  24069399.387      681373.4142                                 
  25308656.762      792184.8452                                 
  38624257.795      798181.9472                                 
  38726222.105      822544.8733                                 
 18  5 14 13 59  9.0000000  0 10G29G31G25G26S20G21G 5G23S23S25
  20233701.490      985824.289                                  
  21185823.777      987144.372                                  
  21786401.517     1191107.465                                  
  22052297.892      481476.879                                  
  38677952.298      831031.1822                                 
  22586658.678      456585.9242                                 
  24070256.786      685892.4872                                 
  25309698.662      797662.1082                                 
  38625359.323      803972.0642                                 
  38727298.085      828206.0402                                 
 18  5 14 13 59 10.0000000  0 10G29G31G25G26S20G21G 5G23S23S25
  20234992.509      992605.767                                  
  21187119.229      993949.511                                  
  21787977.219     1199388.604                                  
  22052897.491      484627.442                                  
  38679031.271      836702.0532                                 
  22587233.951      459596.6042                                 
  24071115.930      690408.1752                                 
  25310740.074      803136.0172                                 
  38626460.370      809758.2742                                 
  38728373.272      833863.3202                                 
 18  5 14 13 59 11.0000000  0 10G29G31G25G26S20G21G 5G23S23S25
  20236282.298      999383.622                                  
  21188413.704     1000751.202                                  
  21789552.389     1207665.968                                  
  22053497.098      487774.193                                  
  38680109.433      842368.7022                                 
  22587808.805      462603.5742                                 
  24071974.498      694920.4452                                 
  25311780.718      808606.4212                                 
  38627560.127      815540.3902                                 
  38729444.828      839516.5722                                 
 18  5 14 13 59 12.0000000  0 10G29G31G25G26S20G21G 5G23S23S25
  20237572.105     1006160.638                                  
  21189708.196     1007552.275                                  
  21791126.705     1215942.430                                  
  22054095.727      490919.929                                  
  38681187.342      848033.8942                                 
  22588381.442      465609.6012                                 
  24072833.459      699431.9842                                 
  25312821.789      814076.1582                                 
  38628660.860      821321.2692                                 
  38730518.785      845168.4902                                 
 18  5 14 13 59 13.0000000  0 10G29G31G25G26S20G21G 5G23S23S25
  20238861.275     1012937.669                                  
  21191002.601     1014353.524                                  
  21792701.569     1224218.803                                  
  22054694.436      494065.524                                  
  38682265.146      853698.7882                                 
  22588954.952      468615.5492                                 
  24073691.425      703943.120                                  
  25313862.834      819545.533                                  
  38629760.791      827101.7552                                 
  38731592.147      850819.9802                                 
 18  5 14 13 59 14.0000000  0 10G29G31G25G26S20G21G 5G23S23S25
  20240151.020     1019712.794                                  
  21192296.334     1021153.056                                  
  21794275.404     1232493.212                                  
  22055292.498      497209.028                                  
  38683342.714      859361.7222                                 
  22589525.592      471619.5842                                 
  24074549.452      708453.008                                  
  25314904.533      825013.617                                  
  38630860.137      832879.9072                                 
  38732663.983      856469.2022                                 
 18  5 14 13 59 15.0000000  0 10G29G31G25G26S20G21G 5G23S23S25
  20241439.527     1026484.736                                  
  21193589.674     1027949.579                                  
  21795848.995     1240764.284                                  
  22055889.828      500349.177                                  
  38684419.750      865020.9012                                 
  22590095.298      474620.1982                                 
  24075407.034      712959.779                                  
  25315944.549      830478.659                                  
  38631958.018      838654.3942                                 
  38733734.772      862114.8442                                 
 18  5 14 13 59 16.0000000  0  9G29G31G25G26S20G21G 5G23S23
  20242728.313     1033255.249                                  
  21194883.250     1034744.848                                  
  21797422.132     1249033.884                                  
  22056487.157      503487.705                                  
  38685496.307      870677.9422                                 
  22590665.152      477619.2962                                 
  24076263.491      717465.265                                  
  25316984.303      835942.443                                  
  38633056.474      844427.0392                                 
 18  5 14 13 59 17.0000000  0 10G29G31G25G26S20G21G 5G23S23S25
  20244016.086     1040025.869                                  
  21196175.578     1041540.442                                  
  21798995.828     1257303.523                                  
  22057084.478      506626.161                                  
  38686572.802      876334.8232                                 
  22591235.844      480618.4972                                 
  24077120.279      721970.988                                  
  25318023.830      841406.374                                  
  38634154.957      850199.3612                                 
  38735868.550      873405.0633                                 
 18  5 14 13 59 18.0000000  0 10G29G31G25G26S20G21G 5G23S23S25
  20245304.802     1046796.938                                  
  21197468.849     1048336.667                                  
  21800569.279     1265573.629                                  
  22057681.250      509764.915                                  
  38687649.053      881991.7152                                 
  22591806.091      483618.0252                                 
  24077976.212      726477.298                                  
  25319063.339      846870.999                                  
  38635253.308      855971.7682                                 
  38736938.344      879048.4213                                 
 18  5 14 13 59 19.0000000  0  9G29G31G25G26S20G21G 5G23S23
  20246592.690     1053565.056                                  
  21198761.709     1055130.142                                  
  21802142.739     1273840.490                                  
  22058277.899      512900.526                                  
  38688724.981      887645.1182                                 
  22592375.998      486614.507                                  
  24078832.852      730980.769                                  
  25320103.302      852332.681                                  
  38636350.988      861740.6862                                 
 18  5 14 13 59 20.0000000  0  9G29G31G25G26S20G21G 5G23S23
  20247880.463     1060330.731                                  
  21200053.976     1061921.303                                  
  21803715.265     1282104.937                                  
  22058874.199      516033.494                                  
  38689799.775      893295.7962                                 
  22592945.582      489608.430                                  
  24079689.614      735481.879                                  
  25321141.826      857792.090                                  
  38637448.467      867506.7262                                 
 18  5 14 13 59 21.0000000  0  9G29G31G25G26S20G21G 5G23S23
  20249167.661     1067096.371                                  
  21201346.715     1068712.677                                  
  21805288.830     1290369.173                                  
  22059470.482      519166.285                                  
  38690875.005      898946.1862                                 
  22593514.049      492602.276                                  
  24080546.289      739983.081                                  
  25322180.524      863251.629                                  
  38638545.763      873272.3492                                 
 18  5 14 13 59 22.0000000  0  9G29G31G25G26S20G21G 5G23S23
  20250455.592     1073862.128                                  
  21202639.034     1075504.333                                  
  21806862.517     1298633.453                                  
  22060066.127      522298.983                                  
  38691950.095      904596.2372                                 
  22594083.257      495595.988                                  
  24081402.484      744484.520                                  
  25323219.484      868711.400                                  
  38639643.181      879037.6662                                 
 18  5 14 13 59 23.0000000  0  9G29G31G25G26S20G21G 5G23S23
  20251742.074     1080625.129                                  
  21203930.115     1082293.402                                  
  21808434.720     1306894.926                                  
  22060661.503      525428.759                                  
  38693024.645      910242.9482                                 
  22594651.532      498587.007                                  
  24082257.571      748983.336                                  
  25324256.725      874168.557                                  
  38640739.203      884799.7002                                 
 18  5 14 13 59 24.0000000  0  9G29G31G25G26S20G21G 5G23S23
  20253028.417     1087385.119                                  
  21205221.256     1089079.652                                  
  21810006.662     1315153.295                                  
  22061256.215      528555.343                                  
  38694097.650      915886.0132                                 
  22595220.453      501574.952                                  
  24083112.213      753479.258                                  
  25325294.070      879622.811                                  
  38641834.850      890558.3262                                 
 18  5 14 13 59 25.0000000  0  9G29G31G25G26S20G21G 5G23S23
  20254315.039     1094144.678                                  
  21206512.127     1095865.685                                  
  21811578.220     1323411.097                                  
  22061850.412      531681.359                                  
  38695170.716      921528.0962                                 
  22595788.606      504562.243                                  
  24083966.061      757974.898                                  
  25326331.922      885076.788                                  
  38642930.924      896316.1102                                 
 18  5 14 13 59 26.0000000  0  9G29G31G25G26S20G21G 5G23S23
  20255601.513     1100904.756                                  
  21207803.758     1102652.400                                  
  21813149.316     1331669.338                                  
  22062445.421      534807.686                                  
  38696244.236      927170.3092                                 
  22596356.157      507550.089                                  
  24084820.135      762471.149                                  
  25327369.800      890531.352                                  
  38644026.152      902073.9832                                 
 18  5 14 13 59 27.0000000  0  9G29G31G25G26S20G21G 5G23S23
  20256887.515     1107662.649                                  
  21209094.969     1109437.115                                  
  21814720.376     1339925.290                                  
  22063039.924      537931.628                                  
  38697317.241      932810.3632                                 
  22596924.275      510535.565                                  
  24085674.184      766965.282                                  
  25328407.573      895984.3603                                 
  38645121.555      907829.1542                                 
 18  5 14 13 59 28.0000000  0  9G29G31G25G26S20G21G 5G23S23
  20258173.431     1114417.553                                  
  21210386.006     1116219.023                                  
  21816290.965     1348178.182                                  
  22063633.920      541052.421                                  
  38698390.072      938446.9112                                 
  22597491.293      513518.020                                  
  24086527.779      771456.653                                  
  25329444.893      901434.0722                                 
  38646215.910      913580.9662                                 
 18  5 14 13 59 29.0000000  0 10G29G31G25G26S20G21G 5G12G23S23
  20259458.831     1121171.724                                  
  21211677.034     1123000.373                                  
  21817861.127     1356430.240                                  
  22064227.079      544172.301                                  
  38699462.527      944082.1512                                 
  22598058.766      516499.615                                  
  24087382.072      775947.364                                  
  25103152.397     1517509.5363                                 
  25330481.505      906883.1452                                 
  38647310.606      919331.6462                                 
 18  5 14 13 59 30.0000000  0 10G29G31G25G26S20G21G 5G12G23S23
  20260744.293     1127925.805                                  
  21212967.408     1129781.820                                  
  21819431.176     1364682.104                                  
  22064820.867      547291.915                                  
  38700534.992      949717.0062                                 
  22598626.212      519481.058                                  
  24088236.085      780438.5963                                 
  25104899.417     1526704.3803                                 
  25331518.676      912332.2342                                 
  38648404.979      925081.8282                                 
 18  5 14 13 59 31.0000000  0 10G29G31G25G26S20G21G 5G23S23S25
  20262029.397     1134678.106                                  
  21214258.061     1136561.667                                  
  21821000.814     1372932.125                                  
  22065414.593      550409.573                                  
  38701606.732      955349.8352                                 
  22599193.318      522460.588                                  
  24089090.378      784927.6802                                 
  25332555.708      917779.7032                                 
  38649498.959      930829.7702                                 
  38750825.786      952237.0942                                 
 18  5 14 13 59 32.0000000  0 10G29G31G25G26S20G21G 5G23S23S25
  20263313.523     1141427.578                                  
  21215547.728     1143338.887                                  
  21822569.824     1381179.211                                  
  22066007.438      553524.226                                  
  38702678.341      960979.2272                                 
  22599759.892      525437.235                                  
  24089944.601      789414.0242                                 
  25333592.260      923224.4842                                 
  38650591.919      936574.4382                                 
  38751890.398      957853.3172                                 
 18  5 14 13 59 33.0000000  0 11G29G31G25G26S20G21G 5G12G23S23S25
  20264597.118     1148174.156                                  
  21216836.453     1150113.392                                  
  21824138.547     1389423.307                                  
  22066599.594      556635.820                                  
  38703748.571      966605.4332                                 
  22600325.750      528410.927                                  
  24090797.742      793897.5732                                 
  25110137.763     1554273.0213                                 
  25334627.284      928666.4832                                 
  38651684.241      942315.7852                                 
  38752955.768      963466.1822                                 
 18  5 14 13 59 34.0000000  0 11G29G31G25G26S20G21G 5G12G23S23S25
  20265881.454     1154921.626                                  
  21218125.465     1156888.966                                  
  21825706.780     1397668.196                                  
  22067191.662      559748.109                                  
  38704819.151      972231.9892                                 
  22600891.591      531385.350                                  
  24091651.224      798382.2482                                 
  25111884.573     1563459.7053                                 
  25335662.335      934109.5142                                 
  38652776.904      948057.5662                                 
  38754020.302      969079.4762                                 
 18  5 14 13 59 35.0000000  0 10G29G31G25G26S20G21G 5G23S23S25
  20267165.589     1161668.787                                  
  21219414.661     1163664.432                                  
  21827275.310     1405912.691                                  
  22067783.722      562859.941                                  
  38705889.704      977857.3552                                 
  22601457.414      534359.404                                  
  24092504.836      802866.5823                                 
  25336697.753      939552.3332                                 
  38653868.921      953798.6262                                 
  38755084.180      974691.9852                                 
 18  5 14 13 59 36.0000000  0 10G29G31G25G26S20G21G 5G23S23S25
  20268449.227     1168413.278                                  
  21220703.438     1170437.397                                  
  21828843.413     1414154.402                                  
  22068375.616      565968.900                                  
  38706959.411      983479.6212                                 
  22602022.993      537330.698                                  
  24093357.689      807348.5002                                 
  25337733.231      944992.6322                                 
  38654960.485      959536.5413                                 
  38756147.989      980301.3252                                 
 18  5 14 13 59 37.0000000  0 10G29G31G25G26S20G21G 5G23S23S25
  20269732.036     1175154.811                                  
  21221991.893     1177207.602                                  
  21830411.402     1422393.112                                  
  22068966.672      569074.760                                  
  38708028.682      989098.6662                                 
  22602588.188      540298.912                                  
  24094210.935      811827.5392                                 
  25338767.575      950429.604                                  
  38656051.943      965271.0432                                 
  38757210.446      985907.2612                                 
 18  5 14 13 59 38.0000000  0 10G29G31G25G26S20G21G 5G23S23S25
  20271014.924     1181896.145                                  
  21223280.487     1183977.785                                  
  21831979.139     1430631.520                                  
  22069557.179      572180.228                                  
  38709097.744      994717.2312                                 
  22603152.833      543266.896                                  
  24095064.452      816306.4622                                 
  25339802.548      955867.042                                  
  38657142.661      971004.9912                                 
  38758273.557      991512.5482                                 
 18  5 14 13 59 39.0000000  0 10G29G31G25G26S20G21G 5G23S23S25
  20272297.820     1188637.169                                  
  21224568.766     1190747.826                                  
  21833547.050     1438869.478                                  
  22070148.488      575285.183                                  
  38710166.639     1000335.2022                                 
  22603717.679      546234.483                                  
  24095917.523      820785.1782                                 
  25340837.328      961304.241                                  
  38658234.119      976738.1782                                 
  38759336.685      997117.0322                                 
 18  5 14 13 59 40.0000000  0  9G29G31G25G26S20G21G 5G23S23
  20273579.984     1195375.905                                  
  21225856.278     1197515.771                                  
  21835114.210     1447105.073                                  
  22070738.462      578387.731                                  
  38711235.264     1005950.2452                                 
  22604281.278      549199.658                                  
  24096770.193      825261.7762                                 
  25341871.332      966739.305                                  
  38659324.610      982468.6622                                 
 18  5 14 13 59 41.0000000  0  9G29G31G25G26S20G21G 5G23S23
  20274861.632     1202112.215                                  
  21227143.773     1204281.484                                  
  21836681.082     1455338.129                                  
  22071329.030      581487.622                                  
  38712303.314     1011562.2722                                 
  22604845.600      552162.335                                  
  24097621.755      829736.0902                                 
  25342904.821      972172.046                                  
  38660414.393      988196.2892                                 
 18  5 14 13 59 42.0000000  0  9G29G31G25G26S20G21G 5G23S23
  20276143.368     1208848.428                                  
  21228430.683     1211047.297                                  
  21838248.496     1463571.095                                  
  22071918.586      584587.273                                  
  38713371.511     1017173.6912                                 
  22605409.277      555124.782                                  
  24098473.735      834210.3742                                 
  25343938.790      977604.887                                  
  38661504.761      993923.3932                                 
 18  5 14 13 59 43.0000000  0  9G29G31G25G26S20G21G 5G23S23
  20277425.505     1215585.477                                  
  21229718.448     1217814.096                                  
  21839814.670     1471804.762                                  
  22072508.028      587687.561                                  
  38714439.918     1022785.6552                                 
  22605973.391      558088.086                                  
  24099325.830      838685.103                                  
  25344973.527      983038.670                                  
  38662594.475      999650.8222                                 
 18  5 14 13 59 44.0000000  0  8G29G31G25G26S20G21G23S23
  20278707.381     1222320.743                                  
  21231005.968     1224579.356                                  
  21841381.342     1480036.598                                  
  22073098.194      590785.925                                  
  38715507.941     1028395.5532                                 
  22606536.963      561049.537                                  
  25346006.510      988470.772                                  
  38663684.529     1005376.0912                                 
 18  5 14 13 59 45.0000000  0  8G29G31G25G26S20G21G23S23
  20279988.803     1229053.180                                  
  21232293.254     1231341.961                                  
  21842948.302     1488265.483                                  
  22073687.104      593881.271                                  
  38716574.446     1034002.2512                                 
  22607100.151      564007.984                                  
  25347040.078      993900.211                                  
  38664773.274     1011098.0542                                 
 18  5 14 13 59 46.0000000  0  8G29G31G25G26S20G21G23S23
  20281269.666     1235784.348                                  
  21233580.216     1238103.461                                  
  21844514.206     1496492.944                                  
  22074275.438      596975.161                                  
  38717641.065     1039607.1182                                 
  22607662.397      566965.062                                  
  25348072.738      999328.458                                  
  38665861.505     1016818.3022                                 
 18  5 14 13 59 47.0000000  0  9G29G31G25G26S20G21G 5G23S23
  20282550.521     1242515.660                                  
  21234866.559     1244865.304                                  
  21846080.337     1504720.447                                  
  22074864.470      600069.031                                  
  38718707.718     1045211.4032                                 
  22608224.730      569922.207                                  
  24102730.908      856569.9703                                 
  25349106.297     1004757.034                                  
  38666949.875     1022538.2732                                 
 18  5 14 13 59 48.0000000  0  9G29G31G25G26S20G21G 5G23S23
  20283830.966     1249246.223                                  
  21236152.273     1251626.569                                  
  21847644.862     1512947.133                                  
  22075453.101      603161.958                                  
  38719773.918     1050814.5662                                 
  22608786.854      572878.474                                  
  24103579.381      861039.4933                                 
  25350139.053     1010184.924                                  
  38668038.236     1028257.0812                                 
 18  5 14 13 59 49.0000000  0  9G29G31G25G26S20G21G 5G23S23
  20285110.616     1255974.056                                  
  21237438.005     1258385.292                                  
  21849211.901     1521170.6113                                 
  22076041.261      606252.008                                  
  38720839.690     1056414.7752                                 
  22609348.943      575831.9273                                 
  24104428.561      865506.3463                                 
  25351170.754     1015610.295                                  
  38669125.655     1033972.7342                                 
 18  5 14 13 59 50.0000000  0  9G29G31G25G26S20G21G 5G23S23
  20286390.529     1262699.437                                  
  21238724.121     1265141.735                                  
  21850778.468     1529392.2633                                 
  22076628.853      609339.419                                  
  38721905.052     1062012.4542                                 
  22609910.020      578782.8712                                 
  24105277.401      869970.7773                                 
  25352202.638     1021033.280                                  
  38670213.057     1039685.5002                                 
 18  5 14 13 59 51.0000000  0  9G29G31G25G26S20G21G 5G23S23
  20287670.284     1269423.656                                  
  21240010.822     1271897.265                                  
  21852343.299     1537612.3663                                 
  22077216.070      612425.495                                  
  38722969.227     1067608.1462                                 
  22610471.402      581732.5652                                 
  24106126.005      874433.9373                                 
  25353234.164     1026455.252                                  
  38671299.761     1045396.6312                                 
 18  5 14 13 59 52.0000000  0  9G29G31G25G26S20G21G 5G23S23
  20288949.926     1276148.134                                  
  21241295.917     1278653.154                                  
  21853904.203     1545832.6713                                 
  22077803.707      615511.630                                  
  38724034.441     1073203.5602                                 
  22611032.802      584682.4512                                 
  24106970.517      878897.8203                                 
  25354265.855     1031877.606                                  
  38672386.822     1051107.5702                                 
 18  5 14 13 59 53.0000000  0  9G29G31G25G26S20G21G 5G23S23
  20290228.564     1282869.982                                  
  21242580.305     1285406.602                                  
  21855460.640     1554049.8963                                 
  22078390.252      618594.981                                  
  38725099.096     1078795.8462                                 
  22611593.207      587629.5282                                 
  24107822.847      883359.0502                                 
  25355297.059     1037297.484                                  
  38673472.784     1056815.4382                                 
 18  5 14 13 59 54.0000000  0  9G29G31G26S20G21G 5G23S23S25
  20291507.526     1289589.332                                  
  21243864.807     1292157.780                                  
  22078976.736      621675.656                                  
  38726162.303     1084385.1422                                 
  22612153.612      590573.9772                                 
  24108666.835      887818.0263                                 
  25356327.939     1042714.969                                  
  38674558.650     1062520.3672                                 
  38775235.709     1080995.5342                                 
 18  5 14 13 59 55.0000000  0  9G29G31G26S20G21G 5G23S23S25
  20292786.121     1296308.471                                  
  21245148.977     1298908.943                                  
  22079562.793      624755.964                                  
  38727225.318     1089973.9002                                 
  22612713.869      593517.7403                                 
  24109515.963      892276.8053                                 
  25357359.151     1048132.363                                  
  38675643.757     1068224.7202                                 
  38776293.349     1086571.1072                                 
 18  5 14 13 59 56.0000000  0  7G29G31G26S20G23S23S25
  20294064.279     1303028.475                                  
  21246434.247     1305661.119                                  
  22080149.094      627836.940                                  
  38728288.839     1095563.2862                                 
  25358390.249     1053550.754                                  
  38676729.265     1073929.4292                                 
  38777350.911     1092147.1382                                 
 18  5 14 13 59 57.0000000  0  8G29G31G25G26S20G23S23S25
  20295342.962     1309746.368                                  
  21247719.159     1312411.402                                  
  21861711.588     1586909.7393                                 
  22080735.544      630915.640                                  
  38729351.644     1101150.2922                                 
  25359421.784     1058967.187                                  
  38677814.572     1079631.5772                                 
  38778407.539     1097720.6652                                 
 18  5 14 13 59 58.0000000  0  8G29G31G25G26S20G23S23S25
  20296620.710     1316461.950                                  
  21249003.547     1319159.544                                  
  21863275.179     1595120.6023                                 
  22081319.925      633991.852                                  
  38730413.760     1106734.3212                                 
  25360452.254     1064381.446                                  
  38678899.400     1085331.0362                                 
  38779462.989     1103291.4552                                 
 18  5 14 13 59 59.0000000  0  8G29G31G25G26S20G23S23S25
  20297898.528     1323176.811                                  
  21250287.237     1325907.157                                  
  21864838.649     1603331.7413                                 
  22081905.310      637067.196                                  
  38731476.016     1112316.9802                                 
  25361481.852     1069795.128                                  
  38679983.940     1091029.3052                                 
  38780518.928     1108861.1632                                 
 18  5 14 14  0  0.0000000  0  9G29G31G25G26S20G21G23S23S25
  20299175.945     1329892.287                                  
  21251571.094     1332655.511                                  
  21866400.339     1611542.0133                                 
  22082490.469      640142.938                                  
  38732538.516     1117899.8062                                 
  22615506.401      608224.3943                                 
  25362511.851     1075209.473                                  
  38681068.741     1096727.7572                                 
  38781575.225     1114431.0192                                 
 18  5 14 14  0  1.0000000  0  9G29G31G25G26S20G21G23S23S25
  20300453.886     1336606.785                                  
  21252855.334     1339403.144                                  
  21867967.386     1619751.4133                                 
  22083076.194      643217.521                                  
  38733601.514     1123481.4372                                 
  22616070.758      611163.7363                                 
  25363542.984     1080623.038                                  
  38682152.688     1102424.7502                                 
  38782632.254     1119999.4542                                 
 18  5 14 14  0  2.0000000  0  9G29G31G25G26S20G21G23S23S25
  20301731.669     1343318.428                                  
  21254139.574     1346148.073                                  
  21869530.009     1627957.6992                                 
  22083660.061      646289.121                                  
  38734663.246     1129059.6862                                 
  22616625.667      614100.1273                                 
  25364572.739     1086033.797                                  
  38683236.277     1108118.4872                                 
  38783687.905     1125564.6742                                 
 18  5 14 14  0  3.0000000  0  9G29G31G25G26S20G21G23S23S25
  20303008.397     1350028.269                                  
  21255423.290     1352891.391                                  
  21871091.568     1636162.3202                                 
  22084244.032      649358.733                                  
  38735725.048     1134635.8902                                 
  22617188.794      617034.1693                                 
  25365602.328     1091442.961                                  
  38684318.836     1113810.0032                                 
  38784743.120     1131127.7302                                 
 18  5 14 14  0  4.0000000  0  9G29G31G25G26S20G21G23S23S25
  20304285.762     1356738.301                                  
  21256706.745     1359635.114                                  
  21872652.333     1644367.0602                                 
  22084828.545      652428.377                                  
  38736785.891     1140211.9892                                 
  22617747.367      619968.4993                                 
  25366631.673     1096852.456                                  
  38685401.439     1119501.2872                                 
  38785798.527     1136690.5292                                 
 18  5 14 14  0  5.0000000  0 10G29G31G25G26S20G21G 5G23S23S25
  20305562.760     1363447.794                                  
  21257990.113     1366378.417                                  
  21874212.130     1652571.0922                                 
  22085412.961      655497.275                                  
  38737847.335     1145786.8212                                 
  22618304.186      622902.0332                                 
  24117995.809      936820.2303                                 
  25367660.730     1102261.556                                  
  38686484.294     1125191.4112                                 
  38786853.523     1142252.2362                                 
 18  5 14 14  0  6.0000000  0  9G29G31G25G26S20G21G23S23S25
  20306838.537     1370153.265                                  
  21259272.398     1373117.929                                  
  21875773.514     1660770.9592                                 
  22085996.261      658561.996                                  
  38738907.532     1151357.2802                                 
  22618861.703      625831.6282                                 
  25368688.373     1107666.695                                  
  38687566.033     1130877.0853                                 
  38787907.490     1147809.5032                                 
 18  5 14 14  0  7.0000000  0 11G29G31G25G26S20G21G 5G16G23S23S25
  20308114.392     1376856.007                                  
  21260553.803     1379854.902                                  
  21877333.677     1668968.0652                                 
  22086578.828      661623.804                                  
  38739966.751     1156924.4172                                 
  22619419.647      628758.4192                                 
  24119689.047      945710.7053                                 
  24325695.481      528965.9203                                 
  25369716.130     1113069.286                                  
  38688647.039     1136561.8213                                 
  38788960.698     1153363.6042                                 
 18  5 14 14  0  8.0000000  0 11G29G31G25G26S20G21G 5G16G23S23S25
  20309389.898     1383559.144                                  
  21261836.018     1386592.453                                  
  21878893.726     1677165.4482                                 
  22087161.499      664685.862                                  
  38741026.538     1162491.4712                                 
  22619977.976      631685.5502                                 
  24120542.127      950154.8713                                 
  24326132.609      531248.5423                                 
  25370744.550     1118472.418                                  
  38689728.560     1142244.8603                                 
  38790013.557     1158917.7092                                 
 18  5 14 14  0  9.0000000  0 10G29G31G25G26S20G21G 5G23S23S25
  20310665.719     1390262.517                                  
  21263118.025     1393330.399                                  
  21880455.032     1685362.9362                                 
  22087744.101      667747.930                                  
  38742086.455     1168058.4062                                 
  22620535.196      634612.8342                                 
  24121385.967      954599.5932                                 
  25371772.664     1123875.896                                  
  38690810.177     1147927.6293                                 
  38791067.550     1164471.5202                                 
 18  5 14 14  0 10.0000000  0 10G29G31G25G26S20G21G 5G23S23S25
  20311940.762     1396962.204                                  
  21264399.368     1400064.903                                  
  21882013.057     1693556.5983                                 
  22088326.135      670806.208                                  
  38743145.413     1173621.1832                                 
  22621090.968      637536.2232                                 
  24122231.806      959040.8402                                 
  25372800.325     1129275.830                                  
  38691890.651     1153605.9962                                 
  38792119.842     1170021.2242                                 
 18  5 14 14  0 11.0000000  0 10G29G31G25G26S20G21G 5G23S23S25
  20313214.654     1403658.422                                  
  21265680.031     1406796.090                                  
  21883571.563     1701746.8973                                 
  22088907.236      673860.809                                  
  38744202.669     1179179.9432                                 
  22621646.173      640456.1612                                 
  24123075.593      963478.7223                                 
  25373827.166     1134672.365                                  
  38692970.689     1159280.4042                                 
  38793171.671     1175567.1002                                 
 18  5 14 14  0 12.0000000  0 10G29G31G25G26S20G21G 5G23S23S25
  20314489.244     1410353.947                                  
  21266960.545     1413526.758                                  
  21885129.954     1709936.3313                                 
  22089488.809      676914.544                                  
  38745260.240     1184737.7442                                 
  22622201.447      643375.2972                                 
  24123912.497      967916.0122                                 
  25374853.814     1140068.400                                  
  38694050.813     1164953.7712                                 
  38794222.933     1181111.8692                                 
 18  5 14 14  0 13.0000000  0 10G29G31G25G26S20G21G 5G23S23S25
  20315763.163     1417049.916                                  
  21268242.072     1420258.065                                  
  21886689.009     1718126.1663                                 
  22090069.491      679968.552                                  
  38746317.531     1190295.7222                                 
  22622756.713      646294.298                                  
  24124761.101      972353.9212                                 
  25375881.231     1145464.989                                  
  38695130.851     1170627.0422                                 
  38795273.611     1186656.6382                                 
 18  5 14 14  0 14.0000000  0 10G29G31G25G26S20G21G 5G23S23S25
  20317037.255     1423743.872                                  
  21269522.630     1426987.534                                  
  21888247.471     1726313.8383                                 
  22090650.374      683020.370                                  
  38747374.657     1195851.2162                                 
  22623311.552      649211.672                                  
  24125606.355      976789.9503                                 
  25376908.080     1150859.691                                  
  38696209.711     1176297.9032                                 
  38796316.043     1192217.2223                                 
 18  5 14 14  0 15.0000000  0 10G29G31G25G26S20G21G 5G23S23S25
  20318310.371     1430434.809                                  
  21270801.879     1433714.175                                  
  21889805.260     1734498.4553                                 
  22091230.113      686069.001                                  
  38748431.154     1201403.6032                                 
  22623866.617      652125.946                                  
  24126449.453      981223.0552                                 
  25377934.406     1156251.491                                  
  38697288.126     1181965.3012                                 
  38797364.182     1197755.6833                                 
 18  5 14 14  0 16.0000000  0 10G29G31G25G26S20G21G 5G23S23S25
  20319583.521     1437124.479                                  
  21272081.722     1440439.745                                  
  21891363.259     1742681.7253                                 
  22091810.106      689116.202                                  
  38749487.372     1206954.2302                                 
  22624421.089      655038.835                                  
  24127293.119      985655.0602                                 
  25378960.042     1161642.199                                  
  38698366.540     1187630.9882                                 
  38798419.056     1203292.7513                                 
 18  5 14 14  0 17.0000000  0 10G29G31G25G26S20G21G 5G23S23S25
  20320856.785     1443814.568                                  
  21273361.800     1447165.916                                  
  21892922.820     1750865.2982                                 
  22092389.872      692163.637                                  
  38750543.555     1212504.4242                                 
  22624975.177      657952.082                                  
  24128136.750      990087.5482                                 
  25379986.202     1167033.434                                  
  38699443.978     1193296.6602                                 
  38799461.864     1208829.9003                                 
 18  5 14 14  0 18.0000000  0 11G29G31G25G26S20G21G 5G12G23S23S25
  20322129.299     1450504.108                                  
  21274641.512     1453891.719                                  
  21894481.255     1759048.2383                                 
  22092969.193      695210.370                                  
  38751599.223     1218053.5312                                 
  22625529.963      660864.699                                  
  24128979.997      994519.6152                                 
  25188529.341     1966037.5083                                 
  25381012.493     1172424.277                                  
  38700521.913     1198961.3612                                 
  38800515.054     1214366.0382                                 
 18  5 14 14  0 19.0000000  0 11G29G31G25G26S20G21G 5G12G23S23S25
  20323402.030     1457190.184                                  
  21275921.040     1460614.243                                  
  21896039.734     1767227.6172                                 
  22093548.104      698253.461                                  
  38752653.845     1223598.9682                                 
  22626083.109      663773.805                                  
  24129822.772      998948.3962                                 
  25190261.973     1975146.6493                                 
  25382037.624     1177811.764                                  
  38701599.533     1204622.1992                                 
  38801561.413     1219898.2142                                 
 18  5 14 14  0 20.0000000  0 11G29G31G25G26S20G21G 5G12G23S23S25
  20324674.239     1463873.667                                  
  21277200.351     1467334.363                                  
  21897597.193     1775404.2912                                 
  22094126.954      701293.778                                  
  38753708.702     1229141.6922                                 
  22626636.508      666680.200                                  
  24130665.164     1003374.6652                                 
  25191992.302     1984252.5433                                 
  25383062.850     1183196.765                                  
  38702676.299     1210279.9482                                 
  38802612.553     1225427.3242                                 
 18  5 14 14  0 21.0000000  0 11G29G31G25G26S20G21G 5G12G23S23S25
  20325945.513     1470557.077                                  
  21278479.486     1474054.606                                  
  21899154.389     1783580.8072                                 
  22094705.769      704333.856                                  
  38754763.341     1234683.6542                                 
  22627190.020      669586.424                                  
  24131507.713     1007800.9912                                 
  25193727.333     1993358.0943                                 
  25384087.510     1188581.860                                  
  38703753.204     1215937.2442                                 
  38803663.684     1230955.9242                                 
 18  5 14 14  0 22.0000000  0 12G29G31G25G26S20G21G 5G12G16G23S23S25
  20327217.128     1477241.003                                  
  21279759.102     1480775.543                                  
  21900711.533     1791757.8442                                 
  22095284.209      707374.288                                  
  38755817.866     1240225.5982                                 
  22627743.314      672493.116                                  
  24132350.218     1012228.0192                                 
  25195463.866     2002463.9483                                 
  24332205.250      563005.5723                                 
  25385111.820     1193967.595                                  
  38704829.743     1221594.5572                                 
  38804714.231     1236484.5912                                 
 18  5 14 14  0 23.0000000  0 11G29G31G25G26S20G21G12G16G23S23S25
  20328488.298     1483922.850                                  
  21281038.046     1487494.568                                  
  21902264.672     1799932.7182                                 
  22095862.396      710412.444                                  
  38756871.597     1245764.9472                                 
  22628296.015      675397.664                                  
  25197192.685     2011567.2503                                 
  24332632.327      565261.4203                                 
  25386136.017     1199351.412                                  
  38705905.296     1227249.4202                                 
  38805763.582     1242010.6772                                 
 18  5 14 14  0 24.0000000  0 11G29G31G25G26S20G21G12G16G23S23S25
  20329759.398     1490602.312                                  
  21282315.446     1494211.410                                  
  21903816.110     1808105.0972                                 
  22096440.024      713448.110                                  
  38757925.390     1251301.4642                                 
  22628848.663      678299.731                                  
  25198922.926     2020667.8893                                 
  24333059.115      567514.5913                                 
  25387159.673     1204732.958                                  
  38706980.448     1232901.3902                                 
  38806812.088     1247534.0182                                 
 18  5 14 14  0 25.0000000  0 10G29G31G25G26S20G21G12G16G23S25
  20331030.821     1497282.076                                  
  21283594.328     1500928.734                                  
  21905368.734     1816277.084                                  
  22097017.679      716483.850                                  
  38758978.659     1256838.0262                                 
  22629402.079      681201.965                                  
  25200654.040     2029768.2453                                 
  24333486.227      569767.4793                                 
  25388183.556     1210114.952                                  
  38807860.322     1253057.2772                                 
 18  5 14 14  0 26.0000000  0 12G29G31G25G26S20G21G 5G12G16G23S23S25
  20332301.737     1503962.503                                  
  21284872.827     1507646.926                                  
  21906922.685     1824450.169                                  
  22097595.674      719520.101                                  
  38760032.573     1262374.9462                                 
  22629954.780      684104.810                                  
  24135715.833     1029926.5733                                 
  25202384.195     2038869.0373                                 
  24333910.956      572020.7823                                 
  25389207.552     1215497.677                                  
  38709132.121     1244205.6052                                 
  38808908.016     1258580.7982                                 
 18  5 14 14  0 27.0000000  0 11G29G31G25G26S20G21G 5G16G23S23S25
  20333572.288     1510641.589                                  
  21286150.995     1514363.946                                  
  21908477.796     1832621.823                                  
  22098173.363      722554.840                                  
  38761085.659     1267910.0982                                 
  22630506.591      687006.214                                  
  24136555.511     1034349.4343                                 
  24334337.396      574272.3972                                 
  25390231.679     1220879.271                                  
  38710207.246     1249855.9582                                 
  38809955.648     1264102.5932                                 
 18  5 14 14  0 28.0000000  0 11G29G31G25G26S20G21G 5G16G23S23S25
  20334843.039     1517318.239                                  
  21287428.682     1521078.727                                  
  21910032.200     1840790.937                                  
  22098750.058      725586.944                                  
  38762138.841     1273442.2802                                 
  22631058.061      689905.079                                  
  24137399.090     1038769.9003                                 
  24334768.861      576521.2542                                 
  25391255.571     1226258.520                                  
  38711281.787     1255503.4342                                 
  38811002.068     1269621.5182                                 
 18  5 14 14  0 29.0000000  0 11G29G31G25G26S20G21G 5G16G23S23S25
  20336113.345     1523994.227                                  
  21288706.754     1527793.029                                  
  21911586.282     1848959.308                                  
  22099326.613      728618.238                                  
  38763191.368     1278973.2932                                 
  22631609.689      692803.216                                  
  24138241.403     1043189.7533                                 
  24335194.080      578769.0002                                 
  25392279.122     1231637.202                                  
  38712356.109     1261149.8372                                 
  38812048.339     1275139.3752                                 
 18  5 14 14  0 30.0000000  0 11G29G31G25G26S20G21G 5G16G23S23S25
  20337383.189     1530670.827                                  
  21289984.293     1534508.108                                  
  21913140.843     1857128.161                                  
  22099903.168      731649.961                                  
  38764244.183     1284504.4322                                 
  22632161.255      695701.880                                  
  24139081.457     1047610.3773                                 
  24335617.457      581017.0482                                 
  25393303.083     1237016.683                                  
  38713430.066     1266796.3592                                 
  38813094.873     1280657.4462                                 
 18  5 14 14  0 31.0000000  0 11G29G31G25G26S20G21G 5G16G23S23S25
  20338654.036     1537346.682                                  
  21291261.666     1541222.643                                  
  21914695.055     1865296.217                                  
  22100480.081      734680.771                                  
  38765296.781     1290034.5132                                 
  22632712.508      698599.688                                  
  24139925.262     1052030.5093                                 
  24336047.901      583264.0243                                 
  25394325.552     1242395.516                                  
  38714504.362     1272441.7122                                 
  38814140.786     1286174.4112                                 
 18  5 14 14  0 32.0000000  0 11G29G31G25G26S20G21G 5G16G23S23S25
  20339923.844     1544020.723                                  
  21292539.336     1547935.540                                  
  21916249.137     1873462.361                                  
  22101056.444      737709.610                                  
  38766348.313     1295562.1312                                 
  22633263.734      701495.627                                  
  24140768.404     1056448.9443                                 
  24336477.866      585508.7803                                 
  25395347.839     1247772.674                                  
  38715578.013     1278084.8262                                 
  38815185.854     1291689.1352                                 
 18  5 14 14  0 33.0000000  0 11G29G31G25G26S20G21G 5G16G23S23S25
  20341193.810     1550693.365                                  
  21293816.526     1554647.227                                  
  21917803.227     1881626.999                                  
  22101632.642      740736.863                                  
  38767399.715     1301087.8782                                 
  22633813.948      704390.062                                  
  24141609.592     1060866.0913                                 
  24336903.390      587751.7032                                 
  25396371.050     1253148.555                                  
  38716651.995     1283726.1262                                 
  38816231.855     1297202.0372                                 
 18  5 14 14  0 34.0000000  0 11G29G31G25G26S20G21G 5G16G23S23S25
  20342463.296     1557366.662                                  
  21295093.917     1561359.755                                  
  21919356.253     1889792.211                                  
  22102209.049      743764.607                                  
  38768451.736     1306614.0782                                 
  22634364.799      707285.061                                  
  24142452.202     1065283.9192                                 
  24337329.288      589995.0293                                 
  25397393.737     1258525.199                                  
  38717725.367     1289367.6542                                 
  38817277.559     1302715.1202                                 
 18  5 14 14  0 35.0000000  0 11G29G31G25G26S20G21G 5G16G23S23S25
  20343733.253     1564040.404                                  
  21296371.840     1568072.898                                  
  21920910.291     1897957.749                                  
  22102785.081      746792.608                                  
  38769503.348     1312140.1952                                 
  22634915.388      710180.388                                  
  24143296.984     1069702.4353                                 
  24337756.574      592238.2403                                 
  25398416.835     1263902.527                                  
  38718799.000     1295009.1552                                 
  38818322.469     1308228.1752                                 
 18  5 14 14  0 36.0000000  0 11G29G31G25G26S20G21G 5G16G23S23S25
  20345003.219     1570712.214                                  
  21297648.725     1574784.288                                  
  21922463.517     1906121.304                                  
  22103360.318      749818.567                                  
  38770554.584     1317663.8862                                 
  22635466.344      713073.779                                  
  24144145.676     1074119.0473                                 
  24338183.642      594479.2892                                 
  25399439.513     1269277.988                                  
  38719872.450     1300648.3402                                 
  38819368.191     1313738.9082                                 
 18  5 14 14  0 37.0000000  0 11G29G31G25G26S20G21G 5G16G23S23S25
  20346272.582     1577381.658                                  
  21298924.528     1581493.560                                  
  21924016.255     1914282.400                                  
  22103935.687      752841.967                                  
  38771605.104     1323184.6042                                 
  22636016.436      715964.582                                  
  24144985.336     1078534.0653                                 
  24338609.803      596717.1663                                 
  25400462.244     1274651.203                                  
  38720945.194     1306284.6052                                 
  38820401.741     1319246.4283                                 
 18  5 14 14  0 38.0000000  0 10G29G31G25G26S20G21G 5G23S23S25
  20347541.737     1584051.424                                  
  21300201.221     1588203.251                                  
  21925569.420     1922443.704                                  
  22104510.671      755865.441                                  
  38772655.337     1328705.6412                                 
  22636566.414      718855.719                                  
  24145826.995     1082948.5473                                 
  25401484.722     1280024.914                                  
  38722017.422     1311920.7743                                 
  38821444.366     1324754.5813                                 
 18  5 14 14  0 39.0000000  0  9G29G31G25G26S20G21G23S23S25
  20348811.292     1590722.631                                  
  21301478.490     1594914.607                                  
  21927122.280     1930606.350                                  
  22105087.026      758890.248                                  
  38773705.962     1334227.6952                                 
  22637116.873      721748.256                                  
  25402508.012     1285400.170                                  
  38723089.546     1317557.9882                                 
  38822490.602     1330263.1533                                 
 18  5 14 14  0 40.0000000  0  9G29G31G25G26S20G21G23S23S25
  20350080.857     1597392.275                                  
  21302755.793     1601624.578                                  
  21928675.612     1938767.375                                  
  22105662.447      761913.341                                  
  38774756.858     1339747.6292                                 
  22637667.192      724639.119                                  
  25403530.734     1290774.046                                  
  38724161.679     1323193.2722                                 
  38823535.207     1335770.0873                                 
 18  5 14 14  0 41.0000000  0 10G29G31G25G26S20G21G 5G23S23S25
  20351349.776     1604059.611                                  
  21304032.722     1608332.423                                  
  21930228.306     1946925.964                                  
  22106237.807      764933.921                                  
  38775806.523     1345264.5662                                 
  22638216.263      727527.577                                  
  24148345.053     1096192.7253                                 
  25404552.767     1296145.618                                  
  38725233.236     1328825.6822                                 
  38824575.336     1341273.9152                                 
 18  5 14 14  0 42.0000000  0 10G29G31G25G26S20G21G 5G23S23S25
  20352617.857     1610726.816                                  
  21305308.847     1615040.330                                  
  21931780.668     1955084.348                                  
  22106811.762      767954.225                                  
  38776855.927     1350780.8282                                 
  22638765.683      730415.787                                  
  24149180.805     1100605.4843                                 
  25405574.704     1301517.257                                  
  38726305.307     1334457.6912                                 
  38825623.431     1346777.0902                                 
 18  5 14 14  0 43.0000000  0 10G29G31G25G26S20G21G 5G23S23S25
  20353887.290     1617394.786                                  
  21306586.046     1621749.198                                  
  21933333.249     1963243.425                                  
  22107386.834      770975.132                                  
  38777905.880     1356297.6332                                 
  22639315.583      733304.779                                  
  24150017.831     1105019.1653                                 
  25406597.584     1306889.965                                  
  38727377.117     1340089.9602                                 
  38826666.143     1352280.6472                                 
 18  5 14 14  0 44.0000000  0 10G29G31G25G26S20G21G 5G23S23S25
  20355156.165     1624061.867                                  
  21307861.945     1628457.335                                  
  21934885.612     1971401.496                                  
  22107961.278      773994.955                                  
  38778955.511     1361813.3772                                 
  22639864.907      736192.732                                  
  24150858.696     1109432.2413                                 
  25407620.097     1312261.616                                  
  38728448.622     1345720.9312                                 
  38827710.617     1357782.8582                                 
 18  5 14 14  0 45.0000000  0 10G29G31G25G26S20G21G 5G23S23S25
  20356424.325     1630726.790                                  
  21309138.437     1635163.555                                  
  21936436.962     1979557.335                                  
  22108535.119      777012.499                                  
  38780004.636     1367326.6862                                 
  22640413.585      739078.482                                  
  24151701.262     1113843.1033                                 
  25408642.095     1317631.443                                  
  38729519.733     1351349.3772                                 
  38828755.632     1363282.5952                                 
 18  5 14 14  0 46.0000000  0 10G29G31G25G26S20G21G 5G23S23S25
  20357692.494     1637390.272                                  
  21310414.868     1641868.469                                  
  21937988.461     1987711.618                                  
  22109109.449      780028.395                                  
  38781053.821     1372837.7412                                 
  22640963.197      741962.653                                  
  24152538.244     1118252.7033                                 
  25409663.814     1322999.864                                  
  38730591.142     1356975.8482                                 
  38829799.033     1368780.3912                                 
 18  5 14 14  0 47.0000000  0 11G29G31G25G26S20G21G 5G12G23S23S25
  20358960.636     1644055.017                                  
  21311690.784     1648574.828                                  
  21939540.187     1995867.066                                  
  22109683.605      783045.329                                  
  38782102.876     1378349.2752                                 
  22641511.902      744848.127                                  
  24153380.636     1122663.4163                                 
  25238715.007     2229711.8583                                 
  25410685.062     1328370.2053                                 
  38731661.791     1362603.1482                                 
  38830842.573     1374279.1502                                 
 18  5 14 14  0 48.0000000  0 11G29G31G25G26S20G21G 5G12G23S23S25
  20360228.900     1650719.909                                  
  21312967.024     1655281.482                                  
  21941091.511     2004022.508                                  
  22110257.909      786062.244                                  
  38783152.472     1383860.8422                                 
  22642060.493      747733.450                                  
  24154210.045     1127074.6553                                 
  25240443.800     2238789.1393                                 
  25411706.999     1333740.3852                                 
  38732733.025     1368230.1382                                 
  38831885.791     1379777.6382                                 
 18  5 14 14  0 49.0000000  0 11G29G31G25G26S20G21G 5G12G23S23S25
  20361496.842     1657382.168                                  
  21314242.006     1661985.760                                  
  21942642.871     2012175.326                                  
  22110831.638      789076.413                                  
  38784200.575     1389369.4712                                 
  22642608.666      750616.232                                  
  24155047.935     1131483.4312                                 
  25242169.356     2247863.6343                                 
  25412727.906     1339108.0123                                 
  38733803.343     1373854.0982                                 
  38832928.031     1385273.0882                                 
 18  5 14 14  0 50.0000000  0 11G29G31G25G26S20G21G 5G12G23S23S25
  20362764.260     1664041.527                                  
  21315517.853     1668687.295                                  
  21944194.300     2020325.158                                  
  22111404.973      792087.530                                  
  38785248.566     1394874.6152                                 
  22643157.222      753495.995                                  
  24155885.667     1135889.4472                                 
  25243896.326     2256933.6173                                 
  25413748.805     1344472.8473                                 
  38734872.980     1379474.7242                                 
  38833969.033     1390765.1902                                 
 18  5 14 14  0 51.0000000  0 11G29G31G25G26S20G21G 5G12G23S23S25
  20364031.433     1670701.581                                  
  21316793.228     1675389.706                                  
  21945744.900     2028475.447                                  
  22111978.440      795099.110                                  
  38786296.163     1400379.9412                                 
  22643705.892      756376.293                                  
  24156727.204     1140296.3042                                 
  25245621.053     2266004.6953                                 
  25414769.704     1349838.4923                                 
  38735942.940     1385095.5792                                 
  38835011.107     1396257.4412                                 
 18  5 14 14  0 52.0000000  0 11G29G31G25G26S20G21G 5G12G23S23S25
  20365299.384     1677362.413                                  
  21318068.752     1682093.090                                  
  21947296.538     2036626.545                                  
  22112551.496      798111.377                                  
  38787343.691     1405885.5982                                 
  22644253.890      759257.356                                  
  24157562.659     1144704.0263                                 
  25247345.466     2275076.4263                                 
  25415790.629     1355205.0652                                 
  38737012.534     1390716.8362                                 
  38836052.091     1401750.1202                                 
 18  5 14 14  0 53.0000000  0 11G29G31G25G26S20G21G 5G12G23S23S25
  20366566.339     1684020.879                                  
  21319343.961     1688794.357                                  
  21948847.452     2044775.272                                  
  22113124.143      801121.165                                  
  38788390.442     1411388.7152                                 
  22644801.303      762136.030                                  
  24158401.107     1149109.6643                                 
  25249069.382     2284145.5783                                 
  25416811.301     1360569.5072                                 
  38738081.744     1396335.3672                                 
  38837092.813     1407240.0632                                 
 18  5 14 14  0 54.0000000  0 11G29G31G25G26S20G21G 5G12G23S23S25
  20367833.068     1690677.320                                  
  21320618.377     1695493.723                                  
  21950398.035     2052921.770                                  
  22113696.300      804128.679                                  
  38789437.316     1416889.2672                                 
  22645348.455      765012.549                                  
  24159239.084     1153513.1683                                 
  25250792.992     2293212.2263                                 
  25417831.746     1365931.9522                                 
  38739150.116     1401951.3722                                 
  38838133.230     1412727.5502                                 
 18  5 14 14  0 55.0000000  0 11G29G31G25G26S20G21G 5G12G23S23S25
  20369099.788     1697334.129                                  
  21321893.011     1702193.628                                  
  21951948.033     2061068.567                                  
  22114268.528      807136.386                                  
  38790484.329     1422389.7942                                 
  22645895.240      767889.270                                  
  24160077.559     1157917.1563                                 
  25252516.253     2302278.7023                                 
  25418852.235     1371294.9442                                 
  38740219.038     1407567.2932                                 
  38839173.595     1418215.0032                                 
 18  5 14 14  0 56.0000000  0 11G29G31G25G26S20G21G 5G12G23S23S25
  20370365.845     1703991.538                                  
  21323168.630     1708894.282                                  
  21953498.834     2069215.862                                  
  22114840.816      810144.531                                  
  38791530.775     1427890.2222                                 
  22646442.287      770767.1623                                 
  24160915.806     1162322.1463                                 
  25254241.757     2311345.6433                                 
  25419873.212     1376658.6872                                 
  38741287.567     1413183.3612                                 
  38840214.465     1423702.6572                                 
 18  5 14 14  0 57.0000000  0 11G29G31G25G26S20G21G 5G12G23S23S25
  20371632.583     1710647.240                                  
  21324443.290     1715593.483                                  
  21955048.518     2077361.408                                  
  22115412.983      813150.858                                  
  38792577.264     1433388.5672                                 
  22646989.935      773642.6102                                 
  24161752.553     1166725.4423                                 
  25255964.399     2320410.5583                                 
  25420893.526     1382020.8012                                 
  38742356.367     1418797.3662                                 
  38841255.641     1429188.2792                                 
 18  5 14 14  0 58.0000000  0 12G29G31G25G26S20G21G 5G12G16G23S23S25
  20372898.657     1717300.595                                  
  21325718.508     1722290.525                                  
  21956598.734     2085504.468                                  
  22115984.530      816154.595                                  
  38793623.361     1438884.2762                                 
  22647536.171      776515.7062                                 
  24162590.024     1171126.4972                                 
  25257688.646     2329472.6973                                 
  24347511.063      643487.2113                                 
  25421913.701     1387380.7492                                 
  38743424.416     1424408.5682                                 
  38842296.233     1434671.0982                                 
 18  5 14 14  0 59.0000000  0 12G29G31G25G26S20G21G 5G12G16G23S23S25
  20374164.618     1723953.321                                  
  21326992.636     1728987.134                                  
  21958148.541     2093646.887                                  
  22116556.374      819157.594                                  
  38794668.909     1444378.8282                                 
  22648083.069      779388.0992                                 
  24163426.273     1175527.0363                                 
  25259411.035     2338533.7643                                 
  24347933.637      645700.7573                                 
  25422933.937     1392740.2052                                 
  38744491.750     1430018.7272                                 
  38843336.397     1440152.9532                                 
 18  5 14 14  1  0.0000000  0 11G29G31G25G26S20G21G 5G16G23S23S25
  20375430.396     1730607.210                                  
  21328267.907     1735685.071                                  
  21959698.094     2101790.279                                  
  22117127.868      822161.566                                  
  38795714.290     1449874.0332                                 
  22648630.125      782261.5322                                 
  24164263.211     1179928.9513                                 
  24348355.531      647915.1613                                 
  25423954.216     1398100.9512                                 
  38745560.436     1435629.6082                                 
  38844376.927     1445635.5622                                 
 18  5 14 14  1  1.0000000  0 11G29G31G25G26S20G21G 5G16G23S23S25
  20376696.287     1737260.333                                  
  21329542.584     1742382.484                                  
  21961247.507     2109932.923                                  
  22117699.712      825164.702                                  
  38796760.134     1455368.2892                                 
  22649177.076      785134.2972                                 
  24165099.374     1184330.2633                                 
  24348775.732      650128.5633                                 
  25424974.181     1403460.586                                  
  38746627.613     1441239.4292                                 
  38845417.213     1451116.9362                                 
 18  5 14 14  1  2.0000000  0 10G29G31G25G26S20G21G 5G23S23S25
  20377962.239     1743911.467                                  
  21330816.790     1749078.064                                  
  21962796.301     2118073.413                                  
  22118270.369      828165.545                                  
  38797805.428     1460860.2002                                 
  22649723.634      788004.7932                                 
  24165933.389     1188729.5643                                 
  25425994.862     1408818.745                                  
  38747694.554     1446846.6542                                 
  38846457.002     1456595.8492                                 
 18  5 14 14  1  3.0000000  0 10G29G31G25G26S20G21G 5G23S23S25
  20379227.729     1750561.798                                  
  21332090.255     1755773.035                                  
  21964344.755     2126213.039                                  
  22118840.982      831165.450                                  
  38798849.893     1466350.6572                                 
  22650270.062      790874.4812                                 
  24166769.874     1193128.2443                                 
  25427014.984     1414176.8323                                 
  38748760.832     1452452.7132                                 
  38847496.825     1462073.5232                                 
 18  5 14 14  1  4.0000000  0 10G29G31G25G26S20G21G 5G23S23S25
  20380494.274     1757214.045                                  
  21333364.845     1762470.157                                  
  21965893.994     2134354.538                                  
  22119412.590      834167.153                                  
  38799895.188     1471842.5672                                 
  22650817.065      793746.0583                                 
  24167609.710     1197528.9273                                 
  25428035.307     1419536.4723                                 
  38749828.122     1458060.2192                                 
  38848523.744     1467554.1553                                 
 18  5 14 14  1  5.0000000  0 10G29G31G25G26S20G21G 5G23S23S25
  20381759.886     1763867.349                                  
  21334638.981     1769168.283                                  
  21967443.364     2142496.794                                  
  22119983.727      837169.640                                  
  38800940.587     1477335.1572                                 
  22651362.271      796618.3283                                 
  24168449.379     1201930.8903                                 
  25429055.613     1424897.1873                                 
  38750895.500     1463668.3142                                 
  38849559.860     1473034.3083                                 
 18  5 14 14  1  6.0000000  0 10G29G31G25G26S20G21G 5G23S23S25
  20383025.865     1770518.984                                  
  21335913.196     1775865.195                                  
  21968992.272     2150637.470                                  
  22120554.812      840170.424                                  
  38801985.567     1482826.1722                                 
  22651909.797      799489.1993                                 
  24169283.849     1206331.3183                                 
  25430075.909     1430256.5742                                 
  38751962.310     1469274.3562                                 
  38850597.755     1478511.7333                                 
 18  5 14 14  1  7.0000000  0 10G29G31G25G26S20G21G 5G23S23S25
  20384291.293     1777168.985                                  
  21337187.751     1782560.564                                  
  21970541.441     2158776.425                                  
  22121126.045      843169.331                                  
  38803029.954     1488315.0002                                 
  22652455.954      802358.2663                                 
  24170119.068     1210730.2773                                 
  25431095.753     1435614.4182                                 
  38753029.112     1474878.3232                                 
  38851638.425     1483986.7313                                 
 18  5 14 14  1  8.0000000  0 10G29G31G25G26S20G21G 5G23S23S25
  20385556.914     1783820.293                                  
  21338462.176     1789257.428                                  
  21972090.671     2166916.541                                  
  22121696.623      846169.394                                  
  38804073.913     1493804.1312                                 
  22653005.104      805228.4992                                 
  24170954.567     1215130.4063                                 
  25432115.203     1440973.5932                                 
  38754095.207     1480483.1642                                 
  38852674.505     1489462.1872                                 
 18  5 14 14  1  9.0000000  0 10G29G31G25G26S20G21G 5G23S23S25
  20386822.718     1790472.443                                  
  21339736.356     1795955.342                                  
  21973639.649     2175057.428                                  
  22122267.612      849170.155                                  
  38805118.378     1499293.5492                                 
  22653551.331      808099.5252                                 
  24171793.818     1219531.6813                                 
  25433135.360     1446333.8363                                 
  38755161.851     1486088.4432                                 
  38853714.783     1494937.8242                                 
 18  5 14 14  1 10.0000000  0 10G29G31G25G26S20G21G 5G23S23S25
  20388088.382     1797122.877                                  
  21341010.754     1802651.669                                  
  21975188.146     2183196.512                                  
  22122838.504      852169.006                                  
  38806163.140     1504781.2222                                 
  22654097.051      810968.7542                                 
  24172630.425     1223931.5093                                 
  25434155.936     1451692.4452                                 
  38756227.894     1491691.5362                                 
  38854754.790     1500411.4112                                 
 18  5 14 14  1 11.0000000  0 11G29G31G25G26S20G21G 5G16G23S23S25
  20389353.994     1803771.423                                  
  21342284.279     1809346.344                                  
  21976736.931     2191333.600                                  
  22123408.664      855165.816                                  
  38807205.991     1510266.9172                                 
  22654646.044      813835.9252                                 
  24173473.044     1228329.5512                                 
  24352974.551      672219.2003                                 
  25435175.326     1457049.3882                                 
  38757293.421     1497292.3632                                 
  38855793.714     1505882.8382                                 
 18  5 14 14  1 12.0000000  0 10G29G31G25G26S20G21G 5G23S23S25
  20390618.987     1810420.219                                  
  21343558.564     1816041.425                                  
  21978285.464     2199470.772                                  
  22123978.745      858162.687                                  
  38808249.497     1515752.3052                                 
  22655191.782      816703.5223                                 
  24174315.793     1232727.8353                                 
  25436194.523     1462406.5672                                 
  38758358.591     1502893.0672                                 
  38856833.695     1511354.2462                                 
 18  5 14 14  1 13.0000000  0 10G29G31G25G26S20G21G 5G23S23S25
  20391883.386     1817069.825                                  
  21344832.622     1822737.497                                  
  21979834.389     2207608.739                                  
  22124549.079      861160.192                                  
  38809293.474     1521237.8422                                 
  22655740.565      819571.5722                                 
  24175151.048     1237127.1432                                 
  25437214.017     1467764.8082                                 
  38759424.145     1508494.0253                                 
  38857873.126     1516826.2552                                 
 18  5 14 14  1 14.0000000  0 10G29G31G25G26S20G21G 5G23S23S25
  20393148.308     1823718.781                                  
  21346106.811     1829433.135                                  
  21981382.764     2215745.976                                  
  22125119.352      864156.933                                  
  38810337.468     1526722.0432                                 
  22656286.286      822438.8532                                 
  24175991.756     1241525.9962                                 
  25438233.223     1473122.5712                                 
  38760490.170     1514093.9473                                 
  38858912.208     1522297.2532                                 
 18  5 14 14  1 15.0000000  0 10G29G31G25G26S20G21G 5G23S23S25
  20394413.467     1830365.767                                  
  21347380.851     1836126.916                                  
  21982930.459     2223881.191                                  
  22125689.058      867151.487                                  
  38811380.459     1532203.9552                                 
  22656829.572      825304.0602                                 
  24176830.605     1245922.7463                                 
  25439253.424     1478478.3413                                 
  38761555.279     1519691.4583                                 
  38859950.906     1527765.8572                                 
 18  5 14 14  1 16.0000000  0 10G29G31G25G26S20G21G 5G23S23S25
  20395678.101     1837011.958                                  
  21348654.542     1842820.116                                  
  21984477.272     2232015.436                                  
  22126258.921      870145.089                                  
  38812422.952     1537684.8122                                 
  22657374.045      828168.4882                                 
  24177666.907     1250318.9232                                 
  25440271.950     1483833.5223                                 
  38762619.716     1525287.7262                                 
  38860977.450     1533232.4973                                 
 18  5 14 14  1 17.0000000  0 10G29G31G25G26S20G21G 5G23S23S25
  20396943.347     1843659.558                                  
  21349928.225     1849514.930                                  
  21986025.019     2240151.027                                  
  22126828.767      873139.948                                  
  38813465.873     1543166.5402                                 
  22657917.271      831034.3442                                 
  24178503.549     1254716.7603                                 
  25441290.763     1489190.2582                                 
  38763685.567     1530885.0962                                 
  38862009.360     1538700.7153                                 
 18  5 14 14  1 18.0000000  0 10G29G31G25G26S20G21G 5G23S23S25
  20398208.697     1850308.142                                  
  21351202.100     1856210.912                                  
  21987573.569     2248287.521                                  
  22127398.630      876135.646                                  
  38814509.187     1548648.9062                                 
  22658461.988      833901.1362                                 
  24179340.967     1259115.6283                                 
  25442310.301     1494548.1312                                 
  38764751.077     1536482.8872                                 
  38863048.232     1544169.8063                                 
 18  5 14 14  1 19.0000000  0 10G29G31G25G26S20G21G 5G23S23S25
  20399473.175     1856954.455                                  
  21352475.678     1862904.826                                  
  21989121.080     2256421.661                                  
  22127967.612      879128.874                                  
  38815551.532     1554128.6872                                 
  22659007.848      836764.974                                  
  24180177.636     1263512.5612                                 
  25443329.332     1499903.8272                                 
  38765816.047     1542077.9902                                 
  38864086.608     1549636.6283                                 
 18  5 14 14  1 20.0000000  0 11G29G31G25G26S20G21G 5G16G23S23S25
  20400737.382     1863598.959                                  
  21353749.256     1869597.079                                  
  21990668.548     2264553.868                                  
  22128536.567      882120.145                                  
  38816593.353     1559606.0592                                 
  22659551.824      839627.400                                  
  24181013.955     1267907.5993                                 
  24356747.917      692035.0303                                 
  25444347.971     1505257.8472                                 
  38766879.664     1547670.9262                                 
  38865118.020     1555100.9592                                 
 18  5 14 14  1 21.0000000  0 11G29G31G25G26S20G21G 5G16G23S23S25
  20402001.772     1870244.513                                  
  21355023.052     1876290.608                                  
  21992216.208     2272687.051                                  
  22129105.733      885112.286                                  
  38817635.585     1565083.8612                                 
  22660096.881      842490.895                                  
  24181850.352     1272303.8303                                 
  24357166.155      694233.3243                                 
  25445366.759     1510613.0572                                 
  38767943.848     1553264.4332                                 
  38866160.540     1560565.8922                                 
 18  5 14 14  1 22.0000000  0 10G29G31G25G26S20G21G 5G23S23S25
  20403266.599     1876890.962                                  
  21356296.970     1882985.232                                  
  21993764.470     2280821.036                                  
  22129675.212      888105.165                                  
  38818678.401     1570562.1932                                 
  22660642.523      845355.163                                  
  24182686.602     1276701.1412                                 
  25446386.113     1515969.2492                                 
  38769008.599     1558858.4812                                 
  38867196.219     1566031.2442                                 
 18  5 14 14  1 23.0000000  0 10G29G31G25G26S20G21G 5G23S23S25
  20404531.304     1883535.735                                  
  21357570.862     1889678.286                                  
  21995311.615     2288953.262                                  
  22130244.385      891096.203                                  
  38819720.363     1576038.3702                                 
  22661187.145      848217.648                                  
  24183523.305     1281096.8542                                 
  25447405.956     1521323.9632                                 
  38770073.158     1564450.2942                                 
  38868233.268     1571494.4982                                 
 18  5 14 14  1 24.0000000  0 11G29G31G25G26S20G21G 5G16G23S23S25
  20405795.406     1890178.446                                  
  21358843.768     1896369.547                                  
  21996859.057     2297083.305                                  
  22130812.914      894085.038                                  
  38820762.210     1581512.3062                                 
  22661730.815      851077.937                                  
  24184360.095     1285490.8123                                 
  24358422.387      700824.1633                                 
  25448424.089     1526676.7482                                 
  38771136.566     1570039.6952                                 
  38869270.963     1576955.2242                                 
 18  5 14 14  1 25.0000000  0 11G29G31G25G26S20G21G 5G16G23S23S25
  20407059.552     1896822.126                                  
  21360116.369     1903061.923                                  
  21998406.306     2305214.244                                  
  22131382.323      897074.633                                  
  38821803.247     1586986.7162                                 
  22662274.791      853939.305                                  
  24185194.957     1289885.6293                                 
  24358838.898      703019.0353                                 
  25449442.728     1532030.149                                  
  38772200.287     1575629.5422                                 
  38870308.125     1582416.4332                                 
 18  5 14 14  1 26.0000000  0 11G29G31G25G26S20G21G 5G16G23S23S25
  20408323.463     1903466.983                                  
  21361390.601     1909755.671                                  
  21999954.464     2313346.252                                  
  22131950.999      900065.279                                  
  38822845.060     1592461.7752                                 
  22662819.298      856801.628                                  
  24186028.920     1294281.8793                                 
  24359253.986      705214.8613                                 
  25450460.844     1537385.8233                                 
  38773264.236     1581220.1992                                 
  38871343.883     1587878.4422                                 
 18  5 14 14  1 27.0000000  0 11G29G31G25G26S20G21G 5G16G23S23S25
  20409587.757     1910110.951                                  
  21362663.856     1916448.725                                  
  22001502.525     2321477.296                                  
  22132520.705      903054.848                                  
  38823886.218     1597935.3622                                 
  22663363.832      859662.991                                  
  24186864.952     1298677.3863                                 
  24359671.840      707409.6253                                 
  25451478.889     1542740.2492                                 
  38774327.966     1586809.5142                                 
  38872380.932     1593339.1502                                 
 18  5 14 14  1 28.0000000  0 10G29G31G25G26S20G21G 5G23S23S25
  20410852.017     1916752.858                                  
  21363937.242     1923139.902                                  
  22003049.085     2329606.191                                  
  22133089.129      906042.201                                  
  38824927.769     1603406.6082                                 
  22663907.511      862522.213                                  
  24187699.412     1303070.9493                                 
  25452497.049     1548092.7712                                 
  38775390.580     1592396.3652                                 
  38873415.599     1598797.3452                                 
 18  5 14 14  1 29.0000000  0 10G29G31G25G26S20G21G 5G23S23S25
  20412116.206     1923394.856                                  
  21365210.480     1929831.316                                  
  22004595.960     2337735.076                                  
  22133657.290      909029.479                                  
  38825968.727     1608877.6652                                 
  22664451.042      865381.482                                  
  24188530.810     1307464.6613                                 
  25453515.871     1553445.4832                                 
  38776454.232     1597982.8642                                 
  38874450.571     1604255.1242                                 
 18  5 14 14  1 30.0000000  0 10G29G31G25G26S20G21G 5G23S23S25
  20413379.855     1930038.917                                  
  21366484.477     1936525.005                                  
  22006143.070     2345865.992                                  
  22134225.749      912018.672                                  
  38827010.505     1614350.2812                                 
  22664994.651      868242.749                                  
  24189365.463     1311860.5843                                 
  25454534.632     1558800.4562                                 
  38777517.945     1603571.0122                                 
  38875486.809     1609714.6072                                 
 18  5 14 14  1 31.0000000  0 11G29G31G25G26S20G21G 5G16G23S23S25
  20414644.673     1936683.170                                  
  21367758.552     1943219.049                                  
  22007690.503     2353996.890                                  
  22134794.076      915007.878                                  
  38828051.219     1619822.5692                                 
  22665539.177      871104.000                                  
  24190202.698     1316257.0463                                 
  24361335.893      716180.9333                                 
  25455552.285     1564155.7043                                 
  38778581.073     1609158.9922                                 
  38876521.877     1615173.8312                                 
 18  5 14 14  1 32.0000000  0  9G29G31G25G26S20G21G23S23S25
  20415908.976     1943325.479                                  
  21369032.244     1949911.339                                  
  22009237.665     2362125.832                                  
  22135362.726      917994.944                                  
  38829091.985     1625292.5772                                 
  22666083.431      873963.379                                  
  25456570.182     1569509.2483                                 
  38779643.713     1614744.3742                                 
  38877556.474     1620630.6862                                 
 18  5 14 14  1 33.0000000  0  9G29G31G25G26S20G21G23S23S25
  20417173.367     1949967.284                                  
  21370305.062     1956603.359                                  
  22010784.863     2370254.186                                  
  22135931.725      920981.384                                  
  38830132.559     1630761.8072                                 
  22666627.006      876822.088                                  
  25457587.574     1574862.2283                                 
  38780706.850     1620329.0022                                 
  38878591.063     1626086.6212                                 
 18  5 14 14  1 34.0000000  0 10G29G31G25G26S20G21G16G23S23S25
  20418437.312     1956610.607                                  
  21371579.164     1963297.067                                  
  22012331.397     2378383.977                                  
  22136500.454      923969.173                                  
  38831173.569     1636231.7392                                 
  22667170.929      879682.437                                  
  24362584.796      722753.1013                                 
  25458606.091     1580216.8733                                 
  38781769.612     1625914.6412                                 
  38879626.419     1631543.6902                                 
 18  5 14 14  1 35.0000000  0 10G29G31G25G26S20G21G16G23S23S25
  20419701.999     1963254.742                                  
  21372853.771     1969991.760                                  
  22013878.769     2386514.419                                  
  22137068.546      926957.617                                  
  38832214.352     1641702.1572                                 
  22667715.158      882543.320                                  
  24362997.721      724945.0403                                 
  25459626.204     1585572.7393                                 
  38782832.024     1631500.7572                                 
  38880660.894     1637001.1502                                 
 18  5 14 14  1 36.0000000  0  9G29G31G25G26S20G21G23S23S25
  20420965.814     1969897.013                                  
  21374127.236     1976684.800                                  
  22015425.748     2394642.978                                  
  22137637.537      929944.013                                  
  38833255.092     1647170.4722                                 
  22668259.107      885402.234                                  
  25460646.082     1590926.7063                                 
  38783894.211     1637084.5042                                 
  38881695.282     1642456.4602                                 
 18  5 14 14  1 37.0000000  0  9G29G31G25G26S20G21G23S23S25
  20422229.079     1976537.329                                  
  21375399.802     1983376.087                                  
  22016971.148     2402769.477                                  
  22138205.175      932928.327                                  
  38834295.107     1652636.3032                                 
  22668803.083      888259.168                                  
  25461664.355     1596278.7573                                 
  38784956.414     1642665.8762                                 
  38882729.487     1647909.2862                                 
 18  5 14 14  1 38.0000000  0  8G29G31G25G26S20G21S23S25
  20423493.199     1983178.639                                  
  21376673.005     1990068.527                                  
  22018517.988     2410896.874                                  
  22138773.328      935913.463                                  
  38835335.280     1658102.5712                                 
  22669347.242      891117.081                                  
  38786018.757     1648247.8152                                 
  38883763.412     1653362.6932                                 
 18  5 14 14  1 39.0000000  0  8G29G31G25G26S20G21S23S25
  20424757.912     1989821.562                                  
  21377947.054     1996762.786                                  
  22020064.880     2419025.799                                  
  22139341.498      938900.044                                  
  38836375.714     1663570.1582                                 
  22669891.654      893976.436                                  
  38787081.327     1653830.9482                                 
  38884797.791     1658817.2932                                 
 18  5 14 14  1 40.0000000  0  7G29G31G25G26S20G21S23
  20426021.692     1996463.337                                  
  21379221.016     2003456.080                                  
  22021611.484     2427153.489                                  
  22139909.520      941885.299                                  
  38837416.524     1669036.1382                                 
  22670435.018      896834.708                                  
  38788143.391     1659412.5012                                 
 18  5 14 14  1 41.0010000  0  9G29G31G25G26S20G21G23S23S25
  20427286.457     2003110.126                                  
  21380495.667     2010154.610                                  
  22023158.978     2435287.581                                  
  22140477.865      944871.792                                  
  38838457.272     1674505.4272                                 
  22670979.256      899694.063                                  
  25465738.719     1617698.9063                                 
  38789205.839     1664997.5902                                 
  38886856.734     1669727.4663                                 
 18  5 14 14  1 42.0010000  0  9G29G31G25G26S20G21G23S23S25
  20428550.481     2009751.410                                  
  21381769.585     2016847.755                                  
  22024705.992     2443414.583                                  
  22141046.611      947856.244                                  
  38839496.634     1679970.1102                                 
  22671522.865      902551.619                                  
  25466759.565     1623052.6013                                 
  38790267.737     1670577.8132                                 
  38887891.863     1675178.4863                                 
 18  5 14 14  1 43.0010000  0  9G29G31G25G26S20G21G23S23S25
  20429814.750     2016394.184                                  
  21383043.861     2023542.630                                  
  22026253.225     2451542.996                                  
  22141615.078      950842.030                                  
  38840536.693     1685435.8772                                 
  22672066.335      905410.560                                  
  25467778.414     1628408.0343                                 
  38791330.115     1676159.0812                                 
  38888926.059     1680631.4373                                 
 18  5 14 14  1 44.0010000  0  9G29G31G25G26S20G21G23S23S25
  20431078.521     2023036.462                                  
  21384317.125     2030237.080                                  
  22027799.384     2459670.766                                  
  22142182.821      953827.154                                  
  38841577.214     1690900.3492                                 
  22672610.529      908268.919                                  
  25468799.932     1633763.0043                                 
  38792392.153     1681739.3902                                 
  38889961.738     1686083.3722                                 
 18  5 14 14  1 45.0010000  0 10G29G31G25G26S20G21G 5G23S23S25
  20432342.143     2029676.521                                  
  21385591.148     2036929.632                                  
  22029345.726     2467796.295                                  
  22142750.163      956809.918                                  
  38842616.279     1696362.4572                                 
  22673154.897      911125.050                                  
  24201915.372     1377779.5353                                 
  25469811.460     1639116.1743                                 
  38793452.925     1687317.1082                                 
  38890993.535     1691532.7812                                 
 18  5 14 14  1 46.0010000  0 10G29G31G25G26S20G21G 5G23S23S25
  20433605.836     2036316.713                                  
  21386864.778     2043622.441                                  
  22030892.487     2475921.850                                  
  22143317.225      959792.645                                  
  38843655.631     1701824.4552                                 
  22673698.236      913981.194                                  
  24202758.218     1382173.6963                                 
  25470835.081     1644469.2173                                 
  38794514.788     1692894.5412                                 
  38892025.672     1696981.9022                                 
 18  5 14 14  1 47.0010000  0  9G29G31G25G26S20G21G 5S23S25
  20434869.711     2042958.253                                  
  21388138.557     2050316.793                                  
  22032439.580     2484048.648                                  
  22143885.648      962776.532                                  
  38844695.830     1707287.1382                                 
  22674242.822      916838.645                                  
  24203600.382     1386569.4593                                 
  38795576.372     1698472.8772                                 
  38893059.754     1702431.8482                                 
 18  5 14 14  1 48.0010000  0  9G29G31G25G26S20G21G 5S23S25
  20436133.866     2049600.196                                  
  21389412.379     2057011.747                                  
  22033985.922     2492175.772                                  
  22144453.295      965760.676                                  
  38845734.877     1712749.6922                                 
  22674786.745      919696.368                                  
  24204438.290     1390965.9003                                 
  38796638.113     1704051.1732                                 
  38894096.480     1707881.8532                                 
 18  5 14 14  1 49.0010000  0  9G29G31G25G26S20G21G 5S23S25
  20437397.454     2056240.400                                  
  21390685.294     2063705.128                                  
  22035531.846     2500301.083                                  
  22145020.750      968742.923                                  
  38846774.299     1718210.0442                                 
  22675330.328      922552.338                                  
  24205281.676     1395360.5043                                 
  38797699.043     1709627.2572                                 
  38895131.575     1713329.6042                                 
 18  5 14 14  1 50.0010000  0  9G29G31G25G26S20G21G 5S23S25
  20438660.972     2062878.997                                  
  21391958.078     2070397.076                                  
  22037078.013     2508424.664                                  
  22145587.821      971723.386                                  
  38847813.250     1723668.5202                                 
  22675873.074      925406.597                                  
  24206119.601     1399753.7552                                 
  38798759.432     1715201.3852                                 
  38896166.163     1718775.3252                                 
 18  5 14 14  1 51.0010000  0  9G29G31G25G26S20G21G 5S23S25
  20439924.594     2069518.611                                  
  21393232.206     2077090.268                                  
  22038623.771     2516549.223                                  
  22146155.136      974704.713                                  
  38848852.472     1729127.7022                                 
  22676416.596      928261.866                                  
  24206941.951     1404148.1353                                 
  38799819.436     1720776.1162                                 
  38897200.542     1724221.5482                                 
 18  5 14 14  1 52.0010000  0  9G29G31G25G26S20G21G 5S23S25
  20441187.990     2076159.082                                  
  21394506.063     2083784.478                                  
  22040169.782     2524674.529                                  
  22146722.530      977686.736                                  
  38849891.257     1734587.3952                                 
  22676960.362      931117.870                                  
  24207779.832     1408543.7083                                 
  38800879.869     1726351.2992                                 
  38898233.456     1729668.2052                                 
 18  5 14 14  1 53.0010000  0  9G29G31G25G26S20G21G 5S23S25
  20442451.054     2082797.988                                  
  21395779.990     2090477.342                                  
  22041715.505     2532798.163                                  
  22147289.662      980667.040                                  
  38850929.615     1740045.0702                                 
  22677503.491      933972.176                                  
  24208611.370     1412938.0223                                 
  38801940.476     1731924.4522                                 
  38899265.627     1735112.8292                                 
 18  5 14 14  1 54.0010000  0  8G29G31G25G26S20G21S23S25
  20443714.450     2089435.662                                  
  21397053.620     2097169.120                                  
  22043261.289     2540920.480                                  
  22147856.794      983645.948                                  
  38851968.165     1745501.0022                                 
  22678046.865      936825.207                                  
  38803000.480     1737495.9132                                 
  38900297.642     1740555.7012                                 
 18  5 14 14  1 55.0010000  0  8G29G31G25G26S20G21S23S25
  20444977.593     2096074.142                                  
  21398327.338     2103861.878                                  
  22044807.186     2549043.508                                  
  22148423.612      986625.498                                  
  38853006.610     1750957.2832                                 
  22678590.413      939678.981                                  
  38804060.503     1743067.7852                                 
  38901329.857     1745998.9392                                 
 18  5 14 14  1 56.0010000  0  8G29G31G25G26S20G21S23S25
  20446240.936     2102713.960                                  
  21399600.767     2110556.206                                  
  22046353.005     2557167.766                                  
  22148990.692      989606.233                                  
  38854044.644     1756414.4992                                 
  22679133.629      942534.012                                  
  38805120.150     1748640.5392                                 
  38902361.305     1751443.0152                                 
 18  5 14 14  1 57.0010000  0  8G29G31G25G26S20G21S23S25
  20447504.262     2109353.011                                  
  21400874.354     2117249.924                                  
  22047898.893     2565291.194                                  
  22149557.746      992586.055                                  
  38855082.130     1761870.4832                                 
  22679676.671      945388.176                                  
  38806180.495     1754212.0973                                 
  38903392.892     1756885.8862                                 
 18  5 14 14  1 58.0010000  0  8G29G31G25G26S20G21S23S25
  20448767.641     2115991.008                                  
  21402148.019     2123942.790                                  
  22049444.808     2573413.462                                  
  22150124.878      995564.624                                  
  38856119.877     1767324.9842                                 
  22680219.478      948241.244                                  
  38807240.011     1759782.1822                                 
  38904424.016     1762327.2872                                 
 18  5 14 14  1 59.0010000  0  8G29G31G25G26S20G21S23S25
  20450030.644     2122628.909                                  
  21403421.580     2130635.749                                  
  22050990.374     2581535.557                                  
  22150692.010      998542.961                                  
  38857158.191     1772779.0442                                 
  22680761.796      951094.163                                  
  38808299.317     1765351.6992                                 
  38905455.359     1767768.1922                                 
 18  5 14 14  2  0.0010000  0  8G29G31G25G26S20G21S23S25
  20451294.528     2129268.517                                  
  21404695.533     2137330.596                                  
  22052535.626     2589659.253                                  
  22151259.308     1001522.838                                  
  38858196.165     1778234.4062                                 
  22681303.625      953948.629                                  
  38809359.697     1770922.4862                                 
  38906488.272     1773210.3942                                 
 18  5 14 14  2  1.0010000  0  8G29G31G25G26S20G21S23S25
  20452558.037     2135908.398                                  
  21405969.826     2144025.878                                  
  22054082.055     2597783.118                                  
  22151826.248     1004502.830                                  
  38859234.601     1783689.5422                                 
  22681845.917      956803.338                                  
  38810419.580     1776493.1782                                 
  38907520.226     1778652.3592                                 
 18  5 14 14  2  2.0010000  0  8G29G31G25G26S20G21S23S25
  20453820.761     2142546.292                                  
  21407243.989     2150719.384                                  
  22055627.857     2605904.956                                  
  22152392.743     1007480.687                                  
  38860272.156     1789142.1552                                 
  22682388.566      959656.040                                  
  38811479.053     1782061.4082                                 
  38908551.045     1784092.0162                                 
 18  5 14 14  2  3.0010000  0  8G29G31G25G26S20G21S23S25
  20455083.668     2149183.440                                  
  21408517.759     2157412.329                                  
  22057173.466     2614025.902                                  
  22152959.081     1010457.623                                  
  38861309.894     1794593.7162                                 
  22682930.928      962507.905                                  
  38812539.223     1787628.4742                                 
  38909583.470     1789530.4752                                 
 18  5 14 14  2  4.0010000  0  8G29G31G25G26S20G21S23S25
  20456346.602     2155822.203                                  
  21409791.791     2164107.064                                  
  22058718.840     2622148.409                                  
  22153525.550     1013436.013                                  
  38862347.563     1800046.5352                                 
  22683473.533      965361.283                                  
  38813599.481     1793196.7492                                 
  38910614.298     1794970.1102                                 
 18  5 14 14  2  5.0010000  0  8G29G31G25G26S20G21S23S25
  20457610.085     2162461.835                                  
  21411066.285     2170802.877                                  
  22060264.240     2630271.702                                  
  22154092.630     1016415.119                                  
  38863385.449     1805499.6722                                 
  22684017.047      968215.418                                  
  38814658.596     1798765.4672                                 
  38911645.850     1800410.1932                                 
 18  5 14 14  2  6.0010000  0  8G29G31G25G26S20G21S23S25
  20458872.861     2169100.322                                  
  21412340.290     2177497.707                                  
  22061809.806     2638393.759                                  
  22154659.230     1019392.931                                  
  38864423.188     1810951.2942                                 
  22684560.220      971068.365                                  
  38815717.745     1804332.6362                                 
  38912676.992     1805848.7152                                 
 18  5 14 14  2  7.0010000  0  8G29G31G25G26S20G21S23S25
  20460135.672     2175736.669                                  
  21413614.331     2184190.600                                  
  22063355.590     2646513.562                                  
  22155225.611     1022368.428                                  
  38865459.460     1816400.3862                                 
  22685102.494      973919.140                                  
  38816776.398     1809897.1762                                 
  38913708.256     1811284.5512                                 
 18  5 14 14  2  8.0010000  0  9G29G31G25G26S20G21G23S23S25
  20461398.920     2182374.000                                  
  21414888.100     2190884.668                                  
  22064900.641     2654634.267                                  
  22155791.757     1025344.748                                  
  38866496.439     1821849.9492                                 
  22685644.733      976770.798                                  
  25493257.643     1762246.6413                                 
  38817835.155     1815462.2382                                 
  38914738.561     1816720.9222                                 
 18  5 14 14  2  9.0010000  0  9G29G31G25G26S20G21G23S23S25
  20462662.158     2189012.587                                  
  21416162.376     2197580.164                                  
  22066446.110     2662756.127                                  
  22156358.628     1028322.182                                  
  38867533.549     1827300.1652                                 
  22686187.566      979623.600                                  
  25494278.856     1767601.4513                                 
  38818894.784     1821028.2182                                 
  38915770.418     1822158.0742                                 
 18  5 14 14  2 10.0010000  0  9G29G31G25G26S20G21G23S23S25
  20463925.545     2195650.757                                  
  21417436.452     2204275.451                                  
  22067992.077     2670877.509                                  
  22156924.722     1031299.029                                  
  38868570.180     1832749.6022                                 
  22686730.878      982475.994                                  
  25495296.099     1772956.0003                                 
  38819953.786     1826593.2792                                 
  38916802.686     1827594.3672                                 
 18  5 14 14  2 11.0010000  0  9G29G31G25G26S20G21G23S23S25
  20465188.339     2202287.546                                  
  21418709.803     2210969.523                                  
  22069537.137     2678997.380                                  
  22157490.972     1034274.328                                  
  38869606.557     1838197.2472                                 
  22687274.025      985326.871                                  
  25496313.865     1778309.2553                                 
  38821012.429     1832156.5072                                 
  38917832.476     1833028.7932                                 
 18  5 14 14  2 12.0010000  0  8G29G31G25G26S20G21S23S25
  20466451.229     2208924.962                                  
  21419984.009     2217664.431                                  
  22071082.223     2687117.801                                  
  22158057.162     1037250.103                                  
  38870642.995     1843645.1302                                 
  22687816.884      988178.302                                  
  38822071.439     1837720.0252                                 
  38918862.344     1838463.3622                                 
 18  5 14 14  2 13.0010000  0  8G29G31G25G26S20G21S23S25
  20467714.572     2215563.651                                  
  21421258.582     2224360.775                                  
  22072628.225     2695239.418                                  
  22158623.430     1040226.997                                  
  38871679.634     1849094.0212                                 
  22688359.865      991030.968                                  
  38823130.947     1843284.3242                                 
  38919893.277     1843898.8502                                 
 18  5 14 14  2 14.0010000  0  8G29G31G25G26S20G21S23S25
  20468977.959     2222202.290                                  
  21422533.512     2231057.247                                  
  22074174.035     2703360.871                                  
  22159190.510     1043203.674                                  
  38872716.630     1854542.1722                                 
  22688902.855      993883.482                                  
  38824190.271     1848848.1472                                 
  38920923.564     1849333.8112                                 
 18  5 14 14  2 15.0010000  0  8G29G31G25G26S20G21S23S25
  20470241.111     2228838.433                                  
  21423807.596     2237751.416                                  
  22075718.676     2711479.756                                  
  22159756.264     1046177.689                                  
  38873752.711     1859987.2912                                 
  22689445.565      996733.446                                  
  38825247.885     1854409.0402                                 
  38921953.877     1854765.8442                                 
 18  5 14 14  2 16.0010000  0  7G29G31G25G26S20G21S23
  20471503.861     2235472.605                                  
  21425081.436     2244443.812                                  
  22077263.273     2719596.580                                  
  22160321.363     1049149.581                                  
  38874788.346     1865429.8592                                 
  22689987.534      999581.370                                  
  38826305.639     1859967.6102                                 
 18  5 14 14  2 17.0010000  0  8G29G31G25G26S20G21S23S25
  20472766.716     2242108.585                                  
  21426356.131     2251138.191                                  
  22078808.019     2727715.114                                  
  22160887.474     1052123.141                                  
  38875824.558     1870874.3382                                 
  22690530.349     1002431.015                                  
  38827363.715     1865527.5032                                 
  38924003.876     1865626.7423                                 
 18  5 14 14  2 18.0010000  0  8G29G31G25G26S20G21S23S25
  20474029.649     2248745.761                                  
  21427630.965     2257833.947                                  
  22080353.018     2735834.752                                  
  22161453.341     1055097.711                                  
  38876861.136     1876319.7382                                 
  22691073.295     1005281.797                                  
  38828421.914     1871088.1592                                 
  38925030.219     1871059.1753                                 
 18  5 14 14  2 19.0010000  0  8G29G31G25G26S20G21S23S25
  20475291.902     2255379.594                                  
  21428904.918     2264526.582                                  
  22081897.441     2743950.974                                  
  22162018.920     1058068.823                                  
  38877896.579     1881760.9442                                 
  22691614.592     1008129.120                                  
  38829479.982     1876645.0632                                 
  38926059.320     1876487.2883                                 
 18  5 14 14  2 20.0010000  0  8G29G31G25G26S20G21S23S25
  20476553.666     2262010.517                                  
  21430177.336     2271216.461                                  
  22083440.764     2752064.179                                  
  22162584.019     1061036.841                                  
  38878931.543     1887198.6292                                 
  22692156.064     1010973.518                                  
  38830536.688     1882198.6882                                 
  38927087.548     1881912.0962                                 
 18  5 14 14  2 21.0010000  0  8G29G31G25G26S20G21S23S25
  20477815.142     2268642.938                                  
  21431451.402     2277908.012                                  
  22084984.829     2760178.775                                  
  22163148.638     1064006.148                                  
  38879966.542     1892637.6392                                 
  22692697.465     1013819.313                                  
  38831593.744     1887753.2542                                 
  38928117.957     1887338.0042                                 
 18  5 14 14  2 22.0010000  0  8G29G31G25G26S20G21S23S25
  20479077.657     2275277.157                                  
  21432725.242     2284601.571                                  
  22086529.173     2768295.112                                  
  22163714.008     1066977.145                                  
  38881001.950     1898078.2232                                 
  22693239.905     1016666.843                                  
  38832651.358     1893309.2212                                 
  38929146.447     1892765.3422                                 
 18  5 14 14  2 23.0010000  0  8G29G31G25G26S20G21S23S25
  20480339.814     2281909.437                                  
  21433998.881     2291293.381                                  
  22088073.273     2776409.399                                  
  22164279.194     1069946.036                                  
  38882037.289     1903516.6242                                 
  22693781.586     1019512.375                                  
  38833708.300     1898862.8812                                 
  38930176.725     1898190.2932                                 
 18  5 14 14  2 24.0010000  0  8G29G31G25G26S20G21S23S25
  20481601.822     2288539.838                                  
  21435271.691     2297983.493                                  
  22089617.417     2784521.735                                  
  22164843.465     1072912.894                                  
  38883072.200     1908952.4302                                 
  22694323.294     1022355.919                                  
  38834764.850     1904414.2322                                 
  38931207.553     1903612.9702                                 
 18  5 14 14  2 25.0010000  0  9G29G31G25G26S20G21G 5S23S25
  20482863.813     2295171.488                                  
  21436544.527     2304675.030                                  
  22091161.482     2792635.203                                  
  22165408.197     1075880.819                                  
  38884106.771     1914388.7682                                 
  22694864.687     1025200.641                                  
  24235374.088     1553542.8463                                 
  38835821.051     1909966.3582                                 
  38932237.814     1909036.4132                                 
 18  5 14 14  2 26.0010000  0  9G29G31G25G26S20G21G 5S23S25
  20484126.432     2301804.857                                  
  21437817.931     2311368.474                                  
  22092705.852     2800750.335                                  
  22165973.480     1078850.339                                  
  38885140.339     1919826.2112                                 
  22695406.751     1028047.046                                  
  24236212.885     1557935.8433                                 
  38836877.792     1915519.8172                                 
  38933268.293     1914461.1452                                 
 18  5 14 14  2 27.0010000  0  9G29G31G25G26S20G21G 5S23S25
  20485388.205     2308436.668                                  
  21439090.409     2318060.563                                  
  22094249.202     2808863.806                                  
  22166538.003     1081818.153                                  
  38886174.439     1925262.0442                                 
  22695948.048     1030891.823                                  
  24237050.417     1562327.6113                                 
  38837933.836     1921071.3032                                 
  38934297.611     1919883.7992                                 
 18  5 14 14  2 28.0010000  0  9G29G31G25G26S20G21G 5S23S25
  20486649.969     2315066.704                                  
  21440362.548     2324751.064                                  
  22095792.429     2816975.383                                  
  22167102.369     1084783.993                                  
  38887208.373     1930696.1152                                 
  22696488.543     1033734.728                                  
  24237887.164     1566717.6053                                 
  38838989.679     1926620.5112                                 
  38935324.836     1925304.1532                                 
 18  5 14 14  2 29.0010000  0  8G29G31G25G26S20G21S23S25
  20487911.411     2321696.521                                  
  21441634.485     2331441.485                                  
  22097336.329     2825086.700                                  
  22167667.320     1087749.495                                  
  38888242.395     1936129.4472                                 
  22697029.473     1036577.409                                  
  38840046.228     1932169.1332                                 
  38936352.715     1930723.9312                                 
 18  5 14 14  2 30.0010000  0  8G29G31G25G26S20G21S23S25
  20489172.791     2328328.959                                  
  21442908.011     2338134.782                                  
  22098879.896     2833200.520                                  
  22168232.009     1090717.443                                  
  38889276.521     1941564.6182                                 
  22697571.460     1039422.541                                  
  38841102.263     1937719.9082                                 
  38937381.850     1936145.8772                                 
 18  5 14 14  2 31.0010000  0  8G29G31G25G26S20G21S23S25
  20490434.922     2334961.890                                  
  21444181.371     2344828.727                                  
  22100424.014     2841314.726                                  
  22168796.707     1093685.727                                  
  38890310.847     1946999.6372                                 
  22698113.298     1042268.135                                  
  38842158.490     1943270.7312                                 
  38938409.807     1941567.9452                                 
 18  5 14 14  2 32.0010000  0  8G29G31G25G26S20G21S23S25
  20491697.349     2341592.753                                  
  21445454.172     2351520.776                                  
  22101967.416     2849426.803                                  
  22169361.291     1096651.783                                  
  38891345.069     1952432.1132                                 
  22698654.717     1045111.610                                  
  38843213.975     1948819.0292                                 
  38939437.547     1946987.5662                                 
 18  5 14 14  2 33.0010000  0  8G29G31G25G26S20G21S23S25
  20492958.886     2348222.670                                  
  21446727.244     2358212.072                                  
  22103510.652     2857537.818                                  
  22169925.247     1099616.729                                  
  38892378.759     1957863.5512                                 
  22699195.612     1047954.024                                  
  38844269.329     1954366.0182                                 
  38940464.195     1952405.8062                                 
 18  5 14 14  2 34.0010000  0  8G29G31G25G26S20G21S23S25
  20494220.380     2354854.309                                  
  21448001.293     2364905.282                                  
  22105054.682     2865650.474                                  
  22170489.491     1102583.251                                  
  38893412.659     1963296.5432                                 
  22699737.293     1050798.126                                  
  38845325.137     1959914.2802                                 
  38941491.970     1957825.4172                                 
 18  5 14 14  2 35.0010000  0  8G29G31G25G26S20G21S23S25
  20495482.336     2361487.230                                  
  21449275.072     2371599.953                                  
  22106598.459     2873764.326                                  
  22171054.172     1105550.907                                  
  38894447.203     1968730.2592                                 
  22700279.088     1053643.427                                  
  38846380.500     1965463.4192                                 
  38942519.229     1963245.8752                                 
 18  5 14 14  2 36.0010000  0  8G29G31G25G26S20G21S23S25
  20496744.118     2368118.868                                  
  21450548.615     2378293.535                                  
  22108142.455     2881876.797                                  
  22171618.826     1108517.112                                  
  38895480.806     1974161.8302                                 
  22700820.716     1056487.407                                  
  38847435.532     1971010.8262                                 
  38943547.370     1968664.6452                                 
 18  5 14 14  2 37.0010000  0  8G29G31G25G26S20G21S23S25
  20498006.126     2374748.381                                  
  21451822.926     2384985.193                                  
  22109686.249     2889987.068                                  
  22172182.904     1111481.043                                  
  38896513.807     1979590.8622                                 
  22701361.629     1059329.137                                  
  38848489.943     1976555.6882                                 
  38944574.612     1974080.8702                                 
 18  5 14 14  2 38.0010000  0  7G29G31G25G26S20G21S23
  20499268.196     2381379.715                                  
  21453097.272     2391678.846                                  
  22111229.302     2898099.077                                  
  22172747.410     1114446.639                                  
  38897547.313     1985021.6012                                 
  22701902.455     1062172.626                                  
  38849544.870     1982101.9312                                 
 18  5 14 14  2 39.0010000  0  7G29G31G25G26S20G21S23
  20500530.317     2388013.360                                  
  21454371.958     2398374.969                                  
  22112773.751     2906213.286                                  
  22173312.614     1117414.381                                  
  38898581.413     1990454.1792                                 
  22702443.473     1065018.356                                  
  38850600.652     1987650.0042                                 
 18  5 14 14  2 40.0010000  0  7G29G31G25G26S20G21S23
  20501792.274     2394645.331                                  
  21455646.513     2405069.634                                  
  22114317.589     2914325.732                                  
  22173876.770     1120380.301                                  
  38899614.841     1995884.4922                                 
  22702985.311     1067862.356                                  
  38851656.032     1993196.0392                                 
 18  5 14 14  2 41.0010000  0  7G29G31G25G26S20G21S23
  20503053.706     2401274.039                                  
  21456919.341     2411761.229                                  
  22115860.921     2922434.830                                  
  22174440.526     1123342.802                                  
  38900647.493     2001311.2492                                 
  22703526.678     1070703.020                                  
  38852710.767     1998738.3932                                 
 18  5 14 14  2 42.0010000  0  7G29G31G25G26S20G21S23
  20504315.121     2407903.198                                  
  21458192.761     2418453.457                                  
  22117403.765     2930544.305                                  
  22175003.845     1126305.600                                  
  38901680.415     2006738.0072                                 
  22704068.010     1073544.067                                  
  38853765.860     2004280.7842                                 
 18  5 14 14  2 43.0010000  0  7G29G31G25G26S20G21S23
  20505577.278     2414534.694                                  
  21459467.151     2425148.211                                  
  22118947.394     2938656.015                                  
  22175568.517     1129270.578                                  
  38902713.616     2012166.8472                                 
  22704609.019     1076387.383                                  
  38854821.005     2009825.0472                                 
 18  5 14 14  2 44.0010000  0  7G29G31G25G26S20G21S23
  20506838.938     2421165.622                                  
  21460741.069     2431842.576                                  
  22120490.970     2946767.057                                  
  22176132.586     1132234.831                                  
  38903746.442     2017594.4832                                 
  22705149.156     1079230.068                                  
  38855876.403     2015368.2982                                 
 18  5 14 14  2 45.0010000  0  7G29G31G25G26S20G21S23
  20508100.929     2427795.053                                  
  21462014.900     2438535.637                                  
  22122034.058     2954876.530                                  
  22176696.586     1135197.440                                  
  38904778.596     2023020.3562                                 
  22705689.790     1082071.199                                  
  38856931.312     2020909.6542                                 
 18  5 14 14  2 46.0010000  0  7G29G31G25G26S20G21S23
  20509362.309     2434424.493                                  
  21463288.749     2445228.881                                  
  22123577.198     2962985.896                                  
  22177260.542     1138159.891                                  
  38905810.881     2028445.8622                                 
  22706230.546     1084912.214                                  
  38857985.968     2026450.5552                                 
 18  5 14 14  2 47.0010000  0  7G29G31G25G26S20G21S23
  20510624.239     2441056.380                                  
  21464563.025     2451924.794                                  
  22125121.368     2971097.638                                  
  22177824.149     1141124.653                                  
  38906843.960     2033873.2132                                 
  22706771.363     1087755.617                                  
  38859041.392     2031993.5452                                 
 18  5 14 14  2 48.0010000  0  7G29G31G25G26S20G21S23
  20511886.125     2447688.847                                  
  21465837.248     2458621.472                                  
  22126664.857     2979209.866                                  
  22178388.507     1144089.825                                  
  38907876.525     2039300.7212                                 
  22707313.079     1090599.593                                  
  38860096.284     2037536.6472                                 
 18  5 14 14  2 49.0010000  0  8G29G31G25G26S20G21G23S23
  20513147.907     2454317.890                                  
  21467110.887     2465314.859                                  
  22128208.216     2987318.594                                  
  22178951.878     1147051.417                                  
  38908908.600     2044724.6782                                 
  22707853.521     1093440.054                                  
  25535057.842     1981660.3393                                 
  38861149.597     2043075.8992                                 
 18  5 14 14  2 50.0010000  0  8G29G31G25G26S20G21G23S23
  20514409.348     2460945.352                                  
  21468384.177     2472006.911                                  
  22129750.003     2995425.641                                  
  22179515.625     1150011.274                                  
  38909940.091     2050146.7882                                 
  22708393.570     1096278.868                                  
  25536072.563     1987009.3023                                 
  38862202.962     2048613.1172                                 
 18  5 14 14  2 51.0010000  0  8G29G31G25G26S20G21G23S23
  20515669.821     2467574.816                                  
  21469658.340     2478701.119                                  
  22131293.118     3003534.577                                  
  22180079.642     1152972.976                                  
  38910972.708     2055570.2562                                 
  22708934.117     1099119.637                                  
  25537092.153     1992360.6853                                 
  38863257.583     2054151.9042                                 
 18  5 14 14  2 52.0010000  0  7G29G31G25G26S20G21S23
  20516931.873     2474205.776                                  
  21470933.165     2485397.021                                  
  22132836.554     3011644.925                                  
  22180642.639     1155936.011                                  
  38912005.159     2060994.5142                                 
  22709474.663     1101961.800                                  
  38864312.466     2059691.8022                                 
 18  5 14 14  2 53.0010000  0  9G29G31G25G26S20G21G 5G23S23
  20518193.986     2480835.501                                  
  21472208.157     2492091.855                                  
  22134379.407     3019753.973                                  
  22181206.621     1158897.669                                  
  38913036.676     2066417.2582                                 
  22710014.206     1104802.648                                  
  24258773.050     1676550.4783                                 
  25539125.784     2003065.7483                                 
  38865366.442     2065230.0662                                 
 18  5 14 14  2 54.0010000  0  9G29G31G25G26S20G21G 5G23S23
  20519455.663     2487463.832                                  
  21473481.709     2498785.496                                  
  22135922.617     3027861.509                                  
  22181769.670     1161857.762                                  
  38914068.359     2071838.3392                                 
  22710554.361     1107642.043                                  
  24259607.563     1680942.1883                                 
  25540139.214     2008416.2563                                 
  38866420.496     2070766.4562                                 
 18  5 14 14  2 55.0010000  0  7G29G31G25G26S20G21S23
  20520717.715     2494094.350                                  
  21474756.412     2505481.519                                  
  22137465.521     3035971.166                                  
  22182333.669     1164819.900                                  
  38915100.313     2077261.0652                                 
  22711094.881     1110483.556                                  
  38867474.986     2076304.6022                                 
 18  5 14 14  2 56.0010000  0  7G29G31G25G26S20G21S23
  20521980.387     2500727.086                                  
  21476031.281     2512179.935                                  
  22139009.787     3044082.971                                  
  22182897.582     1167784.109                                  
  38916132.083     2082685.4842                                 
  22711635.847     1113327.214                                  
  38868529.049     2081844.5782                                 
 18  5 14 14  2 57.0010000  0  7G29G31G25G26S20G21S23
  20523241.846     2507358.833                                  
  21477305.915     2518877.590                                  
  22140553.259     3052193.656                                  
  22183461.364     1170747.171                                  
  38917164.368     2088108.6102                                 
  22712176.114     1116169.876                                  
  38869582.955     2087383.1582                                 
 18  5 14 14  2 58.0010000  0  7G29G31G25G26S20G21S23
  20524503.287     2513989.112                                  
  21478579.284     2525573.926                                  
  22142096.294     3060302.811                                  
  22184025.241     1173708.615                                  
  38918195.746     2093529.8742                                 
  22712717.036     1119011.019                                  
  38870636.233     2092919.8802                                 
 18  5 14 14  2 59.0010000  0  7G29G31G25G26S20G21S23
  20525765.383     2520620.486                                  
  21479853.603     2532271.543                                  
  22143639.731     3068412.958                                  
  22184588.944     1176670.996                                  
  38919227.690     2098951.9092                                 
  22713257.303     1121853.107                                  
  38871689.711     2098457.1892                                 
 18  5 14 14  3  0.0010000  0  7G29G31G25G26S20G21S23
  20527027.330     2527253.303                                  
  21481128.926     2538970.800                                  
  22145183.883     3076524.475                                  
  22185152.831     1179634.682                                  
  38920259.914     2104374.9692                                 
  22713798.339     1124696.584                                  
  38872743.757     2103995.4942                                 
 18  5 14 14  3  1.0010000  0  7G29G31G25G26S20G21S23
  20528289.225     2533885.606                                  
  21482403.255     2545669.742                                  
  22146727.111     3084635.391                                  
  22185716.342     1182597.692                                  
  38921291.720     2109796.7892                                 
  22714338.972     1127539.494                                  
  38873796.677     2109532.8792                                 
 18  5 14 14  3  2.0010000  0  7G29G31G25G26S20G21S23
  20529550.501     2540514.692                                  
  21483676.370     2552365.638                                  
  22148269.309     3092742.999                                  
  22186279.853     1185557.334                                  
  38922322.478     2115214.8492                                 
  22714878.533     1130379.123                                  
  38874849.475     2115066.6472                                 
 18  5 14 14  3  3.0010000  0  7G29G31G25G26S20G21S23
  20530811.637     2547143.622                                  
  21484950.140     2559061.556                                  
  22149812.048     3100850.342                                  
  22186842.867     1188516.667                                  
  38923353.576     2120632.4582                                 
  22715418.644     1133218.502                                  
  38875902.386     2120599.8242                                 
 18  5 14 14  3  4.0010000  0  7G29G31G25G26S20G21S23
  20532073.933     2553774.836                                  
  21486225.166     2565759.949                                  
  22151356.069     3108959.888                                  
  22187406.605     1191478.136                                  
  38924385.041     2126052.2742                                 
  22715959.592     1136060.129                                  
  38876955.541     2126134.8782                                 
 18  5 14 14  3  5.0010000  0  7G29G31G25G26S20G21S23
  20533335.880     2560406.487                                  
  21487499.739     2572458.982                                  
  22152899.619     3117069.786                                  
  22187970.631     1194439.879                                  
  38925416.620     2131472.0782                                 
  22716499.789     1138902.142                                  
  38878009.186     2131669.9142                                 
 18  5 14 14  3  6.0010000  0  7G29G31G25G26S20G21S23
  20534597.296     2567035.180                                  
  21488773.204     2579155.239                                  
  22154442.096     3125176.638                                  
  22188533.112     1197398.512                                  
  38926446.636     2136888.2092                                 
  22717039.856     1141741.070                                  
  38879062.498     2137201.5952                                 
 18  5 14 14  3  7.0010000  0  7G29G31G25G26S20G21S23
  20535858.999     2573662.796                                  
  21490046.694     2585850.611                                  
  22155984.146     3133282.317                                  
  22189095.978     1200355.923                                  
  38927477.115     2142302.6342                                 
  22717579.356     1144578.911                                  
  38880115.348     2142731.7942                                 
 18  5 14 14  3  8.0010000  0  7G29G31G25G26S20G21S23
  20537120.649     2580292.122                                  
  21491322.035     2592547.835                                  
  22157526.231     3141389.613                                  
  22189658.835     1203314.882                                  
  38928507.926     2147718.5172                                 
  22718119.641     1147418.307                                  
  38881167.649     2148263.1412                                 
 18  5 14 14  3  9.0010000  0  9G29G31G25G26S20G21G23S23S25
  20538382.126     2586922.291                                  
  21492596.075     2599246.133                                  
  22159069.118     3149497.665                                  
  22190221.988     1206274.551                                  
  38929538.858     2153134.9442                                 
  22718660.650     1150258.561                                  
  25555422.464     2088719.2243                                 
  38882219.810     2153794.9973                                 
  38977400.539     2149876.6802                                 
 18  5 14 14  3 10.0010000  0  9G29G31G25G26S20G21G23S23S25
  20539643.157     2593551.230                                  
  21493870.683     2605943.380                                  
  22160612.014     3157604.401                                  
  22190784.531     1209232.828                                  
  38930568.421     2158549.5142                                 
  22719200.751     1153097.513                                  
  25556439.838     2094072.6813                                 
  38883272.101     2159325.2342                                 
  38978425.303     2155278.6382                                 
 18  5 14 14  3 11.0010000  0  9G29G31G25G26S20G21G23S23S25
  20540904.398     2600179.830                                  
  21495145.220     2612640.457                                  
  22162155.128     3165710.686                                  
  22191347.597     1212190.613                                  
  38931598.481     2163963.4182                                 
  22719740.818     1155936.021                                  
  25557458.302     2099425.7953                                 
  38884324.541     2164854.6732                                 
  38979449.081     2160679.8702                                 
 18  5 14 14  3 12.0010000  0  9G29G31G25G26S20G21G23S23S25
  20542165.909     2606810.986                                  
  21496420.884     2619340.353                                  
  22163698.277     3173819.479                                  
  22191910.759     1215150.805                                  
  38932629.475     2169379.7302                                 
  22720281.478     1158777.055                                  
  25558476.226     2104781.7853                                 
  38885377.400     2170386.2202                                 
  38980473.138     2166083.2702                                 
 18  5 14 14  3 13.0010000  0  9G29G31G25G26S20G21G23S23S25
  20543428.659     2613444.431                                  
  21497696.172     2626042.668                                  
  22165242.132     3181930.448                                  
  22192473.939     1218113.121                                  
  38933660.609     2174797.9432                                 
  22720822.313     1161620.315                                  
  25559496.959     2110140.2853                                 
  38886430.085     2175919.6732                                 
  38981497.964     2171488.5922                                 
 18  5 14 14  3 14.0010000  0  9G29G31G25G26S20G21G23S23S25
  20544690.493     2620075.375                                  
  21498971.722     2632742.634                                  
  22166785.464     3190038.834                                  
  22193037.502     1221072.778                                  
  38934690.773     2180213.1392                                 
  22721362.554     1164461.003                                  
  25560515.607     2115496.4053                                 
  38887482.630     2181450.2032                                 
  38982521.855     2176890.9502                                 
 18  5 14 14  3 15.0010000  0  9G29G31G25G26S20G21G23S23S25
  20545951.908     2626703.778                                  
  21500246.163     2639440.329                                  
  22168327.636     3198144.597                                  
  22193600.106     1224029.762                                  
  38935720.415     2185625.2062                                 
  22721902.900     1167299.111                                  
  25561536.130     2120850.0663                                 
  38888534.249     2186977.7742                                 
  38983545.389     2182290.4302                                 
 18  5 14 14  3 16.0010000  0  9G29G31G25G26S20G21G23S23S25
  20547213.445     2633333.571                                  
  21501520.474     2646139.563                                  
  22169870.235     3206251.650                                  
  22194162.797     1226987.976                                  
  38936749.960     2191038.3612                                 
  22722443.525     1170138.542                                  
  25562557.753     2126205.0823                                 
  38889586.166     2192506.2642                                 
  38984568.835     2187690.7802                                 
 18  5 14 14  3 17.0000000  0  9G29G31G25G26S20G21G23S23S25
  20248682.772     2639966.128                                  
  21203003.264     2652841.722                                  
  21871620.973     3214361.391                                  
  21894933.652     1229948.796                                  
  38637988.290     2196453.7282                                 
  22423192.027     1172980.632                                  
  25263782.061     2131563.0653                                 
  38590845.994     2198037.0992                                 
  38685801.302     2193093.3852                                 
 18  5 14 14  3 18.0000000  0  9G29G31G25G26S20G21G23S23S25
  20249944.964     2646597.500                                  
  21204278.622     2659542.905                                  
  21873163.939     3222469.841                                  
  21895496.823     1232908.286                                  
  38639018.524     2201867.2952                                 
  22423732.879     1175821.496                                  
  25264800.002     2136920.3113                                 
  38591897.832     2203566.3422                                 
  38686825.795     2198494.3692                                 
 18  5 14 14  3 19.0000000  0  9G29G31G25G26S20G21G23S23S25
  20251206.510     2653225.582                                  
  21205553.247     2666240.947                                  
  21874706.328     3230574.915                                  
  21896059.462     1235864.333                                  
  38640047.590     2207277.1602                                 
  22424273.286     1178659.001                                  
  25265822.646     2142274.2503                                 
  38592949.914     2209091.8362                                 
  38687849.181     2203891.5812                                 
 18  5 14 14  3 20.0000000  0  9G29G31G25G26S20G21G23S23S25
  20252467.890     2659854.629                                  
  21206827.915     2672940.120                                  
  21876248.910     3238680.851                                  
  21896622.092     1238821.184                                  
  38641077.161     2212687.7642                                 
  22424813.545     1181497.402                                  
  25266841.800     2147629.0113                                 
  38594001.630     2214617.8282                                 
  38688871.702     2209289.2522                                 
 18  5 14 14  3 21.0000000  0  9G29G31G25G26S20G21G23S23S25
  20253729.890     2666486.539                                  
  21208104.023     2679642.410                                  
  21877792.103     3246789.573                                  
  21897185.533     1241780.767                                  
  38642107.544     2218100.8912                                 
  22425354.615     1184338.638                                  
  25267857.891     2152986.9253                                 
  38595054.254     2220146.3402                                 
  38689896.344     2214689.3732                                 
 18  5 14 14  3 22.0000000  0  9G29G31G25G26S20G21G23S23S25
  20254992.090     2673118.975                                  
  21209379.154     2686345.380                                  
  21879335.548     3254898.717                                  
  21897748.643     1244740.707                                  
  38643136.959     2223513.9432                                 
  22425895.162     1187180.244                                  
  25268877.865     2158345.8613                                 
  38596106.144     2225674.8992                                 
  38690921.518     2220089.4592                                 
 18  5 14 14  3 23.0000000  0  9G29G31G25G26S20G21G23S23S25
  20256253.593     2679749.544                                  
  21210653.710     2693046.711                                  
  21880877.423     3263005.931                                  
  21898310.828     1247698.646                                  
  38644166.714     2228925.0242                                 
  22426435.717     1190019.964                                  
  25269894.471     2163702.8043                                 
  38597157.467     2231201.2222                                 
  38691944.249     2225487.2952                                 
 18  5 14 14  3 24.0000000  0  9G29G31G25G26S20G21G23S23S25
  20257515.016     2686379.240                                  
  21211928.535     2699747.321                                  
  21882420.084     3271112.146                                  
  21898873.266     1250655.509                                  
  38645196.364     2234334.8082                                 
  22426976.377     1192858.766                                  
  25270910.877     2169058.8683                                 
  38598208.572     2236726.2952                                 
  38692967.844     2230883.7762                                 
 18  5 14 14  3 25.0000000  0  9G29G31G25G26S20G21G23S23S25
  20258776.754     2693011.399                                  
  21213203.326     2706450.621                                  
  21883962.700     3279220.771                                  
  21899436.454     1253614.736                                  
  38646226.040     2239746.4142                                 
  22427517.177     1195699.976                                  
  25271930.868     2174417.6043                                 
  38599260.690     2242253.2982                                 
  38693992.285     2236282.2702                                 
 18  5 14 14  3 26.0000000  0  9G29G31G25G26S20G21G23S23S25
  20260039.304     2699644.740                                  
  21214478.885     2713155.270                                  
  21885505.143     3287330.493                                  
  21900000.088     1256574.979                                  
  38647256.240     2245158.5292                                 
  22428057.890     1198542.306                                  
  25272948.120     2179777.9403                                 
  38600312.554     2247781.0682                                 
  38695015.741     2241681.6662                                 
 18  5 14 14  3 27.0000000  0  9G29G31G25G26S20G21G23S23S25
  20261300.501     2706275.545                                  
  21215753.928     2719857.550                                  
  21887048.300     3295437.554                                  
  21900563.136     1259532.535                                  
  38648285.497     2250567.7272                                 
  22428598.515     1201381.995                                  
  25273966.768     2185135.6963                                 
  38601363.266     2253305.8882                                 
  38696039.894     2247078.0442                                 
 18  5 14 14  3 28.0000000  0  9G29G31G25G26S20G21G23S23S25
  20262562.684     2712906.108                                  
  21217030.115     2726559.795                                  
  21888591.126     3303544.322                                  
  21901125.766     1262489.700                                  
  38649314.659     2255976.6712                                 
  22429139.053     1204221.405                                  
  25274987.291     2190493.0683                                 
  38602414.991     2258830.0952                                 
  38697062.154     2252473.7492                                 
 18  5 14 14  3 29.0000000  0  8G29G31G25G26S20G21G 5S23
  20263825.094     2719539.338                                  
  21218305.656     2733264.830                                  
  21890134.459     3311653.598                                  
  21901689.068     1265449.383                                  
  38650343.689     2261387.7812                                 
  22429680.245     1207063.404                                  
  23989122.025     1834834.9733                                 
  38603466.690     2264356.4432                                 
 18  5 14 14  3 30.0000000  0  9G29G31G25G26S20G21G 5G23S23
  20265087.504     2726175.045                                  
  21219581.529     2739972.557                                  
  21891678.340     3319765.313                                  
  21902252.422     1268411.385                                  
  38651373.845     2266800.7432                                 
  22430221.263     1209907.820                                  
  23989958.867     1839239.6053                                 
  25277015.539     2201216.6033                                 
  38604518.475     2269884.9032                                 
 18  5 14 14  3 31.0000000  0  9G29G31G25G26S20G21G 5G23S23
  20266350.716     2732809.873                                  
  21220858.379     2746679.618                                  
  21893221.673     3327876.055                                  
  21902816.169     1271372.361                                  
  38652403.504     2272212.2952                                 
  22430761.679     1212751.262                                  
  23990799.034     1843643.5113                                 
  25278034.902     2206578.8963                                 
  38605570.435     2275412.0192                                 
 18  5 14 14  3 32.0000000  0  8G29G31G25G26S20G21G 5S23
  20267613.335     2739443.619                                  
  21222135.342     2753385.772                                  
  21894764.874     3335985.625                                  
  21903379.331     1274332.130                                  
  38653433.181     2277622.5962                                 
  22431301.405     1215593.616                                  
  23991642.770     1848046.5053                                 
  38606622.622     2280937.7122                                 
 18  5 14 14  3 33.0000000  0  8G29G31G25G26S20G21G 5S23
  20268876.591     2746079.339                                  
  21223412.541     2760094.082                                  
  21896308.930     3344097.067                                  
  21903943.235     1277293.694                                  
  38654462.578     2283034.4552                                 
  22431842.475     1218437.854                                  
  23992488.329     1852451.4123                                 
  38607674.365     2286464.8152                                 
 18  5 14 14  3 34.0000000  0  8G29G31G25G26S20G21G 5S23
  20270139.778     2752717.797                                  
  21224689.513     2766805.311                                  
  21897853.091     3352211.168                                  
  21904507.287     1280257.847                                  
  38655493.432     2288448.6112                                 
  22432384.086     1221284.736                                  
  23993332.622     1856859.3493                                 
  38608726.787     2291994.3302                                 
 18  5 14 14  3 35.0000000  0  8G29G31G25G26S20G21G 5S23
  20271402.624     2759355.737                                  
  21225967.209     2773516.230                                  
  21899396.668     3360324.655                                  
  21905071.173     1283221.320                                  
  38656523.649     2293861.9422                                 
  22432924.991     1224131.062                                  
  23994177.745     1861267.0553                                 
  38609779.044     2297522.8502                                 
 18  5 14 14  3 36.0000000  0  8G29G31G25G26S20G21G 5S23
  20272665.549     2765991.963                                  
  21227244.007     2780225.638                                  
  21900940.358     3368436.355                                  
  21905634.763     1286182.953                                  
  38657552.933     2299272.9952                                 
  22433466.192     1226975.624                                  
  23995021.446     1865673.0733                                 
  38610830.524     2303049.3152                                 
 18  5 14 14  3 37.0000000  0  8G29G31G25G26S20G21G 5S23
  20273928.848     2772628.616                                  
  21228521.581     2786935.633                                  
  21902484.501     3376548.375                                  
  21906198.178     1289144.857                                  
  38658582.705     2304683.7252                                 
  22434007.314     1229820.591                                  
  23995860.042     1870079.5733                                 
  38611881.839     2308575.7672                                 
 18  5 14 14  3 38.0000000  0  8G29G31G25G26S20G21G 5S23
  20275191.904     2779266.890                                  
  21229798.858     2793647.450                                  
  21904028.549     3384661.937                                  
  21906762.248     1292108.236                                  
  38659612.695     2310095.8602                                 
  22434548.393     1232667.016                                  
  23996699.511     1874487.8753                                 
  38612933.040     2314103.3932                                 
 18  5 14 14  3 39.0000000  0  8G29G31G25G26S20G21G 5S23
  20276455.055     2785906.040                                  
  21231075.551     2800360.319                                  
  21905571.968     3392776.279                                  
  21907326.274     1295072.330                                  
  38660642.529     2315508.5942                                 
  22435090.327     1235514.284                                  
  23997536.607     1878897.4293                                 
  38613985.079     2319631.4472                                 
 18  5 14 14  3 40.0000000  0  8G29G31G25G26S20G21G 5S23
  20277717.875     2792543.256                                  
  21232352.733     2807071.449                                  
  21907115.405     3400888.603                                  
  21907889.959     1298034.340                                  
  38661672.545     2320919.2082                                 
  22435630.630     1238359.587                                  
  23998374.147     1883305.0503                                 
  38615036.559     2325157.1782                                 
 18  5 14 14  3 41.0000000  0  8G29G31G25G26S20G21G 5S23
  20278980.756     2799180.133                                  
  21233630.080     2813782.436                                  
  21908658.772     3409000.493                                  
  21908453.366     1300995.881                                  
  38662702.056     2326328.8792                                 
  22436171.909     1241204.500                                  
  23999213.215     1887712.3323                                 
  38616087.786     2330682.1192                                 
 18  5 14 14  3 42.0000000  0  8G29G31G25G26S20G21G 5S23
  20280244.056     2805819.679                                  
  21234907.724     2820496.268                                  
  21910202.846     3417114.972                                  
  21909017.296     1303959.939                                  
  38663731.959     2331740.6882                                 
  22436713.599     1244052.025                                  
  24000051.427     1892122.4813                                 
  38617139.354     2336209.3302                                 
 18  5 14 14  3 43.0000000  0  8G29G31G25G26S20G21G 5S23
  20281507.513     2812460.747                                  
  21236185.813     2827211.802                                  
  21911747.469     3425230.884                                  
  21909581.583     1306925.364                                  
  38664762.333     2337153.6102                                 
  22437255.611     1246900.936                                  
  24000889.413     1896534.4873                                 
  38618191.497     2341737.6732                                 
 18  5 14 14  3 44.0000000  0  7G29G31G25G26S20G21S23
  20282770.656     2819100.141                                  
  21237463.395     2833925.844                                  
  21913291.447     3433345.034                                  
  21910145.217     1309888.967                                  
  38665792.297     2342564.6222                                 
  22437796.455     1249748.216                                  
  38619243.405     2347263.8732                                 
 18  5 14 14  3 45.0000000  0  7G29G31G25G26S20G21S23
  20284034.104     2825738.419                                  
  21238741.170     2840638.950                                  
  21914834.936     3441457.961                                  
  21910708.745     1312851.303                                  
  38666821.398     2347973.9992                                 
  22438337.586     1252594.254                                  
  38620294.432     2352788.5662                                 
 18  5 14 14  3 46.0000000  0  8G29G31G25G26S20G21S23S25
  20285297.691     2832379.022                                  
  21240019.180     2847354.575                                  
  21916379.752     3449573.154                                  
  21911273.495     1315815.830                                  
  38667851.519     2353385.0222                                 
  22438879.450     1255442.562                                  
  38621346.043     2358315.1232                                 
  38715484.654     2350164.0342                                 
 18  5 14 14  3 47.0000000  0  8G29G31G25G26S20G21S23S25
  20286561.392     2839021.518                                  
  21241297.086     2854072.287                                  
  21917924.236     3457690.122                                  
  21911837.783     1318782.096                                  
  38668881.588     2358797.5892                                 
  22439421.855     1258292.674                                  
  38622397.855     2363843.1712                                 
  38716508.537     2355563.5322                                 
 18  5 14 14  3 48.0000000  0  8G29G31G25G26S20G21S23S25
  20287825.006     2845662.947                                  
  21242575.681     2860789.093                                  
  21919468.571     3465805.935                                  
  21912401.940     1321747.114                                  
  38669911.439     2364208.6062                                 
  22439963.301     1261141.654                                  
  38623450.496     2369369.7442                                 
  38717532.315     2360961.4492                                 
 18  5 14 14  3 49.0000000  0  9G29G31G25G26S20G21G23S23S25
  20289088.428     2852302.914                                  
  21243853.726     2867504.613                                  
  21921012.889     3473920.216                                  
  21912965.774     1324710.546                                  
  38670940.600     2369618.0492                                 
  22440505.296     1263989.111                                  
  25296394.058     2303194.3053                                 
  38624501.191     2374894.3692                                 
  38718554.654     2366357.3712                                 
 18  5 14 14  3 50.0000000  0  8G29G31G25G26S20G21G23S23
  20290352.182     2858944.700                                  
  21245131.867     2874222.160                                  
  21922557.190     3482036.204                                  
  21913529.774     1327675.643                                  
  38671969.936     2375028.8352                                 
  22441048.189     1266838.305                                  
  25297418.272     2308565.1743                                 
  38625551.799     2380420.4172                                 
 18  5 14 14  3 51.0000000  0  8G29G31G25G26S20G21G23S23
  20291616.546     2865589.993                                  
  21246411.047     2880943.445                                  
  21924102.372     3490155.621                                  
  21914094.820     1330644.108                                  
  38672999.831     2380442.5202                                 
  22441591.362     1269691.009                                  
  25298440.419     2313940.5953                                 
  38626603.959     2385949.5912                                 
 18  5 14 14  3 52.0000000  0  8G29G31G25G26S20G21G23S23
  20292881.041     2872235.729                                  
  21247689.493     2887665.307                                  
  21925647.981     3498275.403                                  
  21914659.562     1333612.866                                  
  38674029.681     2385856.0192                                 
  22442134.457     1272544.104                                  
  25299464.694     2319316.9313                                 
  38627656.522     2391478.7442                                 
 18  5 14 14  3 53.0000000  0  8G29G31G25G26S20G21G23S23
  20294145.589     2878880.166                                  
  21248968.804     2894386.074                                  
  21927192.779     3506393.777                                  
  21915224.443     1336580.165                                  
  38675059.314     2391267.8692                                 
  22442677.612     1275395.807                                  
  25300485.279     2324691.0403                                 
  38628708.744     2397006.1582                                 
 18  5 14 14  3 54.0000000  0  8G29G31G25G26S20G21G23S23
  20295410.642     2885525.683                                  
  21250248.498     2901108.116                                  
  21928737.769     3514513.134                                  
  21915788.983     1339548.398                                  
  38676089.348     2396680.7582                                 
  22443220.899     1278248.551                                  
  25301508.961     2330067.0663                                 
  38629761.419     2402534.2542                                 
 18  5 14 14  3 55.0000000  0  8G29G31G25G26S20G21G23S23
  20296675.443     2892173.876                                  
  21251527.512     2907833.003                                  
  21930283.073     3522635.091                                  
  21916354.152     1342519.169                                  
  38677119.408     2402095.9532                                 
  22443764.071     1281103.883                                  
  25302530.497     2335445.9943                                 
  38630813.947     2408064.6022                                 
 18  5 14 14  3 56.0000000  0  8G29G31G25G26S20G21G23S23
  20297941.264     2898823.299                                  
  21252807.040     2914559.332                                  
  21931829.119     3530758.194                                  
  21916920.037     1345490.993                                  
  38678150.384     2407511.5352                                 
  22444307.070     1283960.447                                  
  25303555.496     2340826.5383                                 
  38631866.779     2413595.7942                                 
 18  5 14 14  3 57.0000000  0  8G29G31G25G26S20G21G23S23
  20299206.553     2905470.113                                  
  21254086.202     2921283.234                                  
  21933374.833     3538878.595                                  
  21917485.371     1348460.103                                  
  38679180.035     2412924.0792                                 
  22444850.478     1286814.333                                  
  25304576.578     2346204.6623                                 
  38632918.670     2419123.9282                                 
 18  5 14 14  3 58.0000000  0  8G29G31G25G26S20G21G23S23
  20300470.499     2912115.014                                  
  21255365.443     2928005.408                                  
  21934919.910     3546996.999                                  
  21918050.026     1351427.139                                  
  38680209.667     2418334.2922                                 
  22445393.110     1289666.170                                  
  25305599.676     2351580.5713                                 
  38633969.827     2424649.8002                                 
 18  5 14 14  3 59.0000000  0  7G29G31G25G26S20G21S23
  20301736.198     2918762.256                                  
  21256645.076     2934730.117                                  
  21936465.136     3555117.653                                  
  21918614.933     1354396.376                                  
  38681239.439     2423746.6822                                 
  22445936.275     1292520.314                                  
  38635021.657     2430177.5182                                 
 18  5 14 14  4  0.0000000  0  7G29G31G25G26S20G21S23
  20303001.452     2925412.550                                  
  21257924.430     2941458.051                                  
  21938010.483     3563241.270                                  
  21919180.573     1357368.522                                  
  38682269.770     2429161.7762                                 
  22446479.160     1295377.488                                  
  38636073.032     2435707.8812                                 
 18  5 14 14  4  1.0000000  0  8G29G31G25G26S20G21G 5S23
  20304266.820     2932062.571                                  
  21259204.299     2948185.896                                  
  21939556.669     3571364.509                                  
  21919745.864     1360340.218                                  
  38683299.961     2434575.9482                                 
  22447022.812     1298234.281                                  
  24015962.414     1976061.5333                                 
  38637125.027     2441237.5012                                 
 18  5 14 14  4  2.0000000  0  8G29G31G25G26S20G21G 5S23
  20305532.615     2938712.623                                  
  21260484.927     2954913.959                                  
  21941102.671     3579487.718                                  
  21920311.530     1363311.834                                  
  38684330.082     2439989.7112                                 
  22447566.038     1301091.088                                  
  24016807.737     1980485.1633                                 
  38638177.223     2446766.7842                                 
 18  5 14 14  4  3.0000000  0  8G29G31G25G26S20G21G 5S23
  20306798.811     2945364.631                                  
  21261765.528     2961644.134                                  
  21942648.594     3587612.762                                  
  21920877.371     1366285.216                                  
  38685361.059     2445405.1702                                 
  22448109.638     1303949.674                                  
  24017649.143     1984910.8123                                 
  38639229.986     2452297.5342                                 
 18  5 14 14  4  4.0000000  0  9G29G31G25G26S20G21G 5G23S23
  20308064.973     2952019.508                                  
  21263045.964     2968377.411                                  
  21944195.006     3595740.615                                  
  21921444.259     1369261.353                                  
  38686392.253     2450823.3072                                 
  22448654.085     1306811.200                                  
  24018495.784     1989339.6653                                 
  25311745.433     2383875.4053                                 
  38640283.290     2457830.8162                                 
 18  5 14 14  4  5.0000000  0  9G29G31G25G26S20G21G 5G23S23
  20309331.536     2958674.257                                  
  21264327.543     2975110.736                                  
  21945741.593     3603868.235                                  
  21922011.016     1372237.202                                  
  38687422.523     2456240.6122                                 
  22449198.898     1309672.523                                  
  24019341.640     1993768.7213                                 
  25312771.157     2389262.4893                                 
  38641335.931     2463363.4782                                 
 18  5 14 14  4  6.0000000  0  9G29G31G25G26S20G21G 5G23S23
  20310598.291     2965328.491                                  
  21265608.415     2981843.745                                  
  21947288.214     3611995.268                                  
  21922577.266     1375212.423                                  
  38688453.604     2461656.7332                                 
  22449743.537     1312533.271                                  
  24020186.579     1998197.3213                                 
  25313795.720     2394649.2483                                 
  38642388.755     2468895.1992                                 
 18  5 14 14  4  7.0000000  0  9G29G31G25G26S20G21G 5G23S23
  20311864.845     2971984.032                                  
  21266890.291     2988578.242                                  
  21948835.098     3620123.497                                  
  21923143.570     1378188.769                                  
  38689484.667     2467073.6582                                 
  22450288.376     1315395.242                                  
  24021037.295     2002627.1293                                 
  25314822.116     2400037.2243                                 
  38643441.858     2474427.8412                                 
 18  5 14 14  4  8.0000000  0 10G29G31G25G26S20G21G 5G16G23S23
  20313131.853     2978641.692                                  
  21268172.986     2995315.043                                  
  21950382.129     3628253.763                                  
  21923710.990     1381167.113                                  
  38690516.333     2472492.4862                                 
  22450833.582     1318259.252                                  
  24021888.883     2007059.3912                                 
  24125963.735     1055094.3633                                 
  25315848.206     2405427.4703                                 
  38644495.493     2479962.1492                                 
 18  5 14 14  4  9.0000000  0  9G29G31G25G26S20G21G 5G16S23
  20314399.472     2985300.327                                  
  21269454.949     3002052.994                                  
  21951929.693     3636384.918                                  
  21924277.712     1384146.259                                  
  38691548.042     2477912.2382                                 
  22451378.954     1321124.213                                  
  24022731.580     2011492.8122                                 
  24126372.960     1057246.3803                                 
  38645548.858     2485497.0682                                 
 18  5 14 14  4 10.0000000  0 10G29G31G25G26S20G21G 5G16G23S23
  20315666.166     2991958.339                                  
  21270737.305     3008790.538                                  
  21953476.463     3644515.357                                  
  21924844.189     1387124.652                                  
  38692579.830     2483330.8452                                 
  22451924.317     1323988.557                                  
  24023573.797     2015925.6782                                 
  24126783.625     1059397.4063                                 
  25317897.542     2416210.0473                                 
  38646601.516     2491030.9142                                 
 18  5 14 14  4 11.0000000  0  9G29G31G25G26S20G21G 5G16S23
  20316933.549     2998616.759                                  
  21272019.931     3015528.648                                  
  21955024.376     3652646.143                                  
  21925411.252     1390103.300                                  
  38693610.318     2488749.1222                                 
  22452469.017     1326853.5753                                 
  24024415.395     2020359.1912                                 
  24127190.922     1061548.2463                                 
  38647654.384     2496564.7002                                 
 18  5 14 14  4 12.0000000  0  9G29G31G25G26S20G21G 5G16S23
  20318200.557     3005277.772                                  
  21273302.539     3022269.560                                  
  21956571.416     3660779.408                                  
  21925979.003     1393084.410                                  
  38694641.739     2494169.4242                                 
  22453014.702     1329720.7102                                 
  24025255.841     2024795.4072                                 
  24127599.344     1063701.4613                                 
  38648707.950     2502100.6982                                 
 18  5 14 14  4 13.0000000  0  9G29G31G25G26S20G21G 5G16S23
  20319468.394     3011940.272                                  
  21274586.029     3029012.156                                  
  21958119.416     3668914.082                                  
  21926546.284     1396066.863                                  
  38695672.584     2499590.8252                                 
  22453559.995     1332589.3412                                 
  24026102.439     2029233.3582                                 
  24128011.414     1065856.0353                                 
  38649761.681     2507637.7352                                 
 18  5 14 14  4 14.0000000  0  8G29G31G25G26S20G21G 5S23
  20320736.004     3018600.586                                  
  21275869.178     3035752.747                                  
  21959667.120     3677046.463                                  
  21927113.032     1399046.994                                  
  38696704.137     2505009.9322                                 
  22454105.952     1335455.7012                                 
  24026945.057     2033669.1182                                 
  38650814.444     2513172.1802                                 
 18  5 14 14  4 15.0000000  0  8G29G31G25G26S20G21G 5S23
  20322003.430     3025259.490                                  
  21277151.481     3042492.108                                  
  21961214.378     3685177.385                                  
  21927680.303     1402025.564                                  
  38697735.331     2510427.2742                                 
  22454651.629     1338320.5962                                 
  24027787.650     2038103.7232                                 
  38651867.434     2518704.7982                                 
 18  5 14 14  4 16.0000000  0  8G29G31G25G26S20G21G 5S23
  20323271.171     3031920.856                                  
  21278434.709     3049234.111                                  
  21962761.645     3693310.642                                  
  21928247.052     1405006.426                                  
  38698767.703     2515846.4412                                 
  22455197.751     1341187.8122                                 
  24028630.722     2042540.9012                                 
  38652919.900     2524239.4832                                 
 18  5 14 14  4 17.0000000  0  9G29G31G25G26S20G21G 5G16S23
  20324539.130     3038584.403                                  
  21279718.443     3055978.468                                  
  21964310.038     3701445.992                                  
  21928814.733     1407989.331                                  
  38699799.177     2521267.3432                                 
  22455743.419     1344057.2132                                 
  24029475.330     2046980.4092                                 
  24129645.504     1074464.0663                                 
  38653973.483     2529775.8692                                 
 18  5 14 14  4 18.0000000  0  9G29G31G25G26S20G21G 5G16S23
  20325807.011     3045247.488                                  
  21281001.514     3062722.569                                  
  21965858.230     3709580.805                                  
  21929382.485     1410971.648                                  
  38700830.363     2526687.4752                                 
  22456289.742     1346926.0772                                 
  24030320.174     2051419.6142                                 
  24130057.940     1076617.3323                                 
  38655026.717     2535311.4582                                 
 18  5 14 14  4 19.0000000  0  8G29G31G25G26S20G21G 5S23
  20327074.900     3051908.999                                  
  21282283.869     3069465.292                                  
  21967405.925     3717713.969                                  
  21929950.036     1413952.242                                  
  38701861.112     2532105.4112                                 
  22456834.939     1349792.829                                  
  24031164.442     2055856.920                                  
  38656079.820     2540845.0032                                 
 18  5 14 14  4 20.0000000  0  8G29G31G25G26S20G21G 5S23
  20328342.292     3058571.597                                  
  21283567.324     3076209.276                                  
  21968954.283     3725848.111                                  
  21930517.639     1416933.761                                  
  38702892.420     2537524.0002                                 
  22457380.424     1352661.095                                  
  24032008.831     2060295.987                                  
  38657133.403     2546379.2042                                 
 18  5 14 14  4 21.0000000  0  8G29G31G25G26S20G21G 5S23
  20329610.862     3065236.844                                  
  21284851.564     3082956.149                                  
  21970502.780     3733984.813                                  
  21931085.164     1419917.792                                  
  38703923.422     2542944.8942                                 
  22457926.947     1355531.961                                  
  24032854.146     2064737.807                                  
  38658186.541     2551915.6922                                 
 18  5 14 14  4 22.0000000  0  8G29G31G25G26S20G21G 5S23
  20330879.170     3071903.802                                  
  21286135.229     3089704.893                                  
  21972051.059     3742123.152                                  
  21931653.116     1422903.399                                  
  38704954.285     2548367.2962                                 
  22458474.396     1358404.540                                  
  24033698.344     2069181.517                                  
  38659240.299     2557453.4252                                 
 18  5 14 14  4 23.0000000  0  9G29G31G25G26S20G21G 5G16S23
  20332147.355     3078569.946                                  
  21287419.111     3096452.997                                  
  21973599.548     3750260.588                                  
  21932220.431     1425888.045                                  
  38705985.864     2553788.4092                                 
  22459020.832     1361276.201                                  
  24034542.376     2073625.1253                                 
  24132099.607     1087395.8843                                 
  38660293.716     2562989.9202                                 
 18  5 14 14  4 24.0000000  0  9G29G31G25G26S20G21G 5G16S23
  20333415.768     3085235.895                                  
  21288702.950     3103201.095                                  
  21975148.490     3758397.721                                  
  21932788.619     1428872.339                                  
  38707017.494     2559208.8152                                 
  22459567.329     1364147.587                                  
  24035385.414     2078068.1142                                 
  24132513.107     1089549.8333                                 
  38661347.517     2568525.8012                                 
 18  5 14 14  4 25.0000000  0  9G29G31G25G26S20G21G 5G16S23
  20334684.347     3091903.433                                  
  21289987.626     3109950.962                                  
  21976696.508     3766536.358                                  
  21933356.580     1431858.087                                  
  38708048.959     2564630.5372                                 
  22460113.355     1367020.447                                  
  24036229.367     2082512.8302                                 
  24132916.460     1091705.0743                                 
  38662400.594     2574062.8612                                 
 18  5 14 14  4 26.0000000  0  8G29G31G25G26S20G21G16S23
  20335953.030     3098572.407                                  
  21291272.293     3116702.479                                  
  21978245.302     3774676.360                                  
  21933924.611     1434845.132                                  
  38709081.105     2570053.1132                                 
  22460660.201     1369894.800                                  
  24133327.178     1093861.5953                                 
  38663454.020     2579600.9652                                 
 18  5 14 14  4 27.0000000  0  9G29G31G25G26S20G21G12G16S23
  20337222.071     3105239.350                                  
  21292556.595     3123452.124                                  
  21979793.869     3782814.222                                  
  21934493.305     1437829.996                                  
  38710112.596     2575473.3652                                 
  22461206.445     1372766.978                                  
  25316307.452     1801386.7863                                 
  24133738.183     1096015.6433                                 
  38664507.342     2585136.5762                                 
 18  5 14 14  4 28.0000000  0  8G29G31G25G26S20G21G12S23
  20338489.934     3111905.526                                  
  21293841.524     3130201.191                                  
  21981342.890     3790951.235                                  
  21935061.213     1440813.947                                  
  38711144.192     2580892.3982                                 
  22461753.230     1375638.395                                  
  25318018.123     1810385.5183                                 
  38665560.977     2590671.0092                                 
 18  5 14 14  4 29.0000000  0  8G29G31G25G26S20G21G12S23
  20339759.542     3118574.650                                  
  21295126.645     3136953.384                                  
  21982891.815     3799091.096                                  
  21935629.645     1443800.688                                  
  38712175.971     2586314.1292                                 
  22462299.858     1378512.638                                  
  25319733.340     1819386.8143                                 
  38666615.442     2596207.9512                                 
 18  5 14 14  4 30.0000000  0  8G29G31G25G26S20G21G12S23
  20341029.071     3125246.765                                  
  21296412.665     3143708.773                                  
  21984440.976     3807233.868                                  
  21936198.252     1446790.296                                  
  38713208.518     2591738.1432                                 
  22462847.507     1381389.833                                  
  25321444.099     1828390.9913                                 
  38667669.740     2601747.4572                                 
 18  5 14 14  4 31.0000000  0  8G29G31G25G26S20G21G12S23
  20342298.435     3131917.920                                  
  21297697.743     3150463.378                                  
  21985990.119     3815375.620                                  
  21936766.702     1449778.796                                  
  38714241.021     2597160.8702                                 
  22463394.877     1384266.040                                  
  25323157.160     1837393.8693                                 
  38668723.812     2607285.6572                                 
 18  5 14 14  4 32.0000000  0  8G29G31G25G26S20G21G12S23
  20343567.746     3138588.294                                  
  21298983.056     3157217.410                                  
  21987539.410     3823516.475                                  
  21937335.134     1452766.396                                  
  38715272.791     2602582.5612                                 
  22463941.863     1387141.418                                  
  25324866.601     1846395.3813                                 
  38669777.639     2612822.6042                                 
 18  5 14 14  4 33.0000000  0  8G29G31G25G26S20G21G12S23
  20344837.651     3145261.197                                  
  21300268.587     3163974.124                                  
  21989088.824     3831659.770                                  
  21937904.054     1455756.359                                  
  38716305.390     2608006.4222                                 
  22464489.555     1390019.260                                  
  25326579.907     1855398.9963                                 
  38670831.973     2618361.6672                                 
 18  5 14 14  4 34.0000000  0  8G29G31G25G26S20G21G12S23
  20346107.626     3151936.977                                  
  21301555.253     3170733.923                                  
  21990638.612     3839805.870                                  
  21938473.560     1458749.067                                  
  38717338.085     2613432.4222                                 
  22465038.199     1392899.898                                  
  25328291.686     1864405.2483                                 
  38671886.707     2623903.1762                                 
 18  5 14 14  4 35.0000000  0  8G29G31G25G26S20G21G12S23
  20347378.089     3158612.703                                  
  21302842.058     3177493.874                                  
  21992188.532     3847951.826                                  
  21939043.065     1461741.583                                  
  38718370.632     2618857.8482                                 
  22465586.668     1395780.404                                  
  25330008.482     1873411.3543                                 
  38672940.814     2629444.2092                                 
 18  5 14 14  4 36.0000000  0  8G29G31G25G26S20G21G12S23
  20348648.203     3165287.715                                  
  21304128.401     3184253.277                                  
  21993738.679     3856096.965                                  
  21939612.047     1464733.227                                  
  38719402.725     2624282.2442                                 
  22466134.474     1398660.237                                  
  25331722.102     1882416.1593                                 
  38673994.990     2634984.0802                                 
 18  5 14 14  4 37.0000000  0  8G29G31G25G26S20G21G12S23
  20349918.456     3171964.038                                  
  21305414.473     3191014.186                                  
  21995289.514     3864243.331                                  
  21940181.474     1467726.045                                  
  38720435.630     2629707.6302                                 
  22466682.786     1401541.277                                  
  25333435.033     1891421.7983                                 
  38675049.472     2640524.8862                                 
 18  5 14 14  4 38.0000000  0  8G29G31G25G26S20G21G12S23
  20351190.097     3178643.344                                  
  21306701.348     3197778.263                                  
  21996840.106     3872392.593                                  
  21940751.023     1470721.691                                  
  38721468.343     2635135.5892                                 
  22467231.473     1404425.205                                  
  25335148.252     1900430.0553                                 
  38676104.495     2646068.2752                                 
 18  5 14 14  4 39.0000000  0  9G29G31G25G26S20G21G 5G12S23
  20352461.381     3185324.448                                  
  21307989.017     3204544.338                                  
  21998391.613     3880543.563                                  
  21941321.749     1473719.011                                  
  38722502.015     2640565.0082                                 
  22467780.989     1407310.937                                  
  24048086.005     2144833.7123                                 
  25336862.971     1909440.0553                                 
  38677159.404     2651613.0122                                 
 18  5 14 14  4 40.0000000  0 10G29G31G25G26S20G21G 5G12G23S23
  20353732.760     3192004.579                                  
  21309276.355     3211309.621                                  
  21999942.379     3888693.488                                  
  21941892.057     1476715.217                                  
  38723534.745     2645992.9202                                 
  22468330.226     1410195.653                                  
  24048936.459     2149293.3713                                 
  25338576.469     1918448.6143                                 
  25348741.727     2578302.7013                                 
  38678214.392     2657156.3612                                 
 18  5 14 14  4 41.0000000  0 10G29G31G25G26S20G21G 5G12G23S23
  20355003.624     3198684.668                                  
  21310564.050     3218075.056                                  
  22001492.988     3896843.282                                  
  21942461.912     1479711.231                                  
  38724567.466     2651420.2262                                 
  22468879.158     1413080.222                                  
  24049786.476     2153752.9913                                 
  25340291.398     1927456.6043                                 
  25349773.471     2583720.2363                                 
  38679269.380     2662699.2672                                 
 18  5 14 14  4 42.0000000  0  9G29G31G25G26S20G21G 5G12S23
  20356275.335     3205367.649                                  
  21311852.356     3224843.552                                  
  22003044.705     3904995.847                                  
  21943032.386     1482709.987                                  
  38725600.772     2656849.8842                                 
  22469428.848     1415967.614                                  
  24050636.799     2158215.6803                                 
  25342003.692     1936467.4213                                 
  38680324.725     2668244.6462                                 
 18  5 14 14  4 43.0000000  0  9G29G31G25G26S20G21G 5G12S23
  20357547.927     3212053.340                                  
  21313141.369     3231614.962                                  
  22004596.283     3913151.046                                  
  21943603.418     1485711.315                                  
  38726634.130     2662281.8982                                 
  22469978.661     1418857.699                                  
  24051488.867     2162681.4713                                 
  25343721.509     1945480.3483                                 
  38681380.053     2673792.3162                                 
 18  5 14 14  4 44.0000000  0  9G29G31G25G26S20G21G 5G12S23
  20358820.301     3218738.246                                  
  21314430.155     3238385.772                                  
  22006148.218     3921305.378                                  
  21944173.560     1488711.717                                  
  38727667.349     2667712.8912                                 
  22470528.831     1421746.984                                  
  24052340.237     2167146.6423                                 
  25345436.403     1954492.1553                                 
  38682435.364     2679338.7562                                 
 18  5 14 14  4 45.0000000  0  9G29G31G25G26S20G21G 5G12S23
  20360091.811     3225422.230                                  
  21315718.836     3245155.846                                  
  22007700.249     3929458.691                                  
  21944744.130     1491711.052                                  
  38728700.568     2673142.6392                                 
  22471078.496     1424635.146                                  
  24053192.567     2171610.9273                                 
  25347151.655     1963502.7102                                 
  38683490.666     2684883.8082                                 
 18  5 14 14  4 46.0000000  0  9G29G31G25G26S20G21G 5G12S23
  20361364.124     3232106.749                                  
  21317007.717     3251926.642                                  
  22009251.503     3937612.445                                  
  21945314.883     1494710.772                                  
  38729733.507     2678572.2212                                 
  22471628.169     1427523.872                                  
  24054049.146     2176075.9423                                 
  25348863.390     1972513.3522                                 
  38684545.776     2690428.9532                                 
 18  5 14 14  4 47.0000000  0  9G29G31G25G26S20G21G 5G12S23
  20362635.896     3238791.451                                  
  21318295.657     3258697.819                                  
  22010802.810     3945766.311                                  
  21945885.653     1497710.551                                  
  38730766.831     2684001.8222                                 
  22472177.537     1430412.802                                  
  24054907.155     2180541.3602                                 
  25350577.621     1981523.9213                                 
  38685600.484     2695973.9412                                 
 18  5 14 14  4 48.0000000  0  9G29G31G25G26S20G21G 5G12S23
  20363907.816     3245475.838                                  
  21319583.579     3265468.851                                  
  22012354.265     3953919.763                                  
  21946456.991     1500709.867                                  
  38731799.412     2689430.8012                                 
  22472726.905     1433301.233                                  
  24055766.727     2185006.5242                                 
  25352294.181     1990533.8022                                 
  38686655.603     2701518.1382                                 
 18  5 14 14  4 49.0000000  0  9G29G31G25G26S20G21G 5G12S23
  20365179.736     3252159.155                                  
  21320871.475     3272238.982                                  
  22013905.782     3962072.040                                  
  21947027.604     1503707.951                                  
  38732832.212     2694857.9552                                 
  22473276.220     1436188.555                                  
  24056617.198     2189470.7802                                 
  25354007.566     1999542.1903                                 
  38687710.268     2707060.8372                                 
 18  5 14 14  4 50.0000000  0 10G29G31G25G26S20G21G 5G12G23S23
  20366451.473     3258841.878                                  
  21322159.188     3279008.696                                  
  22015456.984     3970223.626                                  
  21947597.860     1506705.301                                  
  38733864.759     2700283.9642                                 
  22473826.312     1439075.253                                  
  24057468.708     2193934.5632                                 
  25355721.561     2008549.5982                                 
  25359062.248     2632517.1433                                 
  38688764.506     2712602.5252                                 
 18  5 14 14  4 51.0000000  0  9G29G31G25G26S20G21G 5G12S23
  20367722.992     3265523.509                                  
  21323446.621     3285777.507                                  
  22017008.614     3978374.034                                  
  21948167.793     1509701.422                                  
  38734896.215     2705708.2622                                 
  22474375.924     1441960.821                                  
  24058319.388     2198397.4502                                 
  25357435.277     2017555.6093                                 
  38689818.752     2718142.7162                                 
 18  5 14 14  4 52.0000000  0  9G29G31G25G26S20G21G 5G12S23
  20368994.354     3272205.862                                  
  21324734.107     3292547.233                                  
  22018559.703     3986525.078                                  
  21948737.813     1512698.103                                  
  38735928.369     2711133.2472                                 
  22474924.882     1444847.008                                  
  24059168.132     2202861.2282                                 
  25359148.819     2026561.9752                                 
  38690873.207     2723683.1862                                 
 18  5 14 14  4 53.0000000  0  9G29G31G25G26S20G21G 5G12S23
  20370266.484     3278889.341                                  
  21326022.107     3299318.264                                  
  22020111.175     3994677.165                                  
  21949308.095     1515695.789                                  
  38736960.724     2716559.1512                                 
  22475474.537     1447734.304                                  
  24060018.254     2207326.3142                                 
  25360863.032     2035569.0263                                 
  38691928.047     2729224.4382                                 
 18  5 14 14  4 54.0000000  0  9G29G31G25G26S20G21G 5G12S23
  20371538.360     3285572.828                                  
  21327310.509     3306089.517                                  
  22021661.854     4002829.171                                  
  21949878.638     1518693.349                                  
  38737992.896     2721984.4822                                 
  22476023.896     1450621.532                                  
  24060867.652     2211791.4352                                 
  25362577.298     2044575.8522                                 
  38692982.145     2734765.2272                                 
 18  5 14 14  4 55.0000000  0  9G29G31G25G26S20G21G 5G12S23
  20372810.184     3292255.545                                  
  21328598.344     3312860.154                                  
  22023213.396     4010980.320                                  
  21950449.042     1521689.984                                  
  38739024.858     2727408.5392                                 
  22476573.308     1453507.936                                  
  24061717.591     2216255.590                                  
  25364291.555     2053581.4553                                 
  38694036.426     2740304.7952                                 
 18  5 14 14  4 56.0000000  0  9G29G31G25G26S20G21G 5G12S23
  20374082.017     3298937.422                                  
  21329886.449     3319630.143                                  
  22024764.197     4019130.553                                  
  21951019.280     1524685.650                                  
  38740056.402     2732831.4952                                 
  22477122.405     1456393.485                                  
  24062566.501     2220720.0203                                 
  25366005.079     2062585.8933                                 
  38695089.747     2745843.0662                                 
 18  5 14 14  4 57.0000000  0  8G29G31G25G26S20G21G 5S23
  20375353.824     3305620.042                                  
  21331174.598     3326401.047                                  
  22026314.858     4027281.420                                  
  21951589.911     1527681.924                                  
  38741088.268     2738254.7942                                 
  22477671.633     1459279.729                                  
  24063415.410     2225184.9252                                 
  38696143.304     2751381.6992                                 
 18  5 14 14  4 58.0000000  0  8G29G31G25G26S20G21G 5S23
  20376625.683     3312303.651                                  
  21332462.747     3333173.172                                  
  22027866.226     4035433.201                                  
  21952160.533     1530679.021                                  
  38742120.379     2743678.3742                                 
  22478221.280     1462166.873                                  
  24064265.437     2229650.8882                                 
  38697197.890     2756920.8982                                 
 18  5 14 14  4 59.0000000  0  9G29G31G25G26S20G21G 5G12S23
  20377897.176     3318988.558                                  
  21333751.891     3339946.792                                  
  22029417.507     4043586.211                                  
  21952730.745     1533677.290                                  
  38743152.105     2749102.4702                                 
  22478770.718     1465055.271                                  
  24065114.102     2234118.3243                                 
  25371147.091     2089602.5433                                 
  38698251.674     2762461.0522                                 
 18  5 14 14  5  0.0000000  0  9G29G31G25G26S20G21G 5G12S23
  20379169.393     3325673.428                                  
  21335040.868     3346720.606                                  
  22030968.456     4051739.084                                  
  21953301.594     1536675.409                                  
  38744183.980     2754526.3982                                 
  22479320.792     1467943.633                                  
  24065963.203     2238585.9753                                 
  25372862.203     2098607.7793                                 
  38699305.318     2768000.6872                                 
 18  5 14 14  5  1.0000000  0  9G29G31G25G26S20G21G 5G12S23
  20380441.915     3332357.783                                  
  21336329.384     3353493.992                                  
  22032519.737     4059891.334                                  
  21953871.911     1539672.858                                  
  38745216.117     2759949.7622                                 
  22479870.064     1470831.258                                  
  24066811.956     2243053.1303                                 
  25374576.871     2107612.9203                                 
  38700358.919     2773539.3722                                 
 18  5 14 14  5  2.0000000  0  8G29G31G25G26S20G21G 5S23
  20381714.018     3339044.916                                  
  21337618.955     3360270.330                                  
  22034071.803     4068046.300                                  
  21954442.996     1542672.978                                  
  38746248.507     2765375.5212                                 
  22480420.444     1473721.735                                  
  24067661.083     2247523.2472                                 
  38701413.750     2779080.4332                                 
 18  5 14 14  5  3.0000000  0  8G29G31G25G26S20G21G 5S23
  20382986.942     3345735.588                                  
  21338909.425     3367050.458                                  
  22035624.218     4076204.688                                  
  21955014.787     1545676.438                                  
  38747282.048     2770803.9842                                 
  22480970.710     1476615.687                                  
  24068510.010     2251997.1672                                 
  38702468.685     2784624.6062                                 
 18  5 14 14  5  4.0000000  0  8G29G31G25G26S20G21G 5S23
  20384259.499     3352426.302                                  
  21340200.069     3373830.828                                  
  22037177.026     4084363.057                                  
  21955586.116     1548679.819                                  
  38748314.944     2776232.0392                                 
  22481522.128     1479509.597                                  
  24069358.588     2256471.0933                                 
  38703524.380     2790168.4072                                 
 18  5 14 14  5  5.0000000  0  7G29G31G25G26S20G21S23
  20385533.042     3359117.528                                  
  21341491.725     3380611.891                                  
  22038728.874     4092521.844                                  
  21956158.221     1551683.582                                  
  38749348.076     2781660.2532                                 
  22482072.831     1482404.025                                  
  38704580.310     2795712.2152                                 
