     2.11           OBSERVATION DATA    M (MIXED)           RINEX VERSION / TYPE
CONVBIN 2.4.2                           20180507 145943 UTC PGM / RUN BY / DATE 
log: 140400.ubx                                             COMMENT             
format: u-blox                                              COMMENT             
                                                            MARKER NAME         
                                                            MARKER NUMBER       
                                                            OBSERVER / AGENCY   
                                                            REC # / TYPE / VERS 
                                                            ANT # / TYPE        
  4146531.6697   613364.4482  4791464.2255                  APPROX POSITION XYZ 
        0.0000        0.0000        0.0000                  ANTENNA: DELTA H/E/N
     1     1                                                WAVELENGTH FACT L1/2
     4    C1    L1    C2    L2                              # / TYPES OF OBSERV 
  2018     5     7    14     4   19.9990000     GPS         TIME OF FIRST OBS   
  2018     5     7    14    13   48.0000000     GPS         TIME OF LAST OBS    
                                                            END OF HEADER       
 18  5  7 14  4 19.9990000  0  9G25G 2S23G31S36G21G29G 5G26
  20880788.565      213430.909                                  
  23809050.002      233118.832                                  
  38325569.724      177653.0523                                 
  20732745.009      114881.5243                                 
  37965165.273      167895.9392                                 
  23083263.582       33932.390                                  
  19752848.440      164732.237                                  
  24206749.198      128877.1133                                 
  22508823.590       97112.817                                  
 18  5  7 14  4 20.9990000  0  9G25G 2S23G31S36G21G29G 5G26
  20881937.513      219468.065                                  
  23810320.980      239800.630                                  
  38326342.768      181715.3852                                 
  20733540.137      119061.2272                                 
  37965936.921      171953.7782                                 
  23083431.497       34816.263                                  
  19753687.290      169140.082                                  
  24207148.599      130972.7433                                 
  22509036.500       98234.190                                  
 18  5  7 14  4 21.9990000  0  9G25G 2S23G31S36G21G29G 5G26
  20883084.080      225494.302                                  
  23811590.562      246471.442                                  
  38327113.379      185766.4112                                 
  20734333.703      123230.3402                                 
  37966707.340      176000.2462                                 
  23083597.082       35689.105                                  
  19754524.359      173537.106                                  
  24207546.141      133057.6032                                 
  22509247.282       99344.472                                  
 18  5  7 14  4 22.9990000  0  9G25G 2S23G31S36G21G29G 5G26
  20884224.198      231488.160                                  
  23812853.059      253109.816                                  
  38327878.117      189784.6782                                 
  20735120.665      127367.2782                                 
  37967470.830      180013.8732                                 
  23083756.630       36529.447                                  
  19755354.248      177901.871                                  
  24207936.991      135110.0463                                 
  22509452.165      100422.133                                  
 18  5  7 14  4 23.9990000  0  9G25G 2S23G31S36G21G29G 5G26
  20885357.974      237445.672                                  
  23814109.501      259711.778                                  
  38328635.832      193766.2462                                 
  20735901.283      131468.1542                                 
  37968227.629      183990.7512                                 
  23083909.240       37333.288                                  
  19756178.378      182230.401                                  
  24208319.701      137126.2212                                 
  22509650.547      101463.280                                  
 18  5  7 14  4 24.9990000  0  9G25G 2S23G31S36G21G29G 5G26
  20886486.541      243377.376                                  
  23815361.702      266287.861                                  
  38329388.154      197721.6753                                 
  20736676.727      135543.4502                                 
  37968980.196      187941.4342                                 
  23084056.983       38111.6673                                 
  19756996.880      186533.224                                  
  24208697.533      139116.5623                                 
  22509843.730      102478.377                                  
 18  5  7 14  4 25.9990000  0  8G25G 2G31S36G21G29G 5G26
  20887614.305      249304.322                                  
  23816611.417      272859.124                                  
  20737451.150      139614.2392                                 
  37969731.000      191886.9212                                 
  23084204.175       38884.6162                                 
  19757815.139      190831.403                                  
  24209075.103      141102.3143                                 
  22510035.133      103488.509                                  
 18  5  7 14  4 26.9990000  0  8G25G 2G31S36G21G29G 5G26
  20888741.187      255224.509                                  
  23817860.757      279423.581                                  
  20738224.727      143678.5482                                 
  37970480.129      195825.2912                                 
  23084350.321       39650.6662                                 
  19758631.381      195122.935                                  
  24209450.911      143081.2052                                 
  22510226.500      104491.667                                  
 18  5  7 14  4 27.9990000  0  8G25G 2G31S36G21G29G 5G26
  20889861.971      261114.002                                  
  23819103.945      285957.257                                  
  20738992.022      147712.4282                                 
  37971223.700      199732.6352                                 
  23084489.853       40385.8752                                 
  19759441.857      199383.883                                  
  24209821.161      145029.6153                                 
  22510411.735      105463.930                                  
 18  5  7 14  4 28.9990000  0  8G25G 2G31S36G21G29G 5G26
  20890976.595      266972.074                                  
  23820341.593      292459.445                                  
  20739753.532      151715.2082                                 
  37971960.920      203608.1422                                 
  23084623.696       41089.4922                                 
  19760247.062      203613.531                                  
  24210186.141      146946.6382                                 
  22510591.611      106404.549                                  
 18  5  7 14  4 29.9990000  0  8G25G 2G31S36G21G29G 5G26
  20892087.310      272809.373                                  
  23821575.655      298940.784                                  
  20740511.927      155697.3922                                 
  37972694.588      207462.4633                                 
  23084753.944       41772.2002                                 
  19761047.425      207822.519                                  
  24210546.453      148842.8513                                 
  22510766.532      107324.184                                  
 18  5  7 14  4 30.9990000  0  8G25G 2G31S36G21G29G 5G26
  20893198.400      278646.238                                  
  23822809.412      305421.617                                  
  20741270.366      159678.936                                  
  37973427.942      211315.9762                                 
  23084883.887       42454.2912                                 
  19761848.503      212031.159                                  
  24210907.358      150738.6593                                 
  22510942.151      108243.194                                  
 18  5  7 14  4 31.9990000  0  8G25G 2G31S36G21G29G 5G26
  20894307.903      284477.484                                  
  23824040.804      311896.779                                  
  20742027.225      163655.595                                  
  37974160.206      215163.4172                                 
  23085012.478       43130.5722                                 
  19762648.535      216234.279                                  
  24211266.257      152628.9393                                 
  22511115.676      109156.335                                  
 18  5  7 14  4 32.9990000  0  8G25G 2G31S36G21G29G 5G26
  20895412.807      290283.924                                  
  23825267.720      318347.046                                  
  20742779.495      167607.739                                  
  37974886.972      218985.6372                                 
  23085136.331       43781.9852                                 
  19763442.843      220412.713                                  
  24211620.715      154494.3713                                 
  22511284.062      110044.472                                  
 18  5  7 14  4 33.9990000  0  8G25G 2G31S36G21G29G 5G26
  20896513.261      296069.199                                  
  23826490.413      324776.103                                  
  20743527.551      171538.927                                  
  37975610.415      222786.3192                                 
  23085256.118       44412.0822                                 
  19764234.498      224570.105                                  
  24211970.146      156338.7353                                 
  22511448.923      110911.247                                  
 18  5  7 14  4 34.9990000  0  7G25G 2G31S36G21G29G26
  20897614.797      301853.732                                  
  23827713.996      331204.317                                  
  20744275.817      175469.650                                  
  37976333.089      226585.8962                                 
  23085375.608       45041.2092                                 
  19765025.569      228726.851                                  
  22511613.950      111777.083                                  
 18  5  7 14  4 35.9990000  0  8G25G 2G31S36G21G29G 5G26
  20898715.548      307636.317                                  
  23828936.811      337630.557                                  
  20745023.907      179398.692                                  
  37977055.572      230383.2472                                 
  23085494.802       45668.2862                                 
  19765816.090      232881.779                                  
  24212669.394      160024.3683                                 
  22511777.938      112640.770                                  
 18  5  7 14  4 36.9990000  0  7G25G 2G31S36G21G29G26
  20899810.733      313395.661                                  
  23830155.857      344033.445                                  
  20745766.903      183304.699                                  
  37977773.535      234156.9492                                 
  23085609.337       46271.442                                  
  19766601.690      237013.539                                  
  22511937.372      113480.933                                  
 18  5  7 14  4 37.9990000  0  8G25G 2G31S36G21G29G26G12
  20900902.131      319131.256                                  
  23831369.537      350412.546                                  
  20746505.440      187187.267                                  
  37978487.519      237906.4852                                 
  23085718.985       46851.256                                  
  19767383.512      241121.669                                  
  22512092.574      114297.224                                  
  23863115.593       89289.8112                                 
 18  5  7 14  4 38.9990000  0  8G25G 2G31S36G21G29G26G12
  20901992.673      324864.175                                  
  23832582.921      356788.901                                  
  20747243.715      191067.416                                  
  37979199.741      241652.9652                                 
  23085828.651       47428.206                                  
  19768164.837      245227.228                                  
  22512247.541      115110.590                                  
  23864458.693       96348.3442                                 
 18  5  7 14  4 39.9990000  0  8G25G 2G31S36G21G29G26G12
  20903084.062      330596.844                                  
  23833796.671      363164.932                                  
  20747981.868      194947.515                                  
  37979912.600      245398.8362                                 
  23085938.177       48004.721                                  
  19768946.353      249332.657                                  
  22512402.010      115923.488                                  
  23865801.051      103406.4472                                 
 18  5  7 14  4 40.9990000  0  8G25G 2G31S36G21G29G26G12
  20904169.806      336308.458                                  
  23835006.049      369519.842                                  
  20748715.963      198806.878                                  
  37980621.332      249123.2542                                 
  23086043.699       48560.116                                  
  19769722.626      253417.146                                  
  22512552.623      116715.135                                  
  23867139.395      110443.1442                                 
 18  5  7 14  4 41.9990000  0  8G25G 2G31S36G21G29G26G12
  20905251.693      341990.604                                  
  23836209.434      375845.213                                  
  20749445.042      202637.016                                  
  37981324.270      252817.9362                                 
  23086143.514       49085.881                                  
  19770495.095      257472.262                                  
  22512697.172      117477.091                                  
  23868471.929      117450.1562                                 
 18  5  7 14  4 42.9990000  0  8G25G 2G31S36G21G29G26G12
  20906329.061      347657.118                                  
  23837410.384      382154.880                                  
  20750170.701      206451.734                                  
  37982025.054      256496.6283                                 
  23086240.066       49595.799                                  
  19771263.376      261511.843                                  
  22512839.418      118223.198                                  
  23869802.586      124441.2182                                 
 18  5  7 14  4 43.9990000  0  8G25G 2G31S36G21G29G26G12
  20907408.034      353326.339                                  
  23838612.399      388467.197                                  
  20750896.551      210269.454                                  
  37982725.776      260177.5882                                 
  23086337.456       50108.295                                  
  19772032.782      265554.264                                  
  22512982.187      118971.832                                  
  23871134.204      131434.7832                                 
 18  5  7 14  4 44.9990000  0  9G25G 2G31S36G21G29S20G26G12
  20908485.952      358989.540                                  
  23839812.468      394773.404                                  
  20751621.276      214081.448                                  
  37983424.884      263852.3162                                 
  23086433.790       50615.1733                                 
  19772801.202      269590.767                                  
  38424450.929      103453.6982                                 
  22513122.923      119714.236                                  
  23872463.788      138422.0262                                 
 18  5  7 14  4 45.9990000  0  9G25G 2G31S36G21G29S20G26G12
  20909560.466      364638.719                                  
  23841009.448      401065.546                                  
  20752343.942      217879.660                                  
  37984121.383      267512.6142                                 
  23086527.323       51107.3562                                 
  19773566.464      273613.341                                  
  38425126.915      107003.6852                                 
  22513261.460      120442.363                                  
  23873790.938      145394.9692                                 
 18  5  7 14  4 46.9990000  0  9G25G 2G31S36G21G29S20G26G12
  20910632.293      370272.649                                  
  23842203.749      407342.381                                  
  20753063.694      221662.870                                  
  37984815.143      271157.2512                                 
  23086617.113       51584.1642                                 
  19774329.458      277620.816                                  
  38425799.552      110538.3002                                 
  22513396.437      121155.089                                  
  23875115.052      152352.4562                                 
 18  5  7 14  4 47.9990000  0  9G25G 2G31S36G21G29S20G26G12
  20911702.131      375894.635                                  
  23843395.861      413607.167                                  
  20753781.622      225434.365                                  
  37985505.910      274789.4862                                 
  23086704.870       52048.7942                                 
  19775089.938      281616.406                                  
  38426470.076      114060.8652                                 
  22513530.001      121855.613                                  
  23876437.281      159297.6472                                 
 18  5  7 14  4 48.9990000  0  9G25G 2G31S36G21G29S20G26G12
  20912771.263      381514.393                                  
  23844587.676      419869.669                                  
  20754499.463      229203.919                                  
  37986196.371      278419.2232                                 
  23086792.444       52511.1312                                 
  19775849.468      285609.916                                  
  38427139.676      117580.8072                                 
  22513662.797      122553.766                                  
  23877758.760      166240.409                                  
 18  5  7 14  4 49.9990000  0 10G25G 2S23G31S36G21G29S20G26G12
  20913840.001      387133.011                                  
  23845779.535      426130.954                                  
  38347320.722      292417.2642                                 
  20755216.868      232972.556                                  
  37986886.710      282047.3812                                 
  23086880.227       52972.1732                                 
  19776608.936      289602.368                                  
  38427808.822      121098.9852                                 
  22513795.349      123250.535                                  
  23879080.056      173181.740                                  
 18  5  7 14  4 50.9990000  0 10G25G 2S23G31S36G21G29S20G26G12
  20914907.300      392741.884                                  
  23846968.697      432382.445                                  
  38348010.817      296039.7572                                 
  20755932.859      236731.757                                  
  37987575.366      285665.3782                                 
  23086966.292       53423.2942                                 
  19777367.043      293585.175                                  
  38428476.258      124606.9492                                 
  22513925.781      123937.352                                  
  23880398.751      180113.063                                  
 18  5  7 14  4 51.9990000  0 10G25G 2S23G31S36G21G29S20G26G12
  20915971.484      398335.671                                  
  23848156.298      438618.747                                  
  38348697.483      299646.7602                                 
  20756645.046      240476.117                                  
  37988260.889      289267.9322                                 
  23087049.625       53859.1672                                 
  19778122.219      297553.024                                  
  38429140.884      128099.3592                                 
  22514053.604      124608.848                                  
  23881714.969      187029.012                                  
 18  5  7 14  4 52.9990000  0 10G25G 2S23G31S36G21G29S20G26G12
  20917036.288      403932.079                                  
  23849343.794      444857.622                                  
  38349384.053      303255.9902                                 
  20757358.576      244223.337                                  
  37988946.682      292872.6302                                 
  23087133.456       54297.5512                                 
  19778877.534      301523.585                                  
  38429806.017      131593.9812                                 
  22514181.645      125282.789                                  
  23883032.033      193947.340                                  
 18  5  7 14  4 53.9990000  0 10G25G 2S23G31S36G21G29S20G26G12
  20918102.941      409534.804                                  
  23850532.049      451102.746                                  
  38350071.732      306871.1852                                 
  20758072.395      247977.158                                  
  37989633.828      296483.2982                                 
  23087219.451       54742.0982                                 
  19779634.367      305500.598                                  
  38430472.022      135094.8172                                 
  22514310.488      125962.833                                  
  23884349.777      200871.733                                  
 18  5  7 14  4 54.9990000  0 10G25G 2S23G31S36G21G29S20G26G12
  20919166.977      415126.824                                  
  23851718.297      457337.095                                  
  38350756.452      310475.2562                                 
  20758784.905      251720.528                                  
  37990318.584      300082.7852                                 
  23087302.322       55175.267                                  
  19780389.194      309466.978                                  
  38431135.706      138584.5852                                 
  22514437.631      126631.942                                  
  23885665.454      207785.113                                  
 18  5  7 14  4 55.9990000  0 10G25G 2S23G31S36G21G29S20G26G12
  20920229.014      420705.310                                  
  23852901.649      463557.823                                  
  38351438.206      314065.4322                                 
  20759494.849      255450.555                                  
  37991000.940      303668.4582                                 
  23087382.453       55595.221                                  
  19781141.517      313419.942                                  
  38431797.471      142060.2722                                 
  22514562.661      127287.296                                  
  23886977.335      214684.690                                  
 18  5  7 14  4 56.9990000  0 10G25G 2S23G31S36G21G29S20G26G12
  20921289.726      426283.614                                  
  23854085.908      469778.303                                  
  38352120.937      317655.0093                                 
  20760205.911      259180.728                                  
  37991682.911      307253.6522                                 
  23087462.279       56014.834                                  
  19781893.621      317372.830                                  
  38432458.694      145535.4152                                 
  22514687.221      127942.275                                  
  23888289.731      221583.791                                  
 18  5  7 14  4 57.9990000  0 11G25G 2S23G31S36G21G29S20G 5G26G12
  20922352.732      431867.471                                  
  23855270.420      476004.265                                  
  38352804.322      321249.7222                                 
  20760916.868      262916.655                                  
  37992365.791      310844.0712                                 
  23087542.507       56439.912                                  
  19782646.711      321331.371                                  
  38433120.956      149015.7562                                 
  24219799.736      197597.6043                                 
  22514812.871      128602.605                                  
  23889601.952      228488.225                                  
 18  5  7 14  4 58.9990000  0 10G25G 2S23G31S36G21G29S20G26G12
  20923413.287      437440.430                                  
  23856452.463      482219.265                                  
  38353486.094      324833.2072                                 
  20761625.085      266642.040                                  
  37993047.518      314423.2422                                 
  23087620.867       56853.867                                  
  19783397.507      325279.153                                  
  38433780.478      152484.6672                                 
  22514936.585      129251.855                                  
  23890913.371      235381.5033                                 
 18  5  7 14  4 59.9990000  0 10G25G 2S23G31S36G21G29S20G26G12
  20924470.534      442997.223                                  
  23857632.246      488418.038                                  
  38354164.759      328400.1322                                 
  20762329.882      270351.405                                  
  37993725.974      317985.8032                                 
  23087697.133       57251.553                                  
  19784145.563      329210.831                                  
  38434437.715      155936.9842                                 
  22515056.599      129884.659                                  
  23892220.663      242258.2982                                 
 18  5  7 14  5  0.9990000  0 10G25G 2S23G31S36G21G29S20G26G12
  20925527.948      448553.056                                  
  23858812.012      494615.780                                  
  38354842.229      331965.7482                                 
  20763036.232      274060.165                                  
  37994403.924      321546.9703                                 
  23087772.623       57648.177                                  
  19784894.011      333141.693                                  
  38435094.044      159388.2052                                 
  22515177.328      130516.353                                  
  23893527.859      249133.8862                                 
 18  5  7 14  5  1.9990000  0 10G25G 2S23G31S36G21G29S20G26G12
  20926584.916      454109.745                                  
  23859991.550      500814.306                                  
  38355521.496      335531.8132                                 
  20763742.267      277769.988                                  
  37995081.376      325108.6312                                 
  23087848.671       58045.411                                  
  19785641.710      337073.507                                  
  38435751.306      162839.8022                                 
  22515297.464      131148.674                                  
  23894836.311      256010.1282                                 
 18  5  7 14  5  2.9990000  0 10G25G 2S23G31S36G21G29S20G26G12
  20927640.183      459656.495                                  
  23861169.562      507002.817                                  
  38356197.561      339087.5702                                 
  20764445.136      281470.6633                                 
  37995757.049      328659.9182                                 
  23087922.319       58432.630                                  
  19786388.544      340995.484                                  
  38436406.632      166281.1472                                 
  22515415.044      131770.825                                  
  23896142.783      262876.1423                                 
 18  5  7 14  5  3.9990000  0 10G25G 2S23G31S36G21G29S20G26G12
  20928690.782      465180.982                                  
  23862342.452      513168.993                                  
  38356869.429      342620.6182                                 
  20765144.593      285148.8242                                 
  37996428.708      332188.5782                                 
  23087991.684       58797.405                                  
  19787130.492      344895.313                                  
  38437057.088      169699.9052                                 
  22515528.199      132370.547                                  
  23897445.380      269719.5812                                 
 18  5  7 14  5  4.9990000  0 10G25G 2S23G31S36G21G29S20G26G12
  20929737.848      470686.781                                  
  23863511.661      519316.420                                  
  38357537.554      346134.6432                                 
  20765840.787      288808.5122                                 
  37997096.972      335698.1162                                 
  23088057.349       59143.370                                  
  19787868.785      348776.560                                  
  38437703.855      173099.3312                                 
  22515638.075      132951.365                                  
  23898745.317      276544.0362                                 
 18  5  7 14  5  5.9990000  0 10G25G 2S23G31S36G21G29S20G26G12
  20930785.864      476194.283                                  
  23864681.296      525465.512                                  
  38358207.250      349649.8702                                 
  20766537.548      292470.2592                                 
  37997764.949      339208.9822                                 
  23088123.643       59490.912                                  
  19788607.941      352659.633                                  
  38438351.275      176500.1312                                 
  22515748.465      133533.678                                  
  23900045.437      283370.0352                                 
 18  5  7 14  5  6.9990000  0 10G25G 2S23G31S36G21G29S20G26G12
  20931832.842      481699.621                                  
  23865850.461      531612.348                                  
  38358876.928      353162.6953                                 
  20767234.344      296130.0362                                 
  37998432.516      342717.3202                                 
  23088190.032       59836.095                                  
  19789346.539      356540.659                                  
  38438998.198      179898.3892                                 
  22515858.619      134113.624                                  
  23901345.007      290193.5852                                 
 18  5  7 14  5  7.9990000  0 10G25G 2S23G31S36G21G29S20G26G12
  20932875.275      487180.116                                  
  23867014.844      537734.270                                  
  38359540.220      356650.2582                                 
  20767926.228      299765.2322                                 
  37999095.310      346200.3742                                 
  23088250.331       60156.311                                  
  19790079.902      360396.938                                  
  38439639.738      183271.5422                                 
  22515963.905      134668.497                                  
  23902638.993      296992.0152                                 
 18  5  7 14  5  8.9990000  0 10G25G 2S23G31S36G21G29S20G26G12
  20933913.737      492634.624                                  
  23868175.144      543830.128                                  
  38360198.241      360111.5282                                 
  20768613.749      303374.6902                                 
  37999752.686      349657.1512                                 
  23088306.399       60450.384                                  
  19790809.007      364227.332                                  
  38440276.601      186618.3882                                 
  22516064.480      135197.219                                  
  23903927.464      303764.2052                                 
 18  5  7 14  5  9.9990000  0 10G25G 2S23G31S36G21G29S20G26G12
  20934950.036      498083.115                                  
  23869334.589      549919.903                                  
  38360855.896      363566.3123                                 
  20769300.764      306978.3832                                 
  38000408.902      353107.4912                                 
  23088361.218       60738.302                                  
  19791536.655      368051.808                                  
  38440911.972      189958.6822                                 
  22516164.940      135719.650                                  
  23905214.400      310530.0432                                 
 18  5  7 14  5 10.9990000  0 10G25G 2S23G31S36G21G29S20G26G12
  20935988.420      503538.299                                  
  23870495.194      556016.300                                  
  38361514.407      367027.4152                                 
  20769988.259      310589.0532                                 
  38001067.002      356564.1472                                 
  23088417.530       61032.731                                  
  19792266.065      371883.084                                  
  38441548.862      193305.1742                                 
  22516266.178      136248.556                                  
  23906503.247      317302.2922                                 
 18  5  7 14  5 11.9990000  0 10G25G 2S23G31S36G21G29S20G26G12
  20937024.901      508985.604                                  
  23871653.985      562104.780                                  
  38362170.674      370480.2242                                 
  20770674.288      314192.1262                                 
  38001723.662      360012.5382                                 
  23088471.670       61319.182                                  
  19792993.713      375706.617                                  
  38442184.442      196643.4942                                 
  22516365.295      136769.481                                  
  23907790.777      324066.5012                                 
 18  5  7 14  5 12.9990000  0 11G25G 2S23G31S36G21G29S20G 5G26G12
  20938057.631      514416.340                                  
  23872809.809      568176.576                                  
  38362824.682      373916.0922                                 
  20771357.202      317778.301                                  
  38002376.414      363444.0432                                 
  23088522.738       61588.862                                  
  19793717.731      379513.654                                  
  38442817.135      199964.8382                                 
  24224269.313      221057.9783                                 
  22516461.184      137273.563                                  
  23909074.816      330813.837                                  
 18  5  7 14  5 13.9990000  0 11G25G 2S23G31S36G21G29S20G 5G26G12
  20939089.873      519841.742                                  
  23873964.114      574242.958                                  
  38363476.875      377346.2223                                 
  20772038.083      321359.954                                  
  38003029.113      366869.8292                                 
  23088573.265       61853.108                                  
  19794441.715      383315.492                                  
  38443449.016      203280.8372                                 
  24224558.542      222544.6233                                 
  22516556.209      137772.106                                  
  23910358.498      337555.484                                  
 18  5  7 14  5 14.9990000  0 11G25G 2S23G31S36G21G29S20G 5G26G12
  20940123.057      525272.517                                  
  23875119.284      580314.673                                  
  38364131.206      380781.3503                                 
  20772720.596      324947.209                                  
  38003681.925      370300.6252                                 
  23088625.232       62122.601                                  
  19795166.527      387122.801                                  
  38444080.670      206601.6332                                 
  24224843.643      224036.5222                                 
  22516652.107      138275.767                                  
  23911643.244      344302.342                                  
 18  5  7 14  5 15.9990000  0 11G25G 2S23G31S36G21G29S20G 5G26G12
  20941155.473      530697.646                                  
  23876273.843      586380.671                                  
  38364783.434      384210.4573                                 
  20773402.106      328529.191                                  
  38004333.447      373725.4292                                 
  23088675.994       62386.256                                  
  19795890.257      390924.576                                  
  38444710.893      209915.9162                                 
  24225126.372      225522.9503                                 
  22516746.486      138773.696                                  
  23912926.105      351043.2733                                 
 18  5  7 14  5 16.9990000  0 11G25G 2S23G31S36G21G29S20G 5G26G12
  20942184.215      536105.380                                  
  23877424.466      592429.208                                  
  38365431.945      387621.8262                                 
  20774079.907      332093.943                                  
  38004981.016      377132.3852                                 
  23088722.900       62632.371                                  
  19796609.808      394709.057                                  
  38445338.002      213212.6652                                 
  24225406.971      226991.9373                                 
  22516837.716      139253.986                                  
  23914205.721      357766.4892                                 
 18  5  7 14  5 17.9990000  0 11G25G 2S23G31S36G21G29S20G 5G26G12
  20943211.178      541503.507                                  
  23878573.293      598468.068                                  
  38366078.476      391023.2333                                 
  20774755.379      335649.352                                  
  38005627.197      380529.3792                                 
  23088768.088       62868.754                                  
  19797328.016      398484.040                                  
  38445963.034      216499.8062                                 
  24225683.278      228451.3363                                 
  22516927.724      139724.396                                  
  23915482.850      364479.8552                                 
 18  5  7 14  5 18.9990000  0 11G25G 2S23G31S36G21G29S20G 5G26G12
  20944239.834      546907.211                                  
  23879723.803      604512.386                                  
  38366726.586      394429.8742                                 
  20775432.177      339210.577                                  
  38006274.618      383931.4492                                 
  23088814.296       63110.507                                  
  19798047.759      402264.696                                  
  38446590.221      219792.0012                                 
  24225958.616      229916.4452                                 
  22517018.518      140200.204                                  
  23916761.210      371198.5353                                 
 18  5  7 14  5 19.9990000  0 11G25G 2S23G31S36G21G29S20G 5G26G12
  20945268.201      552308.725                                  
  23880874.270      610554.493                                  
  38367374.067      397833.7902                                 
  20776108.757      342769.896                                  
  38006921.873      387330.9732                                 
  23088860.792       63349.965                                  
  19798766.620      406043.277                                  
  38447215.776      223081.4982                                 
  24226237.811      231379.3213                                 
  22517108.631      140673.620                                  
  23918038.801      377914.7572                                 
 18  5  7 14  5 20.9990000  0 11G25G 2S23G31S36G21G29S20G 5G26G12
  20946292.127      557693.662                                  
  23882020.618      616579.960                                  
  38368017.850      401220.8412                                 
  20776782.571      346312.926                                  
  38007565.541      390713.5412                                 
  23088903.231       63572.710                                  
  19799482.201      409805.400                                  
  38447838.313      226353.9472                                 
  24226513.167      232825.7823                                 
  22517194.983      141130.284                                  
  23919313.539      384614.1762                                 
 18  5  7 14  5 21.9990000  0 11G25G 2S23G31S36G21G29S20G 5G26G12
  20947314.204      563066.470                                  
  23883164.907      622593.212                                  
  38368659.930      404595.3192                                 
  20777454.334      349844.001                                  
  38008206.889      394083.6162                                 
  23088943.628       63783.220                                  
  19800195.802      413555.488                                  
  38448458.851      229613.9852                                 
  24226786.638      234260.1342                                 
  22517279.119      141574.542                                  
  23920584.701      391301.1492                                 
 18  5  7 14  5 22.9990000  0 11G25G 2S23G31S36G21G29S20G 5G26G12
  20948336.726      568444.032                                  
  23884310.785      628611.128                                  
  38369302.796      407974.1893                                 
  20778127.607      353380.170                                  
  38008849.424      397458.0972                                 
  23088985.125       63998.276                                  
  19800910.676      417310.445                                  
  38449080.149      232878.5332                                 
  24227060.214      235699.2692                                 
  22517365.027      142023.402                                  
  23921857.991      397992.6052                                 
 18  5  7 14  5 23.9990000  0 11G25G 2S23G31S36G21G29S20G 5G26G12
  20949359.413      573822.696                                  
  23885455.859      634630.080                                  
  38369946.326      411353.8242                                 
  20778800.837      356917.684                                  
  38009491.705      400833.2472                                 
  23089026.744       64214.325                                  
  19801625.647      421066.611                                  
  38449701.699      236143.6912                                 
  24227334.365      237139.5922                                 
  22517450.873      142473.123                                  
  23923131.996      404684.9382                                 
 18  5  7 14  5 24.9990000  0 11G25G 2S23G31S36G21G29S20G 5G26G12
  20950378.698      579179.115                                  
  23886596.205      640626.729                                  
  38370585.632      414710.7672                                 
  20779470.201      360433.155                                  
  38010128.952      404185.7952                                 
  23089063.433       64407.948                                  
  19802336.062      424800.635                                  
  38450318.634      239386.1672                                 
  24227604.180      238557.6842                                 
  22517531.676      142900.396                                  
  23924402.145      411354.7432                                 
 18  5  7 14  5 25.9990000  0 11G25G 2S23G31S36G21G29S20G 5G26G12
  20951395.592      584522.787                                  
  23887735.948      646610.555                                  
  38371223.498      418054.5732                                 
  20780137.297      363936.225                                  
  38010764.079      407525.1562                                 
  23089097.923       64588.709                                  
  19803044.157      428522.021                                  
  38450932.873      242615.5532                                 
  24227872.364      239963.1253                                 
  22517610.359      143314.758                                  
  23925669.816      418011.5292                                 
 18  5  7 14  5 26.9990000  0 11G25G 2S23G31S36G21G29S20G 5G26G12
  20952414.458      589877.184                                  
  23888877.158      652605.040                                  
  38371863.092      421408.7732                                 
  20780805.492      367450.212                                  
  38011401.727      410874.7422                                 
  23089134.333       64780.064                                  
  19803754.460      432254.254                                  
  38451549.075      245855.4632                                 
  24228142.354      241379.3432                                 
  22517691.337      143739.597                                  
  23926937.138      424678.7582                                 
 18  5  7 14  5 27.9990000  0 11G25G 2S23G31S36G21G29S20G 5G26G12
  20953435.130      595242.538                                  
  23890019.484      658610.414                                  
  38372503.664      424773.5342                                 
  20781475.571      370975.466                                  
  38012041.278      414234.9642                                 
  23089173.090       64982.217                                  
  19804466.673      435997.546                                  
  38452167.476      249105.6922                                 
  24228414.551      242806.5172                                 
  22517774.514      144175.234                                  
  23928207.924      431356.7162                                 
 18  5  7 14  5 28.9990000  0 11G25G 2S23G31S36G21G29S20G 5G26G12
  20954454.144      600601.894                                  
  23891162.019      664609.728                                  
  38373142.804      428131.8982                                 
  20782146.497      374494.998                                  
  38012679.458      417588.7712                                 
  23089210.669       65178.214                                  
  19805177.848      439734.938                                  
  38452784.376      252349.5132                                 
  24228685.370      244227.8433                                 
  22517856.922      144604.666                                  
  23929476.939      438028.3913                                 
 18  5  7 14  5 29.9990000  0 11G25G 2S23G31S36G21G29S20G 5G26G12
  20955472.225      605951.791                                  
  23892302.068      670599.532                                  
  38373780.208      431480.4722                                 
  20782815.216      378005.329                                  
  38013315.667      420932.8582                                 
  23089246.189       65364.652                                  
  19805887.208      443463.024                                  
  38453399.514      255583.5432                                 
  24228953.239      245639.7892                                 
  22517937.481      145024.425                                  
  23930744.444      444690.3692                                 
 18  5  7 14  5 30.9990000  0 11G25G 2S23G31S36G21G29S20G 5G26G12
  20956491.309      611305.692                                  
  23893442.047      676593.229                                  
  38374418.310      434832.6432                                 
  20783484.109      381519.888                                  
  38013952.618      424280.4792                                 
  23089281.875       65554.912                                  
  19806597.440      447195.180                                  
  38454015.262      258821.0932                                 
  24229222.522      247055.7022                                 
  22518017.508      145447.931                                  
  23932013.049      451356.0442                                 
 18  5  7 14  5 31.9990000  0 11G25G 2S23G31S36G21G29S20G 5G26G12
  20957511.256      616669.078                                  
  23894584.365      682596.384                                  
  38375058.533      438193.7992                                 
  20784154.599      385044.256                                  
  38014591.226      427637.2202                                 
  23089319.532       65754.521                                  
  19807309.505      450936.958                                  
  38454633.279      262067.9222                                 
  24229493.088      248481.2142                                 
  22518100.362      145880.810                                  
  23933282.727      458031.0002                                 
 18  5  7 14  5 32.9990000  0 11G25G 2S23G31S36G21G29S20G 5G26G12
  20958530.253      622028.021                                  
  23895725.242      688594.974                                  
  38375697.403      441550.1962                                 
  20784824.922      388564.394                                  
  38015229.467      430989.0582                                 
  23089356.684       65949.533                                  
  19808020.750      454674.374                                  
  38455250.720      265309.7972                                 
  24229762.912      249902.3283                                 
  22518182.753      146308.957                                  
  23934552.614      464701.1542                                 
 18  5  7 14  5 33.9990000  0 11G25G 2S23G31S36G21G29S20G 5G26G12
  20959547.156      627376.387                                  
  23896864.140      694582.922                                  
  38376334.135      444895.6412                                 
  20785493.292      392074.234                                  
  38015865.266      434330.0052                                 
  23089391.462       66133.803                                  
  19808729.927      458401.333                                  
  38455865.308      268540.6142                                 
  24230030.214      251312.8873                                 
  22518261.610      146726.321                                  
  23935821.349      471360.5032                                 
 18  5  7 14  5 34.9990000  0 11G25G 2S23G31S36G21G29S20G 5G26G12
  20960565.219      632724.624                                  
  23898003.159      700570.655                                  
  38376971.138      448240.5992                                 
  20786161.452      395584.158                                  
  38016501.318      437670.3892                                 
  23089426.197       66317.806                                  
  19809439.121      462128.255                                  
  38456480.062      271771.0592                                 
  24230297.360      252723.3613                                 
  22518340.764      147143.389                                  
  23937088.680      478019.4422                                 
 18  5  7 14  5 35.9990000  0 11G25G 2S23G31S36G21G29S20G 5G26G12
  20961585.533      638080.605                                  
  23899144.822      706566.056                                  
  38377610.383      451592.8982                                 
  20786831.889      399102.057                                  
  38017138.469      441018.1572                                 
  23089462.292       66509.424                                  
  19810149.563      465863.033                                  
  38457096.238      275008.8322                                 
  24230566.643      254141.6523                                 
  22518421.533      147567.964                                  
  23938357.730      484685.8322                                 
 18  5  7 14  5 36.9990000  0 11G25G 2S23G31S36G21G29S20G 5G26G12
  20962604.992      643438.307                                  
  23900286.485      712563.153                                  
  38378248.982      454946.6112                                 
  20787502.144      402622.013                                  
  38017775.629      444367.2952                                 
  23089499.269       66702.587                                  
  19810860.581      469599.653                                  
  38457712.867      278248.0032                                 
  24230837.008      255561.7642                                 
  22518503.523      147994.081                                  
  23939627.373      491353.722                                  
 18  5  7 14  5 37.9990000  0 11G25G 2S23G31S36G21G29S20G 5G26G12
  20963623.143      648791.397                                  
  23901425.958      718555.544                                  
  38378886.831      458295.3012                                 
  20788171.159      406137.531                                  
  38018411.393      447711.4482                                 
  23089535.278       66891.021                                  
  19811570.534      473331.770                                  
  38458327.935      281482.2302                                 
  24231107.320      256977.3132                                 
  22518583.384      148415.425                                  
  23940895.986      498016.734                                  
 18  5  7 14  5 38.9990000  0 11G25G 2S23G31S36G21G29S20G 5G26G12
  20964640.997      654144.073                                  
  23902566.199      724547.426                                  
  38379524.052      461643.1352                                 
  20788840.156      409652.914                                  
  38019047.627      451054.7992                                 
  23089570.519       67078.886                                  
  19812280.671      477063.514                                  
  38458942.986      284715.5832                                 
  24231376.891      258392.5212                                 
  22518663.279      148836.5343                                 
  23942163.832      504679.005                                  
 18  5  7 14  5 39.9990000  0 11G25G 2S23G31S36G21G29S20G 5G26G12
  20965661.101      659502.990                                  
  23903708.028      730545.522                                  
  38380161.727      464996.8562                                 
  20789510.306      413174.882                                  
  38019684.587      454403.9902                                 
  23089607.696       67272.880                                  
  19812992.265      480801.692                                  
  38459560.113      287954.6642                                 
  24231647.186      259813.9982                                 
  22518744.100      149263.2012                                 
  23943432.358      511347.338                                  
 18  5  7 14  5 40.9990000  0 11G25G 2S23G31S36G21G29S20G 5G26G12
  20966682.271      664864.895                                  
  23904850.677      736546.514                                  
  38380800.440      468353.2182                                 
  20790181.084      416700.082                                  
  38020322.122      457755.7062                                 
  23089645.310       67469.702                                  
  19813704.373      484542.942                                  
  38460176.856      291196.1952                                 
  24231918.232      261238.4903                                 
  22518826.230      149692.7292                                 
  23944701.678      518018.353                                  
 18  5  7 14  5 41.9990000  0 10G25G 2S23G31S36G21G29S20G26G12
  20967699.566      670213.952                                  
  23905990.953      742534.603                                  
  38381435.907      471696.3352                                 
  20790848.406      420212.689                                  
  38020958.095      461094.1942                                 
  23089679.923       67653.530                                  
  19814413.620      488271.449                                  
  38460791.156      294424.6422                                 
  22518905.349      150109.1542                                 
  23945968.564      524676.258                                  
 18  5  7 14  5 42.9990000  0 10G25G 2S23G31S36G21G29S20G26G12
  20968714.383      675551.013                                  
  23907128.585      748510.565                                  
  38382068.774      475026.9552                                 
  20791514.036      423713.499                                  
  38021591.049      464420.3032                                 
  23089711.551       67825.190                                  
  19815120.676      491988.038                                  
  38461403.388      297641.0682                                 
  22518982.252      150513.3822                                 
  23947233.321      531321.913                                  
 18  5  7 14  5 43.9990000  0 10G25G 2S23G31S36G21G29S20G26G12
  20969730.553      680891.961                                  
  23908265.990      754490.438                                  
  38382702.906      478361.1432                                 
  20792181.027      427218.500                                  
  38022224.518      467749.9392                                 
  23089744.523       68000.636                                  
  19815828.745      495708.664                                  
  38462016.309      300860.9272                                 
  22519059.740      150921.3002                                 
  23948499.386      537971.207                                  
 18  5  7 14  5 44.9990000  0 10G25G 2S23G31S36G21G29S20G26G12
  20970747.648      686238.147                                  
  23909404.145      760475.437                                  
  38383338.251      481700.1662                                 
  20792848.245      430729.034                                  
  38022859.575      471084.4542                                 
  23089779.563       68181.145                                  
  19816538.149      499434.631                                  
  38462629.772      304085.3212                                 
  22519138.545      151334.2883                                 
  23949766.290      544625.471                                  
 18  5  7 14  5 45.9990000  0 11G25G 2S23G31S36G21G29S20G 5G26G12
  20971762.954      691574.902                                  
  23910541.193      766450.907                                  
  38383971.764      485029.4152                                 
  20793514.084      434230.324                                  
  38023492.250      474409.0762                                 
  23089812.178       68352.081                                  
  19817245.197      503151.249                                  
  38463241.803      307299.9972                                 
  24233249.108      268262.7773                                 
  22519215.439      151737.5562                                 
  23951030.357      551269.998                                  
 18  5  7 14  5 46.9990000  0 11G25G 2S23G31S36G21G29S20G 5G26G12
  20972776.506      696898.931                                  
  23911676.042      772413.610                                  
  38384602.772      488345.5342                                 
  20794177.576      437719.162                                  
  38024122.535      477720.5652                                 
  23089842.332       68510.173                                  
  19817949.854      506855.255                                  
  38463851.322      310501.6502                                 
  24233511.943      269649.9433                                 
  22519289.053      152127.9272                                 
  23952292.008      557901.522                                  
 18  5  7 14  5 47.9990000  0 11G25G 2S23G31S36G21G29S20G 5G26G12
  20973789.771      702224.958                                  
  23912811.178      778378.180                                  
  38385234.104      491663.3032                                 
  20794842.333      441210.254                                  
  38024752.104      481033.6442                                 
  23089872.913       68670.079                                  
  19818655.183      510561.344                                  
  38464460.849      313704.6292                                 
  24233777.762      271038.4493                                 
  22519363.888      152520.1662                                 
  23953554.793      564534.789                                  
 18  5  7 14  5 48.9990000  0 11G25G 2S23G31S36G21G29S20G 5G26G12
  20974804.143      707557.570                                  
  23913946.987      784349.320                                  
  38385866.918      494987.2612                                 
  20795508.295      444708.197                                  
  38025384.325      484352.9662                                 
  23089904.341       68836.448                                  
  19819362.126      514274.160                                  
  38465071.136      316913.8412                                 
  24234048.101      272434.0932                                 
  22519439.753      152918.7042                                 
  23954817.526      571174.364                                  
 18  5  7 14  5 49.9990000  0 11G25G 2S23G31S36G21G29S20G 5G26G12
  20975816.919      712885.544                                  
  23915082.219      790315.754                                  
  38386498.311      498306.2262                                 
  20796173.576      448201.781                                  
  38026015.063      487667.3272                                 
  23089935.420       68998.032                                  
  19820067.281      517982.470                                  
  38465681.003      320118.4032                                 
  24234310.317      273825.1903                                 
  22519514.789      153312.3892                                 
  23956080.799      577809.072                                  
 18  5  7 14  5 50.9990000  0 11G25G 2S23G31S36G21G29S20G 5G26G12
  20976828.517      718202.151                                  
  23916215.288      796270.699                                  
  38387127.758      501613.4802                                 
  20796836.361      451684.225                                  
  38026643.629      490969.9572                                 
  23089963.541       69148.104                                  
  19820770.638      521679.468                                  
  38466288.594      323311.1732                                 
  24234574.190      275204.9332                                 
  22519587.940      153694.5182                                 
  23957341.769      584432.147                                  
 18  5  7 14  5 51.9990000  0 11G25G 2S23G31S36G21G29S20G 5G26G12
  20977839.922      723518.142                                  
  23917348.741      802225.042                                  
  38387756.297      504919.7422                                 
  20797499.295      455166.334                                  
  38027272.072      494271.6972                                 
  23089992.212       69297.463                                  
  19821474.859      525376.010                                  
  38466895.922      326502.7082                                 
  24234834.669      276584.1542                                 
  22519660.394      154075.8462                                 
  23958601.649      591054.295                                  
 18  5  7 14  5 52.9990000  0 11G25G 2S23G31S36G21G29S20G 5G26G12
  20978852.934      728840.121                                  
  23918482.900      808185.225                                  
  38388386.869      508231.4022                                 
  20798163.546      458654.703                                  
  38027901.772      497579.0822                                 
  23090021.615       69452.591                                  
  19822179.255      529078.608                                  
  38467505.022      329699.7792                                 
  24235099.302      277969.3992                                 
  22519734.112      154462.9392                                 
  23959863.518      597682.208                                  
 18  5  7 14  5 53.9990000  0 11G25G 2S23G31S36G21G29S20G 5G26G12
  20979866.137      734162.671                                  
  23919616.973      814145.897                                  
  38389017.328      511543.3173                                 
  20798826.872      462143.880                                  
  38028530.713      500886.6612                                 
  23090051.263       69608.178                                  
  19822884.470      532781.874                                  
  38468113.241      332897.1652                                 
  24235363.036      279355.2852                                 
  22519807.682      154850.4492                                 
  23961124.427      604310.362                                  
 18  5  7 14  5 54.9990000  0 11G25G 2S23G31S36G21G29S20G 5G26G12
  20980879.209      739479.381                                  
  23920749.972      820100.711                                  
  38389646.304      514849.0752                                 
  20799490.469      465627.480                                  
  38029158.589      504188.1142                                 
  23090079.637       69757.807                                  
  19823587.592      536479.438                                  
  38468720.255      336088.4992                                 
  24235624.763      280735.4072                                 
  22519879.272      155231.337                                  
  23962383.949      610932.427                                  
 18  5  7 14  5 55.9990000  0 11G25G 2S23G31S36G21G29S20G 5G26G12
  20981890.772      744795.020                                  
  23921882.909      826054.359                                  
  38390274.747      518153.3702                                 
  20800152.565      469110.285                                  
  38029786.326      507488.1252                                 
  23090107.715       69906.184                                  
  19824290.967      540176.039                                  
  38469326.424      339278.0652                                 
  24235886.525      282114.5053                                 
  22519951.830      155611.528                                  
  23963643.069      617553.247                                  
 18  5  7 14  5 56.9990000  0 11G25G 2S23G31S36G21G29S20G 5G26G12
  20982902.963      750115.877                                  
  23923017.156      832013.161                                  
  38390904.517      521462.4952                                 
  20800816.346      472598.558                                  
  38030415.432      510793.0972                                 
  23090137.232       70059.680                                  
  19824995.833      543877.952                                  
  38469934.293      342472.3942                                 
  24236149.517      283498.8212                                 
  22520024.833      155996.665                                  
  23964903.874      624178.926                                  
 18  5  7 14  5 57.9990000  0 11G25G 2S23G31S36G21G29S20G 5G26G12
  20983916.402      755438.579                                  
  23924151.420      837973.714                                  
  38391534.775      524773.0592                                 
  20801479.916      476088.906                                  
  38031044.853      514099.4582                                 
  23090167.098       70214.839                                  
  19825700.447      547581.801                                  
  38470543.245      345668.2832                                 
  24236413.600      284885.0682                                 
  22520098.473      156383.460                                  
  23966164.242      630806.211                                  
 18  5  7 14  5 58.9990000  0 11G25G 2S23G31S36G21G29S20G 5G26G12
  20984927.686      760747.905                                  
  23925282.561      843920.861                                  
  38392162.233      528069.9392                                 
  20802142.012      479566.177                                  
  38031671.089      517391.9822                                 
  23090194.268       70356.515                                  
  19826401.963      551272.399                                  
  38471149.020      348850.7202                                 
  24236674.507      286258.0393                                 
  22520169.696      156756.701                                  
  23967423.135      637419.897                                  
 18  5  7 14  5 59.9990000  0 11G25G 2S23G31S36G21G29S20G 5G26G12
  20985935.881      766045.031                                  
  23926412.742      849855.714                                  
  38392786.977      531354.2092                                 
  20802801.936      483031.494                                  
  38032295.266      520671.9772                                 
  23090219.292       70485.809                                  
  19827102.598      554950.909                                  
  38471751.437      352020.4252                                 
  24236932.404      287618.8153                                 
  22520237.996      157117.559                                  
  23968680.520      644021.049                                  
 18  5  7 14  6  0.9990000  0 10G25G 2S23G31S36G21G29S20G26G12
  20986944.722      771346.334                                  
  23927542.617      855794.665                                  
  38393412.200      534642.2552                                 
  20803461.799      486501.257                                  
  38032920.402      523955.6972                                 
  23090245.022       70619.163                                  
  19827802.884      558633.699                                  
  38472355.022      355193.7452                                 
  22520307.989      157482.365                                  
  23969938.035      650626.127                                  
 18  5  7 14  6  1.9990000  0 10G25G 2S23G31S36G21G29S20G26G12
  20987954.758      776652.468                                  
  23928674.002      861738.367                                  
  38394039.108      537934.6782                                 
  20804122.630      489976.064                                  
  38033546.315      527243.9272                                 
  23090270.944       70757.185                                  
  19828504.863      562321.404                                  
  38472959.672      358371.7002                                 
  22520377.990      157851.768                                  
  23971196.073      657235.723                                  
 18  5  7 14  6  2.9990000  0 10G25G 2S23G31S36G21G29S20G26G12
  20988963.058      781948.725                                  
  23929802.700      867672.115                                  
  38394664.053      541216.8762                                 
  20804782.736      493441.292                                  
  38034169.655      530521.8582                                 
  23090294.807       70885.190                                  
  19829204.590      565999.355                                  
  38473562.830      361539.5312                                 
  22520446.953      158211.125                                  
  23972452.332      663835.179                                  
 18  5  7 14  6  3.9990000  0 10G25G 2S23G31S36G21G29S20G26G12
  20989968.923      787232.796                                  
  23930929.949      873593.626                                  
  38395286.781      544486.5592                                 
  20805439.676      496894.573                                  
  38034791.100      533787.2082                                 
  23090316.507       71000.857                                  
  19829902.660      569665.229                                  
  38474163.493      364694.6552                                 
  22520513.517      158558.082                                  
  23973705.345      670422.296                                  
 18  5  7 14  6  4.9990000  0 11G25G 2S23G31S36G21G29S20G 5G26G12
  20990974.797      792520.440                                  
  23932057.146      879518.603                                  
  38395909.641      547759.4152                                 
  20806097.968      500351.750                                  
  38035413.663      537055.7682                                 
  23090339.105       71119.981                                  
  19830600.564      573334.799                                  
  38474764.653      367853.1782                                 
  24238219.828      294413.0143                                 
  22520580.866      158908.431                                  
  23974959.666      677012.639                                  
 18  5  7 14  6  5.9990000  0 11G25G 2S23G31S36G21G29S20G 5G26G12
  20991983.071      797814.521                                  
  23933185.669      885449.944                                  
  38396532.971      551038.2702                                 
  20806756.627      503815.549                                  
  38036036.139      540330.4162                                 
  23090362.889       71245.400                                  
  19831300.126      577010.874                                  
  38475366.808      371017.6582                                 
  24238474.122      295770.8913                                 
  22520648.948      159264.932                                  
  23976215.087      683609.119                                  
 18  5  7 14  6  6.9990000  0 10G25G 2S23G31S36G21G29S20G26G12
  20992990.454      803102.566                                  
  23934312.734      891375.179                                  
  38397154.967      554310.7502                                 
  20807415.381      507273.610                                  
  38036657.366      543598.6722                                 
  23090385.505       71364.614                                  
  19831999.539      580681.050                                  
  38475967.950      374175.5042                                 
  22520715.373      159615.268                                  
  23977469.854      690199.313                                  
 18  5  7 14  6  7.9990000  0 10G25G 2S23G31S36G21G29S20G26G12
  20993994.723      808377.943                                  
  23935437.401      897287.693                                  
  38397775.043      557570.1762                                 
  20808071.954      510719.293                                  
  38037276.360      546853.8552                                 
  23090405.930       71471.042                                  
  19832695.053      584338.667                                  
  38476566.711      377320.4042                                 
  22520778.891      159952.720                                  
  23978721.986      696776.558                                  
 18  5  7 14  6  8.9990000  0 10G25G 2S23G31S36G21G29S20G26G12
  20994997.675      813652.641                                  
  23936562.870      903199.434                                  
  38398395.136      560828.5122                                 
  20808728.039      514164.493                                  
  38037895.599      550107.9362                                 
  23090425.893       71576.646                                  
  19833391.334      587995.704                                  
  38477164.730      380464.2462                                 
  22520842.785      160289.262                                  
  23979974.510      703352.896                                  
 18  5  7 14  6  9.9990000  0 10G25G 2S23G31S36G21G29S20G26G12
  20996002.938      818934.527                                  
  23937688.915      909118.297                                  
  38399016.905      564093.6592                                 
  20809384.612      517617.154                                  
  38038516.329      553368.8232                                 
  23090447.174       71689.334                                  
  19834089.063      591660.061                                  
  38477764.538      383614.9452                                 
  22520908.189      160632.848                                  
  23981226.388      709936.136                                  
 18  5  7 14  6 10.9990000  0 10G25G 2S23G31S36G21G29S20G26G12
  20997007.983      824216.679                                  
  23938814.769      915037.346                                  
  38399639.372      567358.7172                                 
  20810041.211      521070.391                                  
  38039136.772      556629.5082                                 
  23090467.983       71802.127                                  
  19834785.781      595324.775                                  
  38478364.267      386765.5002                                 
  22520972.423      160976.9333                                 
  23982478.014      716519.400                                  
 18  5  7 14  6 11.9990000  0 10G25G 2S23G31S36G21G29S20G26G12
  20998012.104      829493.845                                  
  23939940.508      920951.323                                  
  38400259.369      570618.3562                                 
  20810697.383      524518.848                                  
  38039756.071      559884.8322                                 
  23090488.243       71909.745                                  
  19835482.201      598984.590                                  
  38478962.076      389910.7012                                 
  22521036.963      161315.4032                                 
  23983729.334      723097.372                                  
 18  5  7 14  6 12.9990000  0 10G25G 2S23G31S36G21G29S20G26G12
  20999015.561      834770.557                                  
  23941065.663      926864.806                                  
  38400880.100      573877.1392                                 
  20811353.633      527967.160                                  
  38040375.432      563139.2592                                 
  23090508.128       72016.781                                  
  19836178.482      602644.073                                  
  38479560.470      393055.1252                                 
  22521102.139      161653.1362                                 
  23984980.497      729674.609                                  
 18  5  7 14  6 14.9990000  0 10G25G 2S23G31S36G21G29S20G26G12
  21001026.341      845336.186                                  
  23943317.056      938703.728                                  
  38402122.049      580405.8262                                 
  20812668.987      534876.715                                  
  38041616.352      569659.4652                                 
  23090551.954       72242.676                                  
  19837573.697      609975.604                                  
  38480758.070      399354.5052                                 
  22521233.025      162340.2972                                 
  23987487.335      742840.570                                  
 18  5  7 14  6 15.9990000  0 10G25G 2S23G31S36G21G29S20G26G12
  21002031.028      850612.970                                  
  23944442.228      944617.048                                  
  38402741.610      583663.5642                                 
  20813325.517      538325.854                                  
  38042235.581      572913.1302                                 
  23090571.481       72349.405                                  
  19838269.935      613635.502                                  
  38481356.054      402497.5222                                 
  22521297.617      162677.5362                                 
  23988739.859      749417.097                                  
 18  5  7 14  6 16.9990000  0 10G25G 2S23G31S36G21G29S20G26G12
  21003033.543      855878.413                                  
  23945565.795      950518.969                                  
  38403358.467      586909.6032                                 
  20813980.266      541763.896                                  
  38042851.278      576154.8392                                 
  23090589.716       72444.612                                  
  19838964.148      617284.155                                  
  38481951.831      405629.0042                                 
  22521360.053      163003.1982                                 
  23989989.635      755981.971                                  
 18  5  7 14  6 17.9990000  0 10G25G 2S23G31S36G21G29S20G26G12
  21004036.722      861148.312                                  
  23946690.628      956425.224                                  
  38403976.955      590159.7242                                 
  20814634.780      545206.651                                  
  38043468.771      579400.4862                                 
  23090608.728       72544.143                                  
  19839659.417      620937.381                                  
  38482548.262      408764.6392                                 
  22521422.019      163333.1292                                 
  23991238.931      762551.175                                  
 18  5  7 14  6 18.9990000  0 10G25G 2S23G31S36G21G29S20G26G12
  21005040.371      866422.875                                  
  23947815.844      962336.116                                  
  38404596.586      593414.0762                                 
  20815290.045      548654.354                                  
  38044087.172      582650.3622                                 
  23090628.735       72648.252                                  
  19840355.183      624595.354                                  
  38483145.687      411904.5472                                 
  22521485.224      163667.021                                  
  23992489.326      769124.683                                  
 18  5  7 14  6 19.9990000  0 10G25G 2S23G31S36G21G29S20G26G12
  21006042.223      871686.038                                  
  23948937.884      968235.535                                  
  38405213.381      596656.7142                                 
  20815943.163      552090.926                                  
  38044703.880      585888.4672                                 
  23090646.133       72740.785                                  
  19841048.856      628242.081                                  
  38483741.333      415032.5632                                 
  22521546.422      163989.819                                  
  23993737.723      775686.517                                  
 18  5  7 14  6 20.9990000  0 10G25G 2S23G31S36G21G29S20G26G12
  21007041.527      876935.460                                  
  23950057.508      974121.139                                  
  38405827.987      599885.1802                                 
  20816593.724      555513.993                                  
  38045317.028      589112.5722                                 
  23090661.646       72819.441                                  
  19841740.757      631875.162                                  
  38484333.951      418146.5542                                 
  22521604.828      164298.732                                  
  23994982.945      782234.404                                  
 18  5  7 14  6 21.9990000  0 10G25G 2S23G31S36G21G29S20G26G12
  21008041.320      882186.079                                  
  23951177.637      980007.851                                  
  38406442.618      603114.4293                                 
  20817244.967      558938.565                                  
  38045931.023      592337.5262                                 
  23090676.644       72899.215                                  
  19842432.414      635509.535                                  
  38484927.136      421261.5432                                 
  22521664.263      164608.584                                  
  23996229.074      788783.138                                  
 18  5  7 14  6 22.9990000  0 10G25G 2S23G31S36G21G29S20G26G12
  21009041.758      887443.247                                  
  23952299.180      985901.058                                  
  38407058.463      606349.8822                                 
  20817898.992      562369.911                                  
  38046545.969      595568.7202                                 
  23090692.472       72985.301                                  
  19843125.283      639150.573                                  
  38485521.194      424382.3442                                 
  22521724.493      164924.814                                  
  23997476.415      795338.150                                  
 18  5  7 14  6 23.9990000  0 10G25G 2S23G31S36G21G29S20G26G12
  21010041.429      892694.199                                  
  23953419.371      991787.947                                  
  38407673.600      609578.6372                                 
  20818551.744      565795.269                                  
  38047159.283      598793.1772                                 
  23090707.618       73065.069                                  
  19843816.958      642785.475                                  
  38486113.542      427496.2972                                 
  22521784.155      165234.531                                  
  23998722.317      801886.749                                  
 18  5  7 14  6 24.9990000  0 11G25G 2S23G31S36G21G29S20G 5G26G12
  21011038.089      897931.982                                  
  23954536.795      997661.618                                  
  38408285.344      612793.9912                                 
  20819201.590      569207.745                                  
  38047769.970      602004.1072                                 
  23090720.191       73131.516                                  
  19844505.944      646407.330                                  
  38486703.839      430597.0192                                 
  24243445.933      321095.8693                                 
  22521841.261      165530.939                                  
  23999965.261      808421.7793                                 
 18  5  7 14  6 25.9990000  0 11G25G 2S23G31S36G21G29S20G 5G26G12
  21012034.819      903168.773                                  
  23955654.866     1003534.178                                  
  38408896.032      616007.8263                                 
  20819850.162      572619.482                                  
  38048381.330      605213.6342                                 
  23090733.419       73196.831                                  
  19845194.862      650028.299                                  
  38487294.302      433696.7102                                 
  24243690.873      322397.2503                                 
  22521897.450      165826.182                                  
  24001207.769      814955.7142                                 
 18  5  7 14  6 26.9990000  0 11G25G 2S23G31S36G21G29S20G 5G26G12
  21013032.946      908411.953                                  
  23956773.058     1009413.094                                  
  38409508.630      619227.7842                                 
  20820500.505      576037.904                                  
  38048993.440      608429.1982                                 
  23090746.672       73268.440                                  
  19845885.341      653655.776                                  
  38487884.390      436802.1712                                 
  24243936.031      323705.5173                                 
  22521954.565      166127.639                                  
  24002451.830      821495.7002                                 
 18  5  7 14  6 27.9990000  0 11G25G 2S23G31S36G21G29S20G 5G26G12
  21014031.395      913655.547                                  
  23957891.111     1015292.322                                  
  38410120.086      622447.6943                                 
  20821151.346      579456.999                                  
  38049605.175      611644.7982                                 
  23090760.004       73340.245                                  
  19846575.662      657283.775                                  
  38488474.434      439907.4272                                 
  24244183.257      325014.8603                                 
  22522011.889      166429.258                                  
  24003696.353      828035.8602                                 
 18  5  7 14  6 28.9990000  0 11G25G 2S23G31S36G21G29S20G 5G26G12
  21015028.806      918893.859                                  
  23959008.544     1021166.226                                  
  38410731.385      625661.9822                                 
  20821801.096      582871.005                                  
  38050216.116      614854.7642                                 
  23090772.071       73406.702                                  
  19847265.426      660906.585                                  
  38489063.859      443006.9282                                 
  24244432.010      326318.8523                                 
  22522068.271      166725.408                                  
  24004939.463      834570.4502                                 
 18  5  7 14  6 29.9990000  0 11G25G 2S23G31S36G21G29S20G 5G26G12
  21016024.716      924131.058                                  
  23960126.589     1027038.929                                  
  38411341.305      628874.7632                                 
  20822450.663      586284.226                                  
  38050826.769      618063.2922                                 
  23090784.015       73471.849                                  
  19847954.605      664528.405                                  
  38489653.092      446105.1892                                 
  24244678.634      327621.1433                                 
  22522124.923      167020.203                                  
  24006183.358      841103.6462                                 
 18  5  7 14  6 30.9990000  0 11G25G 2S23G31S36G21G29S20G 5G26G12
  21017022.414      929373.474                                  
  23961244.537     1032916.746                                  
  38411952.891      632092.4112                                 
  20823101.024      589702.906                                  
  38051438.835      621276.6032                                 
  23090797.033       73542.061                                  
  19848644.787      668155.522                                  
  38490243.275      449208.2942                                 
  24244927.718      328928.8713                                 
  22522182.133      167320.023                                  
  24007426.669      847641.8042                                 
 18  5  7 14  6 31.9990000  0 11G25G 2S23G31S36G21G29S20G 5G26G12
  21018021.047      934617.082                                  
  23962363.785     1038795.718                                  
  38412565.629      635310.8442                                 
  20823751.699      593123.034                                  
  38052050.587      624490.6272                                 
  23090810.662       73613.405                                  
  19849335.231      671783.941                                  
  38490833.337      452312.1822                                 
  24245175.730      330238.5373                                 
  22522238.532      167620.841                                  
  24008671.489      854180.8522                                 
 18  5  7 14  6 32.9990000  0 10G25G 2S23G31S36G21G29S20G26G12
  21019017.777      939853.502                                  
  23963481.533     1044667.403                                  
  38413176.701      638521.7092                                 
  20824400.812      596536.219                                  
  38052660.150      627697.0802                                 
  23090823.174       73677.377                                  
  19850024.593      675405.294                                  
  38491422.273      455408.3262                                 
  22522293.745      167914.333                                  
  24009914.224      860712.4882                                 
 18  5  7 14  6 33.9990000  0 11G25G 2S23G31S36G21G29S20G 5G26G12
  21020012.134      945079.484                                  
  23964596.706     1050528.574                                  
  38413785.940      641721.6932                                 
  20825047.997      599939.264                                  
  38053268.176      630892.7402                                 
  23090833.443       73730.766                                  
  19850711.687      679016.306                                  
  38492009.194      458493.7262                                 
  24245670.653      332832.0253                                 
  22522347.727      168197.120                                  
  24011155.239      867233.3622                                 
 18  5  7 14  6 34.9990000  0 11G25G 2S23G31S36G21G29S20G 5G26G12
  21021007.844      950310.163                                  
  23965712.997     1056394.365                                  
  38414396.314      644926.1092                                 
  20825696.116      603347.258                                  
  38053876.796      634092.6852                                 
  23090844.629       73788.718                                  
  19851399.758      682632.127                                  
  38492597.127      461583.3612                                 
  24245919.257      334128.4182                                 
  22522402.905      168484.405                                  
  24012397.730      873758.7532                                 
 18  5  7 14  6 35.9990000  0 11G25G 2S23G31S36G21G29S20G 5G26G12
  21022004.033      955545.962                                  
  23966830.482     1062265.224                                  
  38415006.670      648135.1632                                 
  20826345.857      606760.586                                  
  38054486.280      637297.5192                                 
  23090856.792       73851.662                                  
  19852089.259      686253.176                                  
  38493185.880      464677.8552                                 
  24246157.549      335430.0363                                 
  22522458.850      168776.614                                  
  24013640.430      880288.9902                                 
 18  5  7 14  6 36.9990000  0 11G25G 2S23G31S36G21G29S20G 5G26G12
  21022998.966      960770.385                                  
  23967946.092     1068125.638                                  
  38415615.299      651333.0032                                 
  20826993.007      610163.872                                  
  38055094.708      640491.0172                                 
  23090866.581       73904.116                                  
  19852775.864      689863.968                                  
  38493772.852      467761.1242                                 
  24246408.858      336720.8762                                 
  22522512.771      169058.281                                  
  24014881.559      886807.562                                  
 18  5  7 14  6 37.9990000  0 11G25G 2S23G31S36G21G29S20G 5G26G12
  21023990.557      965981.821                                  
  23969058.692     1073971.968                                  
  38416222.157      654516.8752                                 
  20827637.400      613553.399                                  
  38055700.030      643670.6442                                 
  23090873.526       73942.380                                  
  19853460.812      693460.855                                  
  38494356.807      470830.6562                                 
  24246653.824      337998.2523                                 
  22522563.333      169325.742                                  
  24016119.914      893312.885                                  
 18  5  7 14  6 38.9990000  0 11G25G 2S23G31S36G21G29S20G 5G26G12
  21024982.698      971196.533                                  
  23970171.588     1079821.496                                  
  38416829.171      657703.7802                                 
  20828282.133      616946.537                                  
  38056306.024      646853.3122                                 
  23090881.170       73983.845                                  
  19854145.488      697061.155                                  
  38494941.293      473903.1292                                 
  24246896.356      339278.9572                                 
  22522615.003      169596.284                                  
  24017358.373      899821.182                                  
 18  5  7 14  6 39.9990000  0 11G25G 2S23G31S36G21G29S20G 5G26G12
  21025976.549      976418.121                                  
  23971285.575     1085677.814                                  
  38417437.329      660897.1012                                 
  20828928.350      620346.694                                  
  38056912.942      650042.3812                                 
  23090890.724       74032.006                                  
  19854832.085      700668.397                                  
  38495526.521      476981.9492                                 
  24247142.500      340566.6262                                 
  22522667.494      169873.481                                  
  24018598.691      906336.114                                  
 18  5  7 14  6 40.9990000  0 11G25G 2S23G31S36G21G29S20G 5G26G12
  21026968.934      981635.393                                  
  23972399.231     1091529.755                                  
  38418043.628      664085.6532                                 
  20829574.121      623742.853                                  
  38057519.067      653226.6982                                 
  23090899.475       74075.740                                  
  19855517.861      704271.438                                  
  38496111.653      480055.7482                                 
  24247387.117      341849.9922                                 
  22522718.806      170146.195                                  
  24019837.665      912846.423                                  
 18  5  7 14  6 41.9990000  0 11G25G 2S23G31S36G21G29S20G 5G26G12
  21027959.312      986840.591                                  
  23973510.775     1097369.540                                  
  38418648.758      667261.8612                                 
  20830217.624      627127.150                                  
  38058122.286      656398.6082                                 
  23090905.783       74107.231                                  
  19856201.482      707862.525                                  
  38496694.621      483117.0732                                 
  24247629.492      343121.4322                                 
  22522768.173      170406.536                                  
  24021074.039      919344.436                                  
 18  5  7 14  6 42.9990000  0 11G25G 2S23G31S36G21G29S20G 5G26G12
  21028949.760      992044.632                                  
  23974621.987     1103208.119                                  
  38419253.853      670436.5092                                 
  20830861.546      630510.611                                  
  38058725.531      659569.0242                                 
  23090911.358       74137.449                                  
  19856884.605      711452.548                                  
  38497277.554      486177.1022                                 
  24247871.483      344391.7752                                 
  22522817.435      170665.626                                  
  24022310.396      925841.028                                  
 18  5  7 14  6 43.9990000  0 11G25G 2S23G31S36G21G29S20G 5G26G12
  21029941.413      997255.755                                  
  23975735.311     1109053.677                                  
  38419858.913      673617.8272                                 
  20831507.003      633901.385                                  
  38059330.120      662746.1022                                 
  23090918.382       74174.606                                  
  19857569.151      715049.756                                  
  38497861.229      489243.8152                                 
  24248114.739      345669.2392                                 
  22522868.110      170931.564                                  
  24023547.939      932344.435                                  
 18  5  7 14  6 44.9990000  0 11G25G 2S23G31S36G21G29S20G 5G26G12
  21030933.484     1002467.493                                  
  23976847.474     1114899.773                                  
  38420464.296      676799.3892                                 
  20832152.417      637293.056                                  
  38059935.084      665923.5112                                 
  23090926.261       74212.264                                  
  19858253.793      718647.717                                  
  38498445.436      492310.8382                                 
  24248358.815      346947.3823                                 
  22522919.440      171197.928                                  
  24024786.233      938848.188                                  
 18  5  7 14  6 45.9990000  0 11G25G 2S23G31S36G21G29S20G 5G26G12
  21031924.630     1007674.782                                  
  23977959.062     1120741.350                                  
  38421068.981      679976.1452                                 
  20832797.098      640680.557                                  
  38060538.871      669095.9982                                 
  23090932.953       74245.306                                  
  19858937.414      722241.305                                  
  38499027.933      495372.9602                                 
  24248601.783      348221.0732                                 
  22522968.998      171459.595                                  
  24026023.078      945347.212                                  
 18  5  7 14  6 46.9990000  0 11G25G 2S23G31S36G21G29S20G 5G26G12
  21032915.645     1012881.907                                  
  23979070.449     1126582.736                                  
  38421673.831      683152.4582                                 
  20833441.596      644068.106                                  
  38061142.221      672267.9882                                 
  23090939.270       74278.066                                  
  19859621.559      725834.868                                  
  38499610.962      498434.6182                                 
  24248845.379      349494.7592                                 
  22523018.671      171720.959                                  
  24027258.562      951845.872                                  
 18  5  7 14  6 47.9990000  0 11G25G 2S23G31S36G21G29S20G 5G26G12
  21033907.996     1018094.579                                  
  23980182.865     1132429.544                                  
  38422278.665      686333.7712                                 
  20834087.925      647461.513                                  
  38061746.260      675445.1602                                 
  23090945.823       74316.258                                  
  19860306.270      729434.064                                  
  38500194.768      501501.4372                                 
  24249086.297      350774.0623                                 
  22523069.154      171987.645                                  
  24028496.236      958349.724                                  
 18  5  7 14  6 48.9990000  0 11G25G 2S23G31S36G21G29S20G 5G26G12
  21034900.808     1023309.251                                  
  23981295.849     1138278.268                                  
  38422884.545      689516.6652                                 
  20834735.084      650857.127                                  
  38062351.137      678623.8752                                 
  23090953.099       74356.266                                  
  19860991.034      733035.349                                  
  38500778.679      504569.8762                                 
  24249197.246      352055.8883                                 
  22523120.589      172256.108                                  
  24029735.071      964855.353                                  
 18  5  7 14  6 49.9990000  0 11G25G 2S23G31S36G21G29S20G 5G26G12
  21035891.501     1028517.414                                  
  23982407.663     1144120.423                                  
  38423488.200      692692.8232                                 
  20835380.315      654246.502                                  
  38062954.312      681795.7082                                 
  23090960.053       74389.660                                  
  19861674.481      736630.262                                  
  38501360.591      507631.4682                                 
  24249443.250      353330.9043                                 
  22523170.583      172517.918                                  
  24030972.475      971354.157                                  
 18  5  7 14  6 50.9990000  0 11G25G 2S23G31S36G21G29S20G 5G26G12
  21036880.719     1033715.521                                  
  23983517.166     1149952.470                                  
  38424089.866      695858.5342                                 
  20836023.477      657626.130                                  
  38063556.013      684957.1432                                 
  23090964.765       74412.873                                  
  19862357.378      740215.241                                  
  38501941.282      510682.9282                                 
  24249684.168      354595.8742                                 
  22523219.069      172769.462                                  
  24032206.763      977842.696                                  
 18  5  7 14  6 51.9990000  0 11G25G 2S23G31S36G21G29S20G 5G26G12
  21037871.280     1038918.672                                  
  23984628.134     1155789.449                                  
  38424693.627      699028.7752                                 
  20836667.356      661010.988                                  
  38064158.770      688123.1892                                 
  23090969.930       74440.963                                  
  19863040.780      743805.335                                  
  38502522.941      513738.9362                                 
  24249928.419      355865.8602                                 
  22523267.903      173025.853                                  
  24033441.314      984335.955                                  
 18  5  7 14  6 52.9990000  0 11G25G 2S23G31S36G21G29S20G 5G26G12
  21038861.955     1044126.273                                  
  23985739.905     1161630.828                                  
  38425297.500      702203.1982                                 
  20837312.944      664400.609                                  
  38064762.129      691293.2422                                 
  23090976.526       74473.395                                  
  19863724.724      747399.999                                  
  38503105.046      516798.7882                                 
  24250171.439      357140.4112                                 
  22523316.738      173286.433                                  
  24034677.199      990833.433                                  
 18  5  7 14  6 53.9990000  0 11G25G 2S23G31S36G21G29S20G 5G26G12
  21039850.894     1049322.872                                  
  23986848.761     1167461.139                                  
  38425899.280      705366.1622                                 
  20837955.827      667779.488                                  
  38065363.289      694451.9302                                 
  23090979.702       74494.617                                  
  19864406.443      750983.758                                  
  38503685.388      519847.2052                                 
  24250397.114      358403.9583                                 
  22523364.525      173535.843                                  
  24035912.125      997319.570                                  
 18  5  7 14  6 54.9990000  0 11G25G 2S23G31S36G21G29S20G 5G26G12
  21040837.494     1054507.243                                  
  23987955.829     1173279.113                                  
  38426498.433      708516.6252                                 
  20838595.814      671146.378                                  
  38065962.616      697597.9972                                 
  23090980.880       74503.574                                  
  19865086.234      754555.415                                  
  38504262.789      522883.1622                                 
  24250636.897      359655.4473                                 
  22523409.329      173772.848                                  
  24037143.596     1003793.288                                  
 18  5  7 14  6 55.9990000  0 11G25G 2S23G31S36G21G29S20G 5G26G12
  21041825.116     1059695.497                                  
  23989063.534     1179100.903                                  
  38427098.459      711670.5132                                 
  20839236.560      674517.451                                  
  38066561.848      700747.5792                                 
  23090983.314       74516.203                                  
  19865766.627      758131.035                                  
  38504841.534      525922.5812                                 
  24250876.035      360910.8013                                 
  22523454.272      174013.523                                  
  24038374.953     1010270.563                                  
 18  5  7 14  6 56.9990000  0 11G25G 2S23G31S36G21G29S20G 5G26G12
  21042814.124     1064890.623                                  
  23990172.583     1184929.496                                  
  38427699.348      714830.9462                                 
  20839879.478      677895.627                                  
  38067162.284      703903.6862                                 
  23090987.092       74535.590                                  
  19866448.075      761713.643                                  
  38505421.091      528968.5002                                 
  24251119.562      362173.1363                                 
  22523500.680      174260.876                                  
  24039608.954     1016754.490                                  
 18  5  7 14  6 57.9990000  0 11G25G 2S23G31S36G21G29S20G 5G26G12
  21043801.170     1070079.205                                  
  23991280.986     1190751.449                                  
  38428298.510      717984.4163                                 
  20840521.733      681267.5333                                 
  38067761.079      707052.8933                                 
  23090989.780       74548.330                                  
  19867128.983      765289.812                                  
  38505999.723      532007.7232                                 
  24251360.767      363428.9913                                 
  22523546.775      174501.469                                  
  24040841.253     1023231.615                                  
 18  5  7 14  6 58.9990000  0 11G25G 2S23G31S36G21G29S20G 5G26G12
  21044786.200     1075255.521                                  
  23992385.951     1196561.089                                  
  38428896.991      721125.2822                                 
  20841161.947      684627.4322                                 
  38068358.165      710189.4602                                 
  23090990.233       74548.645                                  
  19867806.924      768853.830                                  
  38506575.981      535034.1682                                 
  24251597.776      364672.5713                                 
  22523589.389      174729.601                                  
  24042071.808     1029696.170                                  
 18  5  7 14  6 59.9990000  0 11G25G 2S23G31S36G21G29S20G 5G26G12
  21045770.872     1080431.923                                  
  23993491.361     1202370.697                                  
  38429495.979      724265.7612                                 
  20841801.751      687987.6292                                 
  38068954.692      713325.6842                                 
  23090990.024       74548.889                                  
  19868485.231      772418.038                                  
  38507152.179      538060.0212                                 
  24251833.712      365916.3533                                 
  22523632.464      174957.655                                  
  24043302.633     1036160.526                                  
 18  5  7 14  7  0.9990000  0 11G25G 2S23G31S36G21G29S20G 5G26G12
  21046757.359     1085615.569                                  
  23994597.888     1208187.511                                  
  38430095.743      727413.1392                                 
  20842443.631      691355.4152                                 
  38069552.693      716468.6252                                 
  23090991.682       74556.255                                  
  19869165.126      775989.584                                  
  38507729.031      541092.8792                                 
  24252072.038      367167.5012                                 
  22523677.111      175192.744                                  
  24044534.077     1042631.959                                  
 18  5  7 14  7  1.9990000  0 11G25G 2S23G31S36G21G29S20G 5G26G12
  21047743.671     1090798.214                                  
  23995704.162     1214003.247                                  
  38430694.626      730559.1882                                 
  20843084.429      694722.4192                                 
  38070150.529      719610.2612                                 
  23090993.165       74562.491                                  
  19869844.088      779560.258                                  
  38508305.525      544124.3632                                 
  24252311.124      368417.6773                                 
  22523722.115      175426.590                                  
  24045766.010     1049102.053                                  
 18  5  7 14  7  2.9990000  0 11G25G 2S23G31S36G21G29S20G 5G26G12
  21048728.378     1095973.482                                  
  23996810.209     1219811.508                                  
  38431291.266      733697.4532                                 
  20843723.264      698082.3182                                 
  38070745.669      722744.0892                                 
  23090993.680       74561.223                                  
  19870522.047      783123.645                                  
  38508880.710      547147.8612                                 
  24252547.225      369660.5753                                 
  22523764.449      175652.886                                  
  24046996.163     1055564.507                                  
 18  5  7 14  7  3.9990000  0 11G25G 2S23G31S36G21G29S20G 5G26G12
  21049713.897     1101149.300                                  
  23997916.248     1225620.276                                  
  38431887.871      736835.8802                                 
  20844362.631      701442.9712                                 
  38071341.829      725878.1312                                 
  23090994.195       74560.358                                  
  19871200.624      786687.708                                  
  38509456.236      550171.8832                                 
  24252784.958      370904.0692                                 
  22523806.618      175879.559                                  
  24048226.657     1062027.255                                  
 18  5  7 14  7  4.9990000  0 11G25G 2S23G31S36G21G29S20G 5G26G12
  21050699.424     1106332.190                                  
  23999023.517     1231436.047                                  
  38432486.239      739980.9812                                 
  20845002.260      704811.0062                                 
  38071939.848      729018.8282                                 
  23090995.992       74566.431                                  
  19871879.674      790258.941                                  
  38510032.992      553202.7292                                 
  24253024.166      372154.6322                                 
  22523851.281      176113.072                                  
  24049458.145     1068496.740                                  
 18  5  7 14  7  5.9990000  0 11G25G 2S23G31S36G21G29S20G 5G26G12
  21051686.434     1111517.689                                  
  24000130.558     1237254.281                                  
  38433084.852      743128.2392                                 
  20845644.123      708181.8922                                 
  38072538.225      732161.5952                                 
  23090997.292       74574.936                                  
  19872559.735      793832.879                                  
  38510609.931      556235.7582                                 
  24253264.647      373407.9142                                 
  22523895.910      176348.975                                  
  24050691.282     1074968.658                                  
 18  5  7 14  7  6.9990000  0 11G25G 2S23G31S36G21G29S20G 5G26G12
  21052672.136     1116698.098                                  
  24001235.820     1243067.401                                  
  38433682.705      746270.1092                                 
  20846284.685      711547.921                                  
  38073135.258      735298.8002                                 
  23090997.597       74578.252                                  
  19873238.653      797401.847                                  
  38511186.259      559263.2332                                 
  24253502.738      374656.1332                                 
  22523939.335      176579.588                                  
  24051922.787     1081435.214                                  
 18  5  7 14  7  7.9990000  0 11G25G 2S23G31S36G21G29S20G 5G26G12
  21053658.152     1121876.981                                  
  24002341.588     1248878.938                                  
  38434280.043      749410.0062                                 
  20846924.943      714912.835                                  
  38073732.055      738434.1132                                 
  23090997.301       74579.903                                  
  19873918.339      800969.388                                  
  38511762.422      562288.6712                                 
  24253739.869      375902.9062                                 
  22523982.228      176808.521                                  
  24053153.455     1087899.937                                  
 18  5  7 14  7  8.9990000  0 11G25G 2S23G31S36G21G29S20G 5G26G12
  21054644.700     1127062.959                                  
  24003448.325     1254697.475                                  
  38434879.101      752556.6942                                 
  20847567.049      718284.959                                  
  38074330.022      741576.1932                                 
  23090999.159       74588.548                                  
  19874598.531      804544.143                                  
  38512339.361      565320.6512                                 
  24253978.570      377156.8452                                 
  22524027.468      177044.390                                  
  24054385.310     1094371.497                                  
 18  5  7 14  7  9.9990000  0 11G25G 2S23G31S36G21G29S20G 5G26G12
  21055632.321     1132252.647                                  
  24004556.204     1260519.633                                  
  38435478.934      755706.6632                                 
  20848209.619      721661.108                                  
  38074929.559      744721.6522                                 
  23091001.419       74600.721                                  
  19875279.988      808122.709                                  
  38512916.692      568355.8982                                 
  24254218.441      378414.6522                                 
  22524073.065      177283.694                                  
  24055618.473     1100846.528                                  
 18  5  7 14  7 10.9990000  0 11G25G 2S23G31S36G21G29S20G 5G26G12
  21056618.032     1137432.213                                  
  24005662.836     1266331.620                                  
  38436076.796      758846.1612                                 
  20848849.763      725027.355                                  
  38075526.121      747856.5722                                 
  23091001.733       74602.658                                  
  19875958.950      811691.246                                  
  38513491.965      571380.9892                                 
  24254455.511      379662.2902                                 
  22524116.298      177512.685                                  
  24056848.687     1107311.148                                  
 18  5  7 14  7 11.9990000  0 11G25G 2S23G31S36G21G29S20G 5G26G12
  21057601.753     1142601.030                                  
  24006767.042     1272132.761                                  
  38436671.910      761974.5172                                 
  20849488.929      728383.235                                  
  38076120.859      750980.3692                                 
  23091000.206       74593.701                                  
  19876635.983      815249.161                                  
  38514065.946      574395.1502                                 
  24254690.976      380899.2822                                 
  22524158.126      177730.760                                  
  24058076.659     1113764.763                                  
 18  5  7 14  7 12.9990000  0 11G25G 2S23G31S36G21G29S20G 5G26G12
  21058585.771     1147774.059                                  
  24007871.623     1277938.020                                  
  38437268.227      765106.6992                                 
  20850128.689      731743.494                                  
  38076715.606      754107.8912                                 
  23090999.569       74588.855                                  
  19877314.186      818811.384                                  
  38514640.626      577412.7772                                 
  24254927.705      382140.082                                  
  22524201.324      177952.834                                  
  24059304.709     1120222.271                                  
 18  5  7 14  7 13.9990000  0 11G25G 2S23G31S36G21G29S20G 5G26G12
  21059571.411     1152953.927                                  
  24008977.958     1283750.060                                  
  38437865.697      768245.3212                                 
  20850769.313      735110.876                                  
  38077311.898      757241.8622                                 
  23090999.752       74590.670                                  
  19877992.921      822380.536                                  
  38515216.343      580436.7762                                 
  24255165.953      383388.239                                  
  22524244.880      178181.570                                  
  24060534.871     1126686.379                                  
 18  5  7 14  7 14.9990000  0 11G25G 2S23G31S36G21G29S20G 5G26G12
  21060555.787     1158127.274                                  
  24010082.862     1289555.496                                  
  38438461.936      771377.0572                                 
  20851408.697      738471.931                                  
  38077906.959      760368.9932                                 
  23090998.836       74585.827                                  
  19878671.176      825943.284                                  
  38515790.438      583454.0362                                 
  24255403.398      384629.963                                  
  22524287.685      178403.552                                  
  24061763.733     1133143.676                                  
 18  5  7 14  7 15.9990000  0 11G25G 2S23G31S36G21G29S20G 5G26G12
  21061538.705     1163290.638                                  
  24011185.481     1295350.901                                  
  38439055.243      774498.4382                                 
  20852045.508      741823.374                                  
  38078500.092      763485.8222                                 
  23090995.844       74570.899                                  
  19879347.407      829496.166                                  
  38516362.840      586460.9592                                 
  24255638.941      385861.803                                  
  22524328.196      178615.367                                  
  24062990.562     1139590.786                                  
 18  5  7 14  7 16.9990000  0 11G25G 2S23G31S36G21G29S20G 5G26G12
  21062521.536     1168454.398                                  
  24012288.204     1301146.598                                  
  38439649.676      777619.8062                                 
  20852682.912      745175.422                                  
  38079092.980      766602.6932                                 
  23090993.130       74556.221                                  
  19880023.629      833049.530                                  
  38516934.762      589467.7342                                 
  24255874.729      387094.084                                  
  22524368.052      178827.381                                  
  24064217.137     1146037.955                                  
 18  5  7 14  7 17.9990000  0 11G25G 2S23G31S36G21G29S20G 5G26G12
  21063505.205     1173625.311                                  
  24013392.418     1306949.349                                  
  38440243.812      780747.8392                                 
  20853322.585      748534.824                                  
  38079687.466      769726.2942                                 
  23090991.359       74548.515                                  
  19880701.047      836610.129                                  
  38517508.796      592481.3232                                 
  24256110.394      388333.562                                  
  22524409.121      179046.324                                  
  24065444.751     1152492.016                                  
 18  5  7 14  7 18.9990000  0 11G25G 2S23G31S36G21G29S20G 5G26G12
  21064489.424     1178798.095                                  
  24014496.153     1312753.922                                  
  38440839.222      783877.4922                                 
  20853963.741      751896.458                                  
  38080282.597      772851.5322                                 
  23090990.469       74542.619                                  
  19881379.127      840172.750                                  
  38518082.070      595496.3522                                 
  24256347.132      389575.003                                  
  22524451.211      179266.9673                                 
  24066673.500     1158948.2643                                 
 18  5  7 14  7 19.9990000  0 11G25G 2S23G31S36G21G29S20G 5G26G12
  21065472.482     1183966.449                                  
  24015600.272     1318553.989                                  
  38441433.830      787002.3522                                 
  20854602.768      755253.889                                  
  38080876.166      775971.9352                                 
  23090988.872       74532.163                                  
  19882055.847      843731.039                                  
  38518654.882      598506.7892                                 
  24256583.207      390812.085                                  
  22524492.699      179483.0102                                 
  24067901.000     1165399.2522                                 
 18  5  7 14  7 20.9990000  0 11G25G 2S23G31S36G21G29S20G 5G26G12
  21066456.648     1189135.453                                  
  24016703.964     1324354.598                                  
  38442028.542      790127.4322                                 
  20855241.742      758612.239                                  
  38081469.892      779092.5752                                 
  23090987.136       74522.177                                  
  19882733.238      847290.080                                  
  38519228.009      601517.3452                                 
  24256818.689      392049.880                                  
  22524533.210      179699.4932                                 
  24069128.868     1171850.6182                                 
 18  5  7 14  7 21.9990000  0 11G25G 2S23G31S36G21G29S20G 5G26G12
  21067440.901     1194310.977                                  
  24017809.374     1330161.704                                  
  38442624.240      793258.7012                                 
  20855882.148      761977.375                                  
  38082065.285      782219.3432                                 
  23090986.813       74518.599                                  
  19883412.016      850855.749                                  
  38519801.911      604534.0092                                 
  24257055.262      393294.239                                  
  22524575.230      179922.2692                                 
  24070356.996     1178308.2412                                 
 18  5  7 14  7 22.9990000  0 11G25G 2S23G31S36G21G29S20G 5G26G12
  21068425.748     1199488.618                                  
  24018915.037     1335970.796                                  
  38443220.366      796391.6503                                 
  20856523.164      765344.860                                  
  38082660.163      785347.9172                                 
  23090986.988       74516.998                                  
  19884090.952      854423.633                                  
  38520376.547      607552.3482                                 
  24257292.367      394540.808                                  
  22524618.829      180146.9742                                 
  24071585.448     1184767.6842                                 
 18  5  7 14  7 23.9990000  0 11G25G 2S23G31S36G21G29S20G 5G26G12
  21069409.120     1204656.022                                  
  24020019.322     1341769.642                                  
  38443814.903      799514.0652                                 
  20857162.078      768702.423                                  
  38083253.775      788465.8502                                 
  23090984.780       74505.022                                  
  19884768.291      857981.429                                  
  38520949.595      610560.2862                                 
  24257528.241      395777.231                                  
  22524659.314      180361.3132                                 
  24072811.631     1191216.7152                                 
 18  5  7 14  7 24.9990000  0 11G25G 2S23G31S36G21G29S20G 5G26G12
  21070391.157     1209814.437                                  
  24021121.722     1347559.367                                  
  38444407.330      802627.0442                                 
  20857799.115      772051.223                                  
  38083845.294      791574.3962                                 
  23090981.404       74483.962                                  
  19885443.335      861530.293                                  
  38521519.580      613558.9212                                 
  24257760.382      397004.680                                  
  22524697.661      180566.3502                                 
  24074036.462     1197656.4252                                 
 18  5  7 14  7 25.9990000  0 11G25G 2S23G31S36G21G29S20G 5G26G12
  21071373.543     1214977.985                                  
  24022224.000     1353354.160                                  
  38445001.056      805744.7522                                 
  20858438.012      775405.385                                  
  38084437.938      794687.7562                                 
  23090978.716       74467.896                                  
  19886119.566      865084.404                                  
  38522091.432      616562.1102                                 
  24257995.000      398237.436                                  
  22524737.447      180776.3892                                 
  24075262.209     1204100.9962                                 
 18  5  7 14  7 26.9990000  0 11G25G 2S23G31S36G21G29S20G 5G26G12
  21072357.770     1220147.823                                  
  24023328.005     1359155.170                                  
  38445596.248      808868.4182                                 
  20859076.977      778766.175                                  
  38085030.888      797807.1672                                 
  23090976.762       74457.948                                  
  19886797.027      868644.916                                  
  38522663.712      619570.9072                                 
  24258229.932      399476.445                                  
  22524778.481      180992.5262                                 
  24076489.745     1210551.6002                                 
 18  5  7 14  7 27.9990000  0 11G25G 2S23G31S36G21G29S20G 5G26G12
  21073339.790     1225309.487                                  
  24024430.632     1364947.903                                  
  38446189.965      811983.5223                                 
  20859715.062      782118.993                                  
  38085622.913      800917.9842                                 
  23090974.162       74439.714                                  
  19887473.171      872197.350                                  
  38523234.631      622571.3732                                 
  24258464.411      400707.366                                  
  22524818.434      181200.2772                                 
  24077716.608     1216993.7092                                 
 18  5  7 14  7 28.9990000  0 11G25G 2S23G31S36G21G29S20G 5G26G12
  21074319.794     1230459.713                                  
  24025530.720     1370729.171                                  
  38446780.838      815086.8192                                 
  20860351.411      785460.682                                  
  38086212.704      804016.9682                                 
  23090969.407       74409.929                                  
  19888146.845      875738.482                                  
  38523803.177      625560.0762                                 
  24258694.972      401926.980                                  
  22524855.280      181396.3992                                 
  24078941.430     1223424.2032                                 
 18  5  7 14  7 29.9990000  0 11G25G 2S23G31S36G21G29S20G 5G26G12
  21075300.924     1235613.511                                  
  24026631.628     1376513.930                                  
  38447371.790      818193.3582                                 
  20860988.439      788806.159                                  
  38086802.469      807119.1472                                 
  23090964.398       74383.585                                  
  19888821.182      879283.280                                  
  38524372.455      628551.8832                                 
  24258927.723      403150.192                                  
  22524892.990      181595.9112                                 
  24080166.601     1229857.9942                                 
 18  5  7 14  7 30.9990000  0 11G25G 2S23G31S36G21G29S20G 5G26G12
  21076283.014     1240774.967                                  
  24027733.522     1382306.226                                  
  38447964.513      821307.1292                                 
  20861626.227      792159.613                                  
  38087393.857      810228.6372                                 
  23090961.257       74364.720                                  
  19889497.474      882835.828                                  
  38524942.850      631551.1152                                 
  24259161.835      404381.153                                  
  22524932.907      181802.873                                  
  24081393.701     1236298.668                                  
 18  5  7 14  7 31.9990000  0 11G25G 2S23G31S36G21G29S20G 5G26G12
  21077263.847     1245931.865                                  
  24028835.198     1388093.908                                  
  38448555.813      824415.9472                                 
  20862263.283      795508.692                                  
  38087985.201      813333.2372                                 
  23090956.973       74341.163                                  
  19890172.318      886383.920                                  
  38525512.844      634545.6972                                 
  24259394.752      405608.0823                                 
  22524970.730      182005.090                                  
  24082617.895     1242734.952                                  
 18  5  7 14  7 32.9990000  0 11G25G 2S23G31S36G21G29S20G 5G26G12
  21078243.511     1251080.972                                  
  24029933.855     1393873.718                                  
  38449146.032      827516.5782                                 
  20862899.107      798850.319                                  
  38088574.984      816429.6562                                 
  23090950.962       74309.710                                  
  19890846.228      889924.349                                  
  38526080.788      637532.0252                                 
  24259626.281      406826.8182                                 
  22525009.095      182199.226                                  
  24083841.486     1249163.267                                  
 18  5  7 14  7 33.9990000  0 11G25G 2S23G31S36G21G29S20G 5G26G12
  21079223.908     1256231.348                                  
  24031034.240     1399654.741                                  
  38449736.251      830618.0752                                 
  20863535.273      802193.430                                  
  38089164.164      819526.8962                                 
  23090945.098       74279.372                                  
  19891520.016      893466.152                                  
  38526649.220      640518.8682                                 
  24259858.177      408046.8662                                 
  22525046.482      182394.5903                                 
  24085065.750     1255592.544                                  
 18  5  7 14  7 34.9990000  0 11G25G 2S23G31S36G21G29S20G 5G26G12
  21080206.006     1261388.850                                  
  24032135.130     1405442.760                                  
  38450327.726      833726.3862                                 
  20864172.938      805543.945                                  
  38089754.959      822630.8152                                 
  23090939.767       74256.011                                  
  19892195.391      897015.171                                  
  38527219.109      643512.5872                                 
  24260092.350      409274.1752                                 
  22525084.558      182596.7442                                 
  24086290.590     1262028.677                                  
 18  5  7 14  7 35.9990000  0 11G25G 2S23G31S36G21G29S20G 5G26G12
  21081188.200     1266548.814                                  
  24033236.858     1411233.176                                  
  38450919.140      836836.6522                                 
  20864811.372      808897.180                                  
  38090346.408      825736.7882                                 
  23090935.117       74235.036                                  
  19892871.012      900566.757                                  
  38527789.295      646508.5002                                 
  24260326.052      410503.9462                                 
  22525122.713      182801.2502                                 
  24087515.796     1268466.962                                  
 18  5  7 14  7 36.9990000  0 11G25G 2S23G31S36G21G29S20G 5G26G12
  21082168.998     1271704.430                                  
  24034337.758     1417019.207                                  
  38451510.170      839942.2402                                 
  20865449.762      812246.350                                  
  38090936.653      828838.0812                                 
  23090930.362       74209.558                                  
  19893546.187      904114.120                                  
  38528358.661      649500.0112                                 
  24260558.646      411729.4572                                 
  22525160.301      183001.1462                                 
  24088739.518     1274900.690                                  
 18  5  7 14  7 37.9990000  0 11G25G 2S23G31S36G21G29S20G 5G26G12
  21083150.032     1276859.295                                  
  24035439.311     1422804.377                                  
  38452100.773      843046.7132                                 
  20866087.044      815594.980                                  
  38091526.601      831938.3272                                 
  23090925.336       74183.203                                  
  19894221.187      907660.832                                  
  38528927.738      652490.1822                                 
  24260790.865      412954.2953                                 
  22525198.107      183200.1692                                 
  24089963.747     1281333.366                                  
 18  5  7 14  7 38.9990000  0 11G25G 2S23G31S36G21G29S20G 5G26G12
  21084131.729     1282019.951                                  
  24036541.746     1428595.281                                  
  38452693.077      846156.6772                                 
  20866726.150      818949.715                                  
  38092117.439      835043.9702                                 
  23090921.401       74162.508                                  
  19894897.479      911213.455                                  
  38529498.029      655485.6092                                 
  24261025.631      414184.9852                                 
  22525235.921      183404.7472                                 
  24091188.744     1287771.556                                  
 18  5  7 14  7 39.9990000  0 11G25G 2S23G31S36G21G29S20G 5G26G12
  21085113.775     1287183.524                                  
  24037644.077     1434389.057                                  
  38453285.110      849269.1432                                 
  20867365.787      822307.653                                  
  38092708.382      838152.1022                                 
  23090918.557       74144.624                                  
  19895573.440      914769.110                                  
  38530068.084      658483.4242                                 
  24261260.319      415418.7532                                 
  22525274.198      183612.1352                                 
  24092414.124     1294212.422                                  
 18  5  7 14  7 40.9990000  0 11G25G 2S23G31S36G21G29S20G 5G26G12
  21086093.727     1292335.320                                  
  24038743.964     1440170.946                                  
  38453874.910      852369.4312                                 
  20868002.842      825653.989                                  
  38093297.013      841248.0252                                 
  23090912.658       74114.783                                  
  19896247.777      918313.077                                  
  38530636.420      661469.1892                                 
  24261493.699      416640.6972                                 
  22525311.193      183807.4832                                 
  24093636.355     1300641.235                                  
 18  5  7 14  7 41.9990000  0 11G25G 2S23G31S36G21G29S20G 5G26G12
  21087073.085     1297478.408                                  
  24039842.691     1445944.002                                  
  38454462.223      855460.5132                                 
  20868637.838      828991.959                                  
  38093884.561      844334.8142                                 
  23090904.675       74076.109                                  
  19896920.963      921848.425                                  
  38531202.653      664445.9192                                 
  24261725.272      417854.0442                                 
  22525347.088      183993.9212                                 
  24094858.027     1307061.055                                  
 18  5  7 14  7 42.9990000  0 11G25G 2S23G31S36G21G29S20G 5G26G12
  21088052.679     1302627.035                                  
  24040942.185     1451722.575                                  
  38455052.128      858556.8322                                 
  20869274.038      832335.645                                  
  38094472.869      847426.7692                                 
  23090897.564       74042.830                                  
  19897595.178      925389.444                                  
  38531770.396      667428.0552                                 
  24261958.171      419073.0282                                 
  22525383.271      184185.7273                                 
  24096080.162     1313486.112                                  
 18  5  7 14  7 43.9990000  0 11G25G 2S23G31S36G21G29S20G 5G26G12
  21089034.307     1307782.389                                  
  24042042.378     1457507.760                                  
  38455642.992      861659.4852                                 
  20869912.123      835686.408                                  
  38095062.015      850525.0502                                 
  23090892.076       74016.159                                  
  19898270.048      928937.272                                  
  38532339.378      670416.4482                                 
  24262192.362      420298.7702                                 
  22525420.902      184383.9172                                 
  24097303.701     1319917.711                                  
 18  5  7 14  7 44.9990000  0 11G25G 2S23G31S36G21G29S20G 5G26G12
  21090013.447     1312929.573                                  
  24043141.192     1463284.736                                  
  38456231.519      864753.6392                                 
  20870547.294      839029.174                                  
  38095650.375      853614.7452                                 
  23090885.288       73981.206                                  
  19898943.365      932477.046                                  
  38532906.536      673396.2202                                 
  24262424.310      421516.4993                                 
  22525457.146      184573.9423                                 
  24098524.693     1326341.3593                                 
 18  5  7 14  7 45.9990000  0 10G25G 2S23G31S36G21G29S20G 5G26
  21090991.331     1318065.269                                  
  24044238.313     1469050.139                                  
  38456817.078      867835.8452                                 
  20871180.998      842360.859                                  
  38096237.060      856692.5052                                 
  23090875.961       73934.610                                  
  19899614.788      936005.453                                  
  38533471.094      676363.9182                                 
  24262654.304      422722.6912                                 
  22525490.843      184752.2073                                 
 18  5  7 14  7 46.9990000  0 10G25G 2S23G31S36G21G29S20G 5G26
  21091968.805     1323204.640                                  
  24045336.150     1474819.114                                  
  38457403.405      870921.3882                                 
  20871815.191      845696.347                                  
  38096823.510      859773.5772                                 
  23090867.096       73891.599                                  
  19900286.778      939537.646                                  
  38534036.377      679334.8732                                 
  24262884.760      423932.6762                                 
  22525525.752      184933.9452                                 
 18  5  7 14  7 47.9990000  0 11G25G 2S23G31S36G21G29S20G 5G26G12
  21092948.111     1328351.567                                  
  24046435.619     1480595.587                                  
  38457991.216      874014.0732                                 
  20872450.964      849039.704                                  
  38097411.198      862861.8732                                 
  23090859.488       73856.018                                  
  19900960.845      943077.480                                  
  38534603.186      682313.1332                                 
  24263116.264      425150.2562                                 
  22525562.345      185123.0582                                 
  24102184.152     1345589.5982                                 
 18  5  7 14  7 48.9990000  0 11G25G 2S23G31S36G21G29S20G 5G26G12
  21093926.606     1333495.233                                  
  24047533.944     1486368.722                                  
  38458580.100      877103.1792                                 
  20873087.173      852380.058                                  
  38097997.953      865946.5462                                 
  23090852.769       73817.034                                  
  19901633.412      946614.165                                  
  38535169.228      685287.9172                                 
  24263348.351      426364.6993                                 
  22525597.656      185308.6782                                 
  24103405.100     1352008.1333                                 
 18  5  7 14  7 49.9990000  0 11G25G 2S23G31S36G21G29S20G 5G26G12
  21094903.722     1338629.591                                  
  24048631.763     1492132.431                                  
  38459165.694      880182.6122                                 
  20873720.677      855711.417                                  
  38098583.225      869021.5142                                 
  23090843.660       73768.593                                  
  19902304.198      950141.646                                  
  38535733.812      688253.0642                                 
  24263577.874      427569.8592                                 
  22525631.003      185484.8202                                 
  24104624.172     1358417.1202                                 
 18  5  7 14  7 50.9990000  0 11G25G 2S23G31S36G21G29S20G 5G26G12
  21095880.411     1343763.417                                  
  24049728.414     1497895.587                                  
  38459751.725      883261.0992                                 
  20874355.114      859042.466                                  
  38099168.435      872095.5622                                 
  23090834.115       73719.474                                  
  19902975.857      953668.706                                  
  38536297.742      691217.0662                                 
  24263808.200      428774.5912                                 
  22525664.420      185660.2202                                 
  24105842.939     1364825.3333                                 
 18  5  7 14  7 51.9990000  0 11G25G 2S23G31S36G21G29S20G 5G26G12
  21096858.766     1348904.539                                  
  24050825.832     1503665.959                                  
  38460338.619      886346.5252                                 
  20874989.988      862381.051                                  
  38099755.530      875176.5742                                 
  23090825.905       73677.512                                  
  19903648.580      957203.155                                  
  38536862.701      694187.8302                                 
  24264040.078      429986.6462                                 
  22525699.792      185842.7192                                 
  24107063.748     1371240.4812                                 
 18  5  7 14  7 52.9990000  0 11G25G 2S23G31S36G21G29S20G 5G26G12
  21097837.392     1354049.204                                  
  24051924.331     1509439.755                                  
  38460926.238      889435.1822                                 
  20875626.110      865723.422                                  
  38100342.939      878260.8282                                 
  23090818.698       73639.050                                  
  19904321.609      960741.287                                  
  38537428.839      697161.8892                                 
  24264271.581      431202.3142                                 
  22525734.762      186028.6372                                 
  24108285.551     1377658.9483                                 
 18  5  7 14  7 53.9990000  0 11G25G 2S23G31S36G21G29S20G 5G26G12
  21098816.227     1359190.482                                  
  24053021.968     1515210.081                                  
  38461513.839      892519.9462                                 
  20876261.018      869062.718                                  
  38100928.481      881341.2422                                 
  23090810.662       73597.046                                  
  19904994.018      964276.103                                  
  38537993.458      700132.3632                                 
  24264503.739      432414.7142                                 
  22525769.418      186210.9122                                 
  24109506.351     1384073.7752                                 
 18  5  7 14  7 54.9990000  0 11G25G 2S23G31S36G21G29S20G 5G26G12
  21099794.503     1364331.612                                  
  24054119.211     1520980.231                                  
  38462100.384      895604.1862                                 
  20876896.398      872402.137                                  
  38101513.989      884421.1802                                 
  23090802.565       73554.730                                  
  19905666.323      967810.912                                  
  38538558.199      703102.1782                                 
  24264735.574      433626.9912                                 
  22525804.170      186392.909                                  
  24110728.442     1390488.2362                                 
 18  5  7 14  7 55.9990000  0 11G25G 2S23G31S36G21G29S20G 5G26G12
  21100773.766     1369478.964                                  
  24055218.418     1526756.503                                  
  38462688.413      898694.3092                                 
  20877532.485      875748.010                                  
  38102101.241      887506.8662                                 
  23090795.550       73518.512                                  
  19906340.555      971352.031                                  
  38539124.223      706077.7012                                 
  24264967.487      434845.6652                                 
  22525839.062      186580.810                                  
  24111950.864     1396908.6002                                 
 18  5  7 14  7 56.9990000  0 11G25G 2S23G31S36G21G29S20G 5G26G12
  21101753.631     1374629.291                                  
  24056318.000     1532535.666                                  
  38463276.494      901787.0042                                 
  20878170.456      879097.124                                  
  38102688.851      890595.0752                                 
  23090789.251       73485.104                                  
  19907015.268      974896.244                                  
  38539691.286      709055.9802                                 
  24265198.755      436067.2922                                 
  22525875.053      186771.606                                  
  24113173.950     1403331.6312                                 
 18  5  7 14  7 57.9990000  0 11G25G 2S23G31S36G21G29S20G 5G26G12
  21102731.532     1379768.256                                  
  24057414.851     1538303.391                                  
  38463863.851      904867.9062                                 
  20878805.592      882435.168                                  
  38103274.750      893671.5962                                 
  23090781.145       73440.290                                  
  19907687.669      978429.181                                  
  38540255.704      712022.6632                                 
  24265429.255      437277.6862                                 
  22525909.290      186950.811                                  
  24114394.863     1409743.0472                                 
 18  5  7 14  7 58.9990000  0 11G25G 2S23G31S36G21G29S20G 5G26G12
  21103707.505     1384898.480                                  
  24058510.995     1544062.285                                  
  38464449.158      907939.7502                                 
  20879438.694      885764.736                                  
  38103858.321      896738.9882                                 
  23090771.731       73386.573                                  
  19908358.909      981953.490                                  
  38540819.041      714980.0802                                 
  24265657.050      438479.3852                                 
  22525942.742      187121.096                                  
  24115612.958     1416145.5263                                 
 18  5  7 14  7 59.9990000  0 11G25G 2S23G31S36G21G29S20G 5G26G12
  21104685.154     1390035.294                                  
  24059608.989     1549827.724                                  
  38465035.171      911017.8232                                 
  20880073.777      889101.140                                  
  38104442.484      899812.6252                                 
  23090763.276       73339.305                                  
  19909030.725      985484.496                                  
  38541382.997      717943.6342                                 
  24265886.704      439687.7232                                 
  22525977.451      187297.768                                  
  24116831.847     1422554.2622                                 
 18  5  7 14  8  0.9990000  0 11G25G 2S23G31S36G21G29S20G 5G26G12
  21105663.064     1395177.482                                  
  24060707.070     1555598.455                                  
  38465621.603      914100.8852                                 
  20880710.108      892443.189                                  
  38105028.715      902891.2312                                 
  23090754.542       73297.312                                  
  19909703.579      989020.996                                  
  38541947.468      720912.1912                                 
  24266118.059      440901.056                                  
  22526011.854      187479.612                                  
  24118052.673     1428968.1173                                 
 18  5  7 14  8  1.9990000  0 11G25G 2S23G31S36G21G29S20G 5G26G12
  21106638.584     1400310.047                                  
  24061803.223     1561359.449                                  
  38466206.595      917173.9382                                 
  20881344.572      895775.892                                  
  38105612.137      905959.8622                                 
  23090744.159       73245.548                                  
  19910374.723      992547.965                                  
  38542510.351      723870.8202                                 
  24266346.630      442105.324                                  
  22526044.748      187651.680                                  
  24119270.716     1435372.1523                                 
 18  5  7 14  8  2.9990000  0 10G25G 2S23G31S36G21G29S20G 5G26
  21107613.798     1405434.372                                  
  24062898.695     1567112.130                                  
  38466789.834      920238.3862                                 
  20881976.453      899100.594                                  
  38106194.626      909019.8152                                 
  23090732.851       73185.391                                  
  19911044.619      996066.791                                  
  38543071.820      726820.5842                                 
  24266573.379      443301.412                                  
  22526076.027      187815.242                                  
 18  5  7 14  8  3.9990000  0 10G25G 2S23G31S36G21G29S20G 5G26
  21108590.155     1410564.762                                  
  24063995.223     1572870.830                                  
  38467374.277      923308.5052                                 
  20882609.617      902431.643                                  
  38106777.559      912085.4582                                 
  23090722.966       73131.180                                  
  19911715.031      999591.814                                  
  38543633.464      729776.2802                                 
  24266801.104      444503.685                                  
  22526109.724      187984.712                                  
 18  5  7 14  8  4.9990000  0 10G25G 2S23G31S36G21G29S20G 5G26
  21109568.013     1415702.932                                  
  24065092.807     1578637.157                                  
  38467959.644      926386.0322                                 
  20883244.709      905770.691                                  
  38107362.621      915158.5312                                 
  23090713.438       73084.622                                  
  19912387.658     1003124.697                                  
  38544196.775      732739.4862                                 
  24267030.016      445713.738                                  
  22526142.661      188161.753                                  
 18  5  7 14  8  5.9990000  0 10G25G 2S23G31S36G21G29S20G 5G26
  21110544.911     1420835.920                                  
  24066188.794     1584398.278                                  
  38468544.130      929457.9802                                 
  20883879.373      909104.843                                  
  38107946.113      918226.0922                                 
  23090703.832       73032.747                                  
  19913059.029     1006652.525                                  
  38544760.286      735696.9182                                 
  24267258.954      446918.744                                  
  22526175.581      188333.444                                  
 18  5  7 14  8  6.9990000  0 10G25G 2S23G31S36G21G29S20G 5G26
  21111519.881     1425960.606                                  
  24067283.333     1590151.007                                  
  38469127.709      932521.2302                                 
  20884512.092      912430.971                                  
  38108528.243      921284.8992                                 
  23090692.707       72972.460                                  
  19913728.489     1010172.163                                  
  38545321.546      738645.5812                                 
  24267487.325      448115.505                                  
  22526206.188      188496.594                                  
 18  5  7 14  8  7.9990000  0 10G25G 2S23G31S36G21G29S20G 5G26
  21112495.758     1431088.007                                  
  24068377.959     1595906.364                                  
  38469711.628      935586.7692                                 
  20885145.648      915760.093                                  
  38109110.391      924345.9772                                 
  23090682.036       72914.720                                  
  19914399.118     1013694.601                                  
  38545883.225      741596.4182                                 
  24267715.705      449315.037                                  
  22526237.337      188662.316                                  
 18  5  7 14  8  8.9990000  0 10G25G 2S23G31S36G21G29S20G 5G26
  21113472.185     1436223.209                                  
  24069474.731     1601669.437                                  
  38470297.136      938659.8642                                 
  20885780.330      919097.294                                  
  38109694.502      927414.4632                                 
  23090672.037       72864.695                                  
  19915070.646     1017224.969                                  
  38546446.405      744554.8802                                 
  24267944.180      450522.458                                  
  22526269.672      188835.673                                  
 18  5  7 14  8  9.9990000  0 10G25G 2S23G31S36G21G29S20G 5G26
  21114449.118     1441358.545                                  
  24070571.678     1607432.571                                  
  38470881.735      941732.6122                                 
  20886416.399      922434.780                                  
  38110278.544      930482.7062                                 
  23090662.274       72814.657                                  
  19915742.323     1020755.562                                  
  38547009.157      747513.3032                                 
  24268173.563      451730.064                                  
  22526302.191      189008.8653                                 
 18  5  7 14  8 10.9990000  0 10G25G 2S23G31S36G21G29S20G 5G26
  21115426.304     1446489.534                                  
  24071667.630     1613191.266                                  
  38471465.751      944800.6532                                 
  20887050.680      925768.187                                  
  38110861.686      933546.3162                                 
  23090651.289       72760.105                                  
  19916413.004     1024281.898                                  
  38547571.577      750466.9392                                 
  24268402.772      452933.456                                  
  22526334.648      189177.5022                                 
 18  5  7 14  8 11.9990000  0 10G25G 2S23G31S36G21G29S20G 5G26
  21116402.425     1451622.400                                  
  24072763.722     1618951.758                                  
  38472049.870      947870.2142                                 
  20887685.257      929103.896                                  
  38111445.091      936611.2982                                 
  23090640.723       72707.361                                  
  19917084.628     1027810.236                                  
  38548133.457      753421.9062                                 
  24268632.530      454138.720                                  
  22526367.524      189347.9462                                 
 18  5  7 14  8 12.9990000  0 10G25G 2S23G31S36G21G29S20G 5G26
  21117380.510     1456762.198                                  
  24073860.773     1624719.112                                  
  38472636.067      950946.3142                                 
  20888320.532      932446.721                                  
  38112029.690      939682.9482                                 
  23090631.518       72661.435                                  
  19917757.788     1031345.625                                  
  38548696.916      756383.2672                                 
  24268862.524      455351.046                                  
  22526401.352      189525.0962                                 
 18  5  7 14  8 13.9990000  0 10G25G 2S23G31S36G21G29S20G 5G26
  21118357.967     1461904.794                                  
  24074958.697     1630489.203                                  
  38473222.394      954024.8332                                 
  20888957.169      935792.591                                  
  38112613.871      942756.9822                                 
  23090622.976       72618.137                                  
  19918430.721     1034883.917                                  
  38549260.287      759347.3122                                 
  24269093.347      456566.257                                  
  22526435.458      189704.8572                                 
 18  5  7 14  8 14.9990000  0 10G25G 2S23G31S36G21G29S20G 5G26
  21119335.440     1467043.569                                  
  24076056.499     1636255.363                                  
  38473806.959      957099.2052                                 
  20889593.072      939134.909                                  
  38113198.323      945826.8802                                 
  23090613.850       72570.938                                  
  19919103.863     1038418.489                                  
  38549823.536      762307.3482                                 
  24269324.030      457777.717                                  
  22526468.875      189880.6032                                 
 18  5  7 14  8 15.9990000  0 11G25G 2S23G31S36G21G29S20G 5G26G12
  21120312.373     1472181.254                                  
  24077154.092     1642020.365                                  
  38474391.725      960172.0242                                 
  20890229.106      942476.369                                  
  38113782.181      948895.3082                                 
  23090604.915       72522.478                                  
  19919775.635     1041952.073                                  
  38550386.803      765265.6382                                 
  24269554.356      458988.148                                  
  22526502.764      190055.0602                                 
  24136334.036     1525013.6633                                 
 18  5  7 14  8 16.9990000  0 11G25G 2S23G31S36G21G29S20G 5G26G12
  21121291.113     1477324.234                                  
  24078252.862     1647790.589                                  
  38474977.014      963249.7672                                 
  20890865.847      945823.441                                  
  38114367.854      951968.6612                                 
  23090596.853       72479.178                                  
  19920449.920     1045491.052                                  
  38550950.690      768228.6342                                 
  24269785.126      460203.895                                  
  22526536.739      190234.5902                                 
  24137562.497     1531424.0442                                 
 18  5  7 14  8 17.9990000  0 11G25G 2S23G31S36G21G29S20G 5G26G12
  21122269.921     1482470.253                                  
  24079351.886     1653563.785                                  
  38475562.276      966330.1952                                 
  20891503.583      949173.747                                  
  38114953.379      955044.6842                                 
  23090588.617       72438.837                                  
  19921123.516     1049033.195                                  
  38551515.309      771194.4822                                 
  24270016.455      461422.834                                  
  22526572.058      190416.9912                                 
  24138776.718     1537837.2232                                 
 18  5  7 14  8 18.9990000  0 11G25G 2S23G31S36G21G29S20G 5G26G12
  21123246.933     1487606.630                                  
  24080449.417     1659327.271                                  
  38476147.068      969400.5592                                 
  20892139.347      952514.766                                  
  38115536.669      958110.7022                                 
  23090579.359       72388.700                                  
  19921795.611     1052565.765                                  
  38552077.790      774150.5172                                 
  24270246.867      462632.153                                  
  22526605.048      190589.532                                  
  24139993.155     1544240.4662                                 
 18  5  7 14  8 19.9990000  0 11G25G 2S23G31S36G21G29S20G 5G26G12
  21124222.234     1492734.074                                  
  24081544.392     1665081.692                                  
  38476729.984      972461.6422                                 
  20892773.461      955847.044                                  
  38116118.495      961167.4932                                 
  23090567.833       72329.516                                  
  19922466.153     1056089.550                                  
  38552637.646      777097.2772                                 
  24270476.085      463832.595                                  
  22526636.659      190753.031                                  
  24141211.006     1550634.5002                                 
 18  5  7 14  8 20.9990000  0 11G25G 2S23G31S36G21G29S20G 5G26G12
  21125198.295     1497866.500                                  
  24082640.091     1670841.030                                  
  38477313.319      975527.3602                                 
  20893408.815      959184.608                                  
  38116701.149      964228.8912                                 
  23090557.163       72275.150                                  
  19923137.489     1059618.392                                  
  38553199.019      780048.6012                                 
  24270705.642      465038.171                                  
  22526668.890      190921.225                                  
  24142426.614     1557033.2282                                 
 18  5  7 14  8 21.9990000  0 11G25G 2S23G31S36G21G29S20G 5G26G12
  21126175.123     1503005.390                                  
  24083737.073     1676606.783                                  
  38477897.081      978599.1742                                 
  20894044.614      962528.953                                  
  38117284.989      967296.5062                                 
  23090548.150       72227.194                                  
  19923810.178     1063153.833                                  
  38553761.736      783006.0132                                 
  24270936.771      466250.257                                  
  22526701.984      191095.770                                  
  24143645.564     1563438.1872                                 
 18  5  7 14  8 22.9990000  0 11G25G 2S23G31S36G21G29S20G 5G26G12
  21127151.925     1508137.466                                  
  24084832.301     1682365.611                                  
  38478479.927      981663.7492                                 
  20894679.924      965866.622                                  
  38117866.788      970356.9652                                 
  23090538.718       72172.257                                  
  19924481.549     1066682.535                                  
  38554323.049      785956.1542                                 
  24271165.892      467455.584                                  
  22526734.424      191263.221                                  
  24144864.270     1569836.0732                                 
 18  5  7 14  8 23.9990000  0 11G25G 2S23G31S36G21G29S20G 5G26G12
  21128126.110     1513260.613                                  
  24085926.351     1688115.450                                  
  38479060.897      984719.0632                                 
  20895313.690      969195.650                                  
  38118447.488      973408.1552                                 
  23090525.778       72108.254                                  
  19925151.323     1070202.427                                  
  38554883.009      788896.9832                                 
  24271393.521      468652.080                                  
  22526764.700      191421.615                                  
  24146080.314     1576224.7462                                 
 18  5  7 14  8 24.9990000  0 11G25G 2S23G31S36G21G29S20G 5G26G12
  21129100.931     1518386.265                                  
  24087021.300     1693867.705                                  
  38479642.155      987776.5032                                 
  20895947.787      972527.545                                  
  38119028.545      976461.5302                                 
  23090513.895       72046.642                                  
  19925822.057     1073724.925                                  
  38555442.969      791839.9612                                 
  24271621.535      469851.193                                  
  22526795.683      191582.307                                  
  24147296.760     1582615.120                                  
 18  5  7 14  8 25.9990000  0 11G25G 2S23G31S36G21G29S20G 5G26G12
  21130076.896     1523519.375                                  
  24088117.217     1699627.335                                  
  38480224.573      990840.9502                                 
  20896583.149      975867.052                                  
  38119611.007      979521.9692                                 
  23090504.062       71992.355                                  
  19926493.655     1077254.985                                  
  38556004.753      794789.8402                                 
  24271850.176      471057.755                                  
  22526827.721      191750.272                                  
  24148514.986     1589013.246                                  
 18  5  7 14  8 26.9990000  0 11G25G 2S23G31S36G21G29S20G 5G26G12
  21131054.047     1528651.811                                  
  24089212.410     1705386.216                                  
  38480807.594      993904.3333                                 
  20897219.698      979206.222                                  
  38120192.972      982581.3212                                 
  23090494.272       71937.300                                  
  19927165.183     1080784.505                                  
  38556566.205      797738.8942                                 
  24272079.690      472264.2853                                 
  22526859.821      191917.390                                  
  24149732.497     1595410.439                                  
 18  5  7 14  8 27.9990000  0 11G25G 2S23G31S36G21G29S20G 5G26G12
  21132030.666     1533779.944                                  
  24090307.098     1711140.718                                  
  38481389.454      996963.0922                                 
  20897854.598      982541.330                                  
  38120774.003      985635.9062                                 
  23090482.685       71877.795                                  
  19927835.856     1084309.816                                  
  38557126.261      800683.3562                                 
  24272307.939      473466.0682                                 
  22526891.083      192079.968                                  
  24150948.306     1601802.975                                  
 18  5  7 14  8 28.9990000  0 11G25G 2S23G31S36G21G29S20G 5G26G12
  21133007.180     1538909.954                                  
  24091403.320     1716896.955                                  
  38481972.370     1000023.3282                                 
  20898488.626      985878.528                                  
  38121355.794      988691.9222                                 
  23090472.573       71820.000                                  
  19928507.174     1087837.061                                  
  38557687.102      803629.0192                                 
  24272537.976      474669.8032                                 
  22526922.590      192244.221                                  
  24152164.769     1608197.169                                  
 18  5  7 14  8 29.9990000  0 11G25G 2S23G31S36G21G29S20G 5G26G12
  21133984.855     1544046.954                                  
  24092499.761     1722660.164                                  
  38482556.777     1003090.2322                                 
  20899124.704      989223.025                                  
  38121938.308      991754.5362                                 
  23090462.338       71769.109                                  
  19929179.976     1091371.430                                  
  38558249.304      806581.2392                                 
  24272769.052      475880.6162                                 
  22526955.178      192415.337                                  
  24153382.166     1614598.070                                  
 18  5  7 14  8 30.9990000  0 11G25G 2S23G31S36G21G29S20G 5G26G12
  21134962.669     1549185.656                                  
  24093596.053     1728424.971                                  
  38483140.941     1006158.3972                                 
  20899761.192      992569.5253                                 
  38122520.988      994818.4092                                 
  23090452.487       71719.753                                  
  19929852.970     1094907.613                                  
  38558811.830      809535.0572                                 
  24273000.398      477093.1482                                 
  22526987.792      192587.895                                  
  24154599.493     1621000.8833                                 
 18  5  7 14  8 31.9990000  0 10G25G 2S23G31S36G21G29S20G 5G26
  21135939.916     1554320.984                                  
  24094691.770     1734186.315                                  
  38483723.909     1009222.8532                                 
  20900396.484      995912.8782                                 
  38123103.241      997878.3512                                 
  23090442.044       71666.948                                  
  19930525.371     1098440.518                                  
  38559373.020      812485.1502                                 
  24273230.375      478302.4072                                 
  22527020.040      192756.935                                  
 18  5  7 14  8 32.9990000  0 10G25G 2S23G31S36G21G29S20G 5G26
  21136917.512     1559455.718                                  
  24095788.848     1739947.001                                  
  38484307.479     1012286.2572                                 
  20901031.585      999255.9022                                 
  38123685.232     1000937.2262                                 
  23090431.338       71613.401                                  
  19931197.291     1101972.932                                  
  38559934.079      815433.9652                                 
  24273459.863      479511.1532                                 
  22527051.957      192925.200                                  
 18  5  7 14  8 33.9990000  0 10G25G 2S23G31S36G21G29S20G 5G26
  21137896.399     1564596.990                                  
  24096885.934     1745714.156                                  
  38484891.913     1015355.8762                                 
  20901668.169     1002605.7172                                 
  38124268.889     1004002.3982                                 
  23090422.325       71566.270                                  
  19931870.983     1105512.008                                  
  38560495.845      818388.7792                                 
  24273690.528      480726.5352                                 
  22527085.086      193099.800                                  
 18  5  7 14  8 34.9990000  0 10G25G 2S23G31S36G21G29S20G 5G26
  21138876.212     1569742.007                                  
  24097983.614     1751484.960                                  
  38485477.403     1018428.8392                                 
  20902306.576     1005959.5972                                 
  38124852.459     1007071.0252                                 
  23090413.914       71522.758                                  
  19932545.469     1109054.932                                  
  38561058.903      821346.8312                                 
  24273921.875      481945.7692                                 
  22527119.498      193277.907                                  
 18  5  7 14  8 35.9990000  0 10G25G 2S23G31S36G21G29S20G 5G26
  21139852.822     1574877.497                                  
  24099079.645     1757246.137                                  
  38486060.258     1021491.9192                                 
  20902942.907     1009304.1532                                 
  38125434.372     1010129.7132                                 
  23090403.548       71469.573                                  
  19933217.660     1112588.415                                  
  38561620.032      824295.3502                                 
  24274151.877      483155.4972                                 
  22527151.720      193446.339                                  
 18  5  7 14  8 36.9990000  0 11G25G 2S23G31S36G21G29S20G 5G26G12
  21140829.092     1580003.326                                  
  24100174.463     1762997.639                                  
  38486640.582     1024544.9722                                 
  20903578.566     1012639.3422                                 
  38126015.168     1013178.3332                                 
  23090391.386       71406.645                                  
  19933888.883     1116112.368                                  
  38562178.866      827233.9422                                 
  24274379.603      484355.151                                  
  22527181.952      193604.921                                  
  24161902.287     1659394.9513                                 
 18  5  7 14  8 38.0000000  0 11G25G 2S23G31S36G21G29S20G 5G26G12
  21141807.560     1585139.253                                  
  24101271.043     1768759.719                                  
  38487223.001     1027605.6712                                 
  20904216.293     1015983.0922                                 
  38126596.434     1016234.4612                                 
  23090379.755       71348.477                                  
  19934560.655     1119644.922                                  
  38562739.167      830180.0872                                 
  24274608.942      485561.554                                  
  22527213.066      193768.407                                  
  24163125.268     1665793.5763                                 
 18  5  7 14  8 39.0000000  0 11G25G 2S23G31S36G21G29S20G 5G26G12
  21142785.855     1590277.731                                  
  24102368.217     1774523.670                                  
  38487805.916     1030670.5892                                 
  20904854.169     1019331.4582                                 
  38127179.682     1019294.9142                                 
  23090370.480       71297.936                                  
  19935233.692     1123181.720                                  
  38563300.977      833130.5002                                 
  24274839.459      486774.495                                  
  22527245.611      193939.263                                  
  24164348.188     1672193.5562                                 
 18  5  7 14  8 40.0000000  0 11G25G 2S23G31S36G21G29S20G 5G26G12
  21143762.299     1595410.065                                  
  24103463.314     1780281.347                                  
  38488388.230     1033728.9812                                 
  20905490.595     1022673.9222                                 
  38127760.137     1022348.8942                                 
  23090359.958       71241.105                                  
  19935905.988     1126712.478                                  
  38563861.137      836074.5472                                 
  24275067.909      487981.376                                  
  22527277.065      194103.734                                  
  24165560.507     1678587.1923                                 
 18  5  7 14  8 41.0000000  0 11G25G 2S23G31S36G21G29S20G 5G26G12
  21144736.457     1600533.024                                  
  24104557.085     1786029.630                                  
  38488968.101     1036777.6652                                 
  20906125.775     1026007.2972                                 
  38128339.519     1025393.1202                                 
  23090347.045       71174.802                                  
  19936575.762     1130233.992                                  
  38564419.317      839008.6622                                 
  24275295.373      489179.035                                  
  22527306.329      194258.675                                  
  24166778.157     1684971.0693                                 
 18  5  7 14  8 42.0000000  0 11G25G 2S23G31S36G21G29S20G 5G26G12
  21145713.765     1605657.282                                  
  24105651.187     1791779.070                                  
  38489548.530     1039827.1722                                 
  20906761.102     1029342.1882                                 
  38128919.285     1028438.2022                                 
  23090334.053       71109.602                                  
  19937246.200     1133756.876                                  
  38564977.742      841943.3792                                 
  24275522.321      490377.996                                  
  22527336.081      194414.703                                  
  24167988.967     1691356.0232                                 
 18  5  7 14  8 43.0000000  0 11G25G 2S23G31S36G21G29S20G 5G26G12
  21146690.158     1610788.679                                  
  24106746.904     1797535.648                                  
  38490131.271     1042883.4952                                 
  20907397.538     1032684.547                                  
  38129499.208     1031490.1122                                 
  23090323.993       71051.516                                  
  19937918.382     1137287.029                                  
  38565537.135      844885.0532                                 
  24275752.149      491584.190                                  
  22527367.308      194577.728                                  
  24169208.938     1697747.8382                                 
 18  5  7 14  8 44.0000000  0 11G25G 2S23G31S36G21G29S20G 5G26G12
  21147666.654     1615921.149                                  
  24107842.088     1803293.147                                  
  38490714.257     1045940.4762                                 
  20908034.000     1036028.169                                  
  38130080.405     1034542.6702                                 
  23090313.462       70994.338                                  
  19938590.024     1140818.349                                  
  38566096.946      847827.3272                                 
  24275982.004      492791.547                                  
  22527398.431      194741.597                                  
  24170428.280     1704140.4653                                 
 18  5  7 14  8 45.0000000  0 11G25G 2S23G31S36G21G29S20G 5G26G12
  21148643.291     1621050.410                                  
  24108937.622     1809047.360                                  
  38491295.593     1048993.8552                                 
  20908669.955     1039368.887                                  
  38130661.201     1037591.6842                                 
  23090301.848       70933.824                                  
  19939261.063     1144346.557                                  
  38566656.182      850766.1262                                 
  24276210.977      493995.766                                  
  22527429.300      194902.068                                  
  24171644.194     1710529.6202                                 
 18  5  7 14  8 46.0000000  0 11G25G 2S23G31S36G21G29S20G 5G26G12
  21149619.421     1626181.484                                  
  24110032.780     1814803.324                                  
  38491876.703     1052048.6952                                 
  20909306.565     1042711.689                                  
  38131241.717     1040642.1382                                 
  23090290.296       70874.995                                  
  19939933.385     1147876.692                                  
  38567215.689      853706.4592                                 
  24276440.107      495201.903                                  
  22527460.754      195064.154                                  
  24172860.588     1716920.3032                                 
 18  5  7 14  8 47.0000000  0 11G25G 2S23G31S36G21G29S20G 5G26G12
  21150598.038     1631318.853                                  
  24111128.750     1820565.508                                  
  38492458.319     1055109.4672                                 
  20909944.162     1046061.076                                  
  38131823.769     1043698.5502                                 
  23090280.673       70822.348                                  
  19940605.899     1151413.215                                  
  38567776.914      856652.6952                                 
  24276670.406      496414.376                                  
  22527493.395      195232.384                                  
  24174077.112     1723317.0242                                 
 18  5  7 14  8 48.0000000  0 11G25G 2S23G31S36G21G29S20G 5G26G12
  21151576.567     1636460.239                                  
  24112225.487     1826331.579                                  
  38493041.069     1058173.8442                                 
  20910583.127     1049414.669                                  
  38132405.664     1046758.5152                                 
  23090271.590       70773.578                                  
  19941279.757     1154953.858                                  
  38568338.287      859602.6092                                 
  24276902.171      497630.945                                  
  22527525.913      195404.388                                  
  24175294.998     1729717.4592                                 
 18  5  7 14  8 49.0000000  0 11G25G 2S23G31S36G21G29S20G 5G26G12
  21152554.277     1641597.978                                  
  24113321.631     1832093.981                                  
  38493623.854     1061234.2132                                 
  20911220.933     1052764.934                                  
  38132986.940     1049814.4772                                 
  23090261.495       70721.040                                  
  19941952.689     1158490.964                                  
  38568899.233      862548.3552                                 
  24277133.919      498843.942                                  
  22527557.463      195572.591                                  
  24176512.622     1736114.0142                                 
 18  5  7 14  8 50.0000000  0 11G25G 2S23G31S36G21G29S20G 5G26G12
  21153530.835     1646728.327                                  
  24114416.694     1837848.857                                  
  38494205.278     1064286.7952                                 
  20911856.801     1056108.032                                  
  38133567.412     1052862.6672                                 
  23090250.746       70661.000                                  
  19942624.497     1162020.772                                  
  38569458.574      865486.3662                                 
  24277363.529      500049.607                                  
  22527588.158      195733.199                                  
  24177727.820     1742502.8762                                 
 18  5  7 14  8 51.0000000  0 11G25G 2S23G31S36G21G29S20G 5G26G12
  21154508.736     1651864.164                                  
  24115513.518     1843609.184                                  
  38494787.085     1067344.5082                                 
  20912493.342     1059456.908                                  
  38134148.190     1055916.0212                                 
  23090240.773       70606.321                                  
  19943297.551     1165556.201                                  
  38570018.403      868429.5422                                 
  24277594.212      501260.868                                  
  22527619.490      195899.099                                  
  24178943.672     1748897.0362                                 
 18  5  7 14  8 52.0000000  0 11G25G 2S23G31S36G21G29S20G 5G26G12
  21155487.545     1657006.282                                  
  24116610.282     1849375.696                                  
  38495368.902     1070408.1552                                 
  20913131.400     1062812.318                                  
  38134729.920     1058975.1762                                 
  23090231.576       70557.833                                  
  19943971.051     1169098.019                                  
  38570579.462      871378.5702                                 
  24277826.090      502479.0303                                 
  22527652.637      196071.107                                  
  24180160.825     1755297.1282                                 
 18  5  7 14  8 53.0000000  0 11G25G 2S23G31S36G21G29S20G 5G26G12
  21156465.010     1662141.100                                  
  24117705.911     1855134.823                                  
  38495949.715     1073464.1252                                 
  20913767.792     1066160.733                                  
  38135310.200     1062026.6122                                 
  23090220.565       70501.901                                  
  19944643.208     1172632.630                                  
  38571139.004      874319.8042                                 
  24278055.753      503689.4722                                 
  22527684.213      196235.608                                  
  24181377.079     1761689.6932                                 
 18  5  7 14  8 54.0000000  0 11G25G 2S23G31S36G21G29S20G 5G26G12
  21157440.635     1667267.509                                  
  24118799.918     1860885.469                                  
  38496529.472     1076511.2572                                 
  20914402.753     1069500.955                                  
  38135889.199     1065069.1542                                 
  23090208.141       70437.427                                  
  19945314.736     1176158.926                                  
  38571697.027      877252.0132                                 
  24278284.080      504891.5772                                 
  22527715.013      196391.547                                  
  24182591.291     1768073.5422                                 
 18  5  7 14  8 55.0000000  0 11G25G 2S23G31S36G21G29S20G 5G26G12
  21158417.297     1672398.687                                  
  24119894.727     1866640.795                                  
  38497108.758     1079562.8032                                 
  20915038.604     1072846.241                                  
  38136469.078     1068116.1332                                 
  23090196.179       70377.580                                  
  19945986.586     1179690.112                                  
  38572255.765      880188.7722                                 
  24278513.306      506098.4792                                 
  22527745.612      196552.004                                  
  24183806.001     1774461.9093                                 
 18  5  7 14  8 56.0000000  0 11G25G 2S23G31S36G21G29S20G 5G26G12
  21159395.138     1677536.985                                  
  24120991.482     1872403.153                                  
  38497690.767     1082621.0382                                 
  20915675.302     1076198.866                                  
  38137049.900     1071169.9542                                 
  23090186.215       70324.742                                  
  19946659.694     1183228.518                                  
  38572816.074      883132.6672                                 
  24278745.429      507312.6012                                 
  22527777.197      196719.425                                  
  24185021.487     1780857.1012                                 
 18  5  7 14  8 57.0000000  0 11G25G 2S23G31S36G21G29S20G 5G26G12
  21160372.001     1682670.668                                  
  24122086.527     1878160.837                                  
  38498271.650     1085674.3072                                 
  20916312.139     1079547.180                                  
  38137630.277     1074218.8352                                 
  23090175.483       70267.159                                  
  19947332.321     1186762.419                                  
  38573375.764      886071.5313                                 
  24278975.763      508522.2102                                 
  22527807.717      196882.025                                  
  24186237.174     1787247.4383                                 
 18  5  7 14  8 58.0000000  0 10G25G 2S23G31S36G21G29S20G 5G26
  21161346.875     1687795.331                                  
  24123180.394     1883909.400                                  
  38498851.058     1088718.1412                                 
  20916948.339     1082886.726                                  
  38138208.882     1077258.3132                                 
  23090162.395       70200.472                                  
  19948003.334     1190287.420                                  
  38573933.551      889000.7762                                 
  24279203.619      509722.8472                                 
  22527836.981      197035.490                                  
 18  5  7 14  8 59.0000000  0 10G25G 2S23G31S36G21G29S20G 5G26
  21162322.926     1692922.707                                  
  24124274.609     1889660.609                                  
  38499431.182     1091764.4032                                 
  20917584.102     1086229.242                                  
  38138787.279     1080300.1652                                 
  23090150.285       70136.303                                  
  19948674.871     1193815.205                                  
  38574490.562      891932.1742                                 
  24279433.648      510926.2582                                 
  22527866.577      197191.359                                  
 18  5  7 14  9  0.0000000  0 10G25G 2S23G31S36G21G29S20G 5G26
  21163299.851     1698057.551                                  
  24125370.693     1895419.193                                  
  38500012.160     1094817.7392                                 
  20918221.358     1089579.511                                  
  38139368.048     1083349.0802                                 
  23090139.849       70079.501                                  
  19949347.237     1197350.592                                  
  38575049.754      894870.7682                                 
  24279663.598      512137.2073                                 
  22527897.786      197354.591                                  
 18  5  7 14  9  1.0000000  0 11G25G 2S23G31S36G21G29S20G 5G26G12
  21164276.993     1703193.408                                  
  24126467.221     1901178.728                                  
  38500593.497     1097871.6992                                 
  20918859.940     1092931.049                                  
  38139948.084     1086398.5772                                 
  23090129.100       70023.577                                  
  19950020.335     1200887.080                                  
  38575608.990      897809.8892                                 
  24279894.438      513349.3402                                 
  22527929.127      197518.557                                  
  24191095.358     1812794.0793                                 
 18  5  7 14  9  2.0000000  0 10G25G 2S23G31S36G21G29S20G 5G26
  21165253.760     1708325.621                                  
  24127562.597     1906934.479                                  
  38501173.080     1100921.5852                                 
  20919497.510     1096279.210                                  
  38140527.493     1089443.9752                                 
  23090117.347       69963.898                                  
  19950692.701     1204420.019                                  
  38576167.999      900745.0842                                 
  24280122.862      514557.8793                                 
  22527959.298      197678.744                                  
 18  5  7 14  9  3.0000000  0 10G25G 2S23G31S36G21G29S20G 5G26
  21166229.629     1713460.695                                  
  24128659.177     1912693.026                                  
  38501752.881     1103973.9982                                 
  20920135.185     1099630.505                                  
  38141108.219     1092491.9752                                 
  23090106.450       69907.041                                  
  19951365.790     1207955.943                                  
  38576726.895      903682.9942                                 
  24280353.344      515769.3142                                 
  22527989.819      197841.606                                  
 18  5  7 14  9  4.0000000  0 10G25G 2S23G31S36G21G29S20G 5G26
  21167208.246     1718602.601                                  
  24129755.915     1918458.350                                  
  38502334.828     1107032.8652                                 
  20920774.543     1102988.861                                  
  38141689.799     1095546.4912                                 
  23090096.590       69856.807                                  
  19952040.198     1211498.819                                  
  38577287.623      906627.4772                                 
  24280585.764      516987.7323                                 
  22528022.512      198011.126                                  
 18  5  7 14  9  5.0000000  0 10G25G 2S23G31S36G21G29S20G 5G26
  21168187.822     1723747.689                                  
  24130853.132     1924226.774                                  
  38502918.006     1110094.4452                                 
  20921414.713     1106350.703                                  
  38142271.537     1098603.7932                                 
  23090088.014       69809.633                                  
  19952715.198     1215044.961                                  
  38577848.900      909574.7922                                 
  24280818.907      518209.2942                                 
  22528055.187      198183.623                                  
 18  5  7 14  9  6.0000000  0 10G25G 2S23G31S36G21G29S20G 5G26
  21169166.535     1728889.719                                  
  24131950.280     1929992.040                                  
  38503499.996     1113152.6642                                 
  20922053.871     1109709.728                                  
  38142852.167     1101657.6112                                 
  23090079.323       69759.304                                  
  19953388.646     1218588.150                                  
  38578409.078      912518.6132                                 
  24281050.716      519427.9642                                 
  22528087.749      198352.883                                  
 18  5  7 14  9  7.0000000  0 10G25G 2S23G31S36G21G29S20G 5G26
  21170144.986     1734026.070                                  
  24133047.122     1935751.555                                  
  38504080.975     1116204.8332                                 
  20922691.528     1113063.311                                  
  38143432.108     1104705.4962                                 
  23090068.591       69703.179                                  
  19954062.486     1222125.776                                  
  38578968.297      915456.3342                                 
  24281281.460      520641.0282                                 
  22528118.444      198516.285                                  
 18  5  7 14  9  8.0000000  0 10G25G 2S23G31S36G21G29S20G 5G26
  21171123.342     1739167.758                                  
  24134144.645     1941516.321                                  
  38504663.176     1119261.9812                                 
  20923330.564     1116422.535                                  
  38144012.903     1107758.1782                                 
  23090058.837       69652.226                                  
  19954736.832     1225668.833                                  
  38579528.588      918398.9312                                 
  24281513.766      521859.5442                                 
  22528150.143      198684.833                                  
 18  5  7 14  9  9.0000000  0 11G25G 2S23G31S36G21G29S20G 5G26G12
  21172102.927     1744314.442                                  
  24135242.499     1947286.032                                  
  38505245.062     1122323.7122                                 
  20923970.891     1119787.019                                  
  38144595.139     1110815.3842                                 
  23090049.754       69606.217                                  
  19955411.772     1229217.002                                  
  38580089.753      921346.0562                                 
  24281746.256      523083.1112                                 
  22528183.097      198858.193                                  
  24200838.941     1863949.1553                                 
 18  5  7 14  9 10.0000000  0 11G25G 2S23G31S36G21G29S20G 5G26G12
  21173080.706     1749453.612                                  
  24136338.294     1953048.079                                  
  38505826.547     1125377.4912                                 
  20924609.656     1123144.269                                  
  38145175.751     1113864.7092                                 
  23090039.397       69552.519                                  
  19956085.141     1232757.745                                  
  38580648.814      924285.2502                                 
  24281976.913      524299.2042                                 
  22528214.482      199023.938                                  
  24202058.414     1870341.4733                                 
 18  5  7 14  9 11.0000000  0 11G25G 2S23G31S36G21G29S20G 5G26G12
  21174057.683     1754584.189                                  
  24137433.662     1958801.492                                  
  38506406.304     1128422.4132                                 
  20925246.790     1126493.170                                  
  38145754.269     1116905.1472                                 
  23090027.479       69490.149                                  
  19956757.794     1236290.011                                  
  38581206.593      927215.5802                                 
  24282206.540      525506.8552                                 
  22528244.225      199180.804                                  
  24203273.508     1876724.9413                                 
 18  5  7 14  9 12.0000000  0 11G25G 2S23G31S36G21G29S20G 5G26G12
  21175034.729     1759719.849                                  
  24138530.643     1964559.901                                  
  38506987.562     1131472.0292                                 
  20925885.764     1129847.383                                  
  38146333.791     1119950.2702                                 
  23090017.288       69432.721                                  
  19957430.561     1239827.465                                  
  38581765.218      930150.7842                                 
  24282437.014      526719.6432                                 
  22528275.348      199342.547                                  
  24204489.927     1883113.2292                                 
 18  5  7 14  9 13.0000000  0 11G25G 2S23G31S36G21G29S20G 5G26G12
  21176013.250     1764862.311                                  
  24139627.137     1970325.007                                  
  38507569.073     1134528.0492                                 
  20926525.742     1133208.696                                  
  38146914.438     1123001.7632                                 
  23090007.681       69381.972                                  
  19958104.628     1243371.820                                  
  38582324.209      933092.2272                                 
  24282669.128      527938.746                                  
  22528307.038      199510.931                                  
  24205705.370     1889508.0932                                 
 18  5  7 14  9 14.0000000  0 11G25G 2S23G31S36G21G29S20G 5G26G12
  21176991.667     1769999.678                                  
  24140723.420     1976084.996                                  
  38508149.755     1137578.6072                                 
  20927165.354     1136565.159                                  
  38147493.646     1126047.7052                                 
  23089997.290       69326.002                                  
  19958777.779     1246911.194                                  
  38582882.948      936028.2032                                 
  24282899.889      529153.430                                  
  22528337.401      199674.015                                  
  24206921.973     1895897.5263                                 
 18  5  7 14  9 15.0000000  0 10G25G 2S23G31S36G21G29S20G 5G26
  21177967.762     1775128.333                                  
  24141818.509     1981836.133                                  
  38508728.954     1140620.0962                                 
  20927802.575     1139913.197                                  
  38148071.466     1129084.5812                                 
  23089985.511       69261.225                                  
  19959449.944     1250441.972                                  
  38583440.011      938955.2332                                 
  24283129.098      530359.424                                  
  22528366.141      199828.236                                  
 18  5  7 14  9 16.0000000  0 10G25G 2S23G31S36G21G29S20G 5G26
  21178944.555     1780259.910                                  
  24142913.257     1987590.135                                  
  38509308.171     1143664.1142                                 
  20928440.110     1143264.425                                  
  38148649.932     1132123.9282                                 
  23089973.941       69199.191                                  
  19960122.667     1253975.750                                  
  38583997.607      941884.6062                                 
  24283360.060      531568.424                                  
  22528396.618      199985.113                                  
 18  5  7 14  9 17.0000000  0 10G25G 2S23G31S36G21G29S20G 5G26
  21179922.343     1785399.054                                  
  24144009.305     1993351.599                                  
  38509887.710     1146715.2302                                 
  20929079.494     1146623.477                                  
  38149229.506     1135170.4532                                 
  23089963.192       69144.658                                  
  19960796.804     1257517.212                                  
  38584556.075      944820.8872                                 
  24283591.747      532785.065                                  
  22528428.264      200149.440                                  
 18  5  7 14  9 18.0000000  0 10G25G 2S23G31S36G21G29S20G 5G26
  21180900.166     1790538.373                                  
  24145105.659     1999113.167                                  
  38510467.581     1149766.2412                                 
  20929719.141     1149983.007                                  
  38149810.005     1138216.7212                                 
  23089953.184       69090.1373                                 
  19961470.461     1261058.973                                  
  38585114.473      947757.2692                                 
  24283822.866      534002.035                                  
  22528459.640      200313.752                                  
 18  5  7 14  9 19.0000000  0 10G25G 2S23G31S36G21G29S20G 5G26
  21181877.475     1795672.759                                  
  24146201.270     2004869.693                                  
  38511046.526     1152811.9312                                 
  20930356.754     1153337.768                                  
  38150388.585     1141257.5702                                 
  23089942.714       69030.6102                                 
  19962143.403     1264595.885                                  
  38585671.650      950688.4622                                 
  24284053.794      535214.096                                  
  22528489.567      200472.928                                  
 18  5  7 14  9 20.0000000  0 10G25G 2S23G31S36G21G29S20G 5G26
  21182854.399     1800807.739                                  
  24147296.935     2010626.753                                  
  38511626.170     1155857.8572                                 
  20930995.014     1156693.516                                  
  38150967.469     1144298.6042                                 
  23089931.633       68971.5072                                 
  19962816.458     1268133.509                                  
  38586229.786      953619.8212                                 
  24284284.774      536426.826                                  
  22528519.825      200632.494                                  
 18  5  7 14  9 21.0000000  0 10G25G 2S23G31S36G21G29S20G 5G26
  21183832.998     1805949.755                                  
  24148394.178     2016390.794                                  
  38512206.730     1158910.4102                                 
  20931634.608     1160056.474                                  
  38151547.654     1147346.3292                                 
  23089921.914       68919.3732                                 
  19963490.909     1271678.270                                  
  38586788.533      956557.7292                                 
  24284517.115      537646.680                                  
  22528551.541      200798.926                                  
 18  5  7 14  9 22.0000000  0  9G25G 2S23G31S36G21G29S20G26
  21184812.165     1811095.333                                  
  24149491.509     2022158.273                                  
  38512788.172     1161966.1472                                 
  20932275.746     1163423.304                                  
  38152128.118     1150397.2672                                 
  23089913.302       68870.6622                                 
  19964166.223     1275226.706                                  
  38587347.883      959498.8442                                 
  22528583.877      200968.737                                  
 18  5  7 14  9 23.0000000  0 10G25G 2S23G31S36G21G29S20G 5G26
  21185790.965     1816238.088                                  
  24150588.369     2027922.876                                  
  38513370.110     1165018.6772                                 
  20932916.169     1166787.568                                  
  38152708.312     1153444.9932                                 
  23089904.001       68818.9712                                 
  19964840.587     1278772.417                                  
  38587906.770      962436.7222                                 
  24284981.439      540091.5022                                 
  22528614.615      201135.520                                  
 18  5  7 14  9 24.0000000  0 10G25G 2S23G31S36G21G29S20G 5G26
  21186768.203     1821374.987                                  
  24151684.103     2033681.517                                  
  38513950.033     1168064.9412                                 
  20933554.856     1170146.292                                  
  38153286.830     1156486.5352                                 
  23089892.929       68761.3192                                 
  19965514.855     1282312.371                                  
  38588464.068      965368.1982                                 
  24285211.694      541306.4543                                 
  22528645.816      201296.295                                  
 18  5  7 14  9 25.0000000  0 10G25G 2S23G31S36G21G29S20G 5G26
  21187747.204     1826518.062                                  
  24152780.674     2039446.246                                  
  38514530.995     1171117.0202                                 
  20934195.000     1173511.381                                  
  38153866.788     1159533.8182                                 
  23089883.157       68709.739                                  
  19966189.541     1285858.620                                  
  38589022.999      968305.6082                                 
  24285444.960      542527.7292                                 
  22528677.427      201463.064                                  
 18  5  7 14  9 26.0000000  0 10G25G 2S23G31S36G21G29S20G 5G26
  21188727.130     1831666.501                                  
  24153878.407     2045216.266                                  
  38515113.326     1174174.0632                                 
  20934836.086     1176882.093                                  
  38154447.601     1162586.1132                                 
  23089874.894       68663.391                                  
  19966865.475     1289410.322                                  
  38589582.845      971248.2002                                 
  24285678.819      543754.4292                                 
  22528710.155      201634.980                                  
 18  5  7 14  9 27.0000000  0  9G25G 2S23G31S36G21G29S20G26
  21189705.599     1836808.069                                  
  24154975.720     2050979.338                                  
  38515694.270     1177223.8462                                 
  20935475.889     1180246.281                                  
  38155026.975     1165631.2392                                 
  23089864.354       68610.071                                  
  19967539.952     1292955.274                                  
  38590141.549      974183.6982                                 
  22528741.565      201799.835                                  
 18  5  7 14  9 28.0000000  0 10G25G 2S23G31S36G21G29S20G 5G26
  21190682.279     1841942.763                                  
  24156071.785     2056735.467                                  
  38516273.556     1180266.4342                                 
  20936114.585     1183603.684                                  
  38155605.004     1168669.0562                                 
  23089852.497       68549.722                                  
  19968214.133     1296493.452                                  
  38590699.136      977111.5862                                 
  24286141.459      546187.5092                                 
  22528771.545      201957.594                                  
 18  5  7 14  9 29.0000000  0 10G25G 2S23G31S36G21G29S20G 5G26
  21191660.730     1847083.667                                  
  24157168.471     2062497.694                                  
  38516853.191     1183314.8542                                 
  20936754.484     1186967.7383                                 
  38156184.151     1171712.8582                                 
  23089841.887       68495.533                                  
  19968888.243     1300037.972                                  
  38591257.953      980045.3872                                 
  24286373.286      547406.9802                                 
  22528802.737      202121.444                                  
 18  5  7 14  9 30.0000000  0 10G25G 2S23G31S36G21G29S20G 5G26
  21192640.420     1852232.027                                  
  24158266.464     2068267.293                                  
  38517433.760     1186370.4182                                 
  20937395.623     1190339.4463                                 
  38156764.947     1174763.6632                                 
  23089833.179       68448.605                                  
  19969563.837     1303589.999                                  
  38591817.677      982986.2622                                 
  24286607.241      548633.8872                                 
  22528835.133      202292.558                                  
 18  5  7 14  9 31.0000000  0 10G25G 2S23G31S36G21G29S20G 5G26
  21193619.307     1857374.569                                  
  24159363.595     2074030.981                                  
  38518012.732     1189419.7102                                 
  20938035.958     1193705.5473                                 
  38157343.753     1177808.3082                                 
  23089822.866       68395.770                                  
  19970238.655     1307136.342                                  
  38592376.102      985920.9452                                 
  24286840.655      549855.1102                                 
  22528867.041      202457.647                                  
 18  5  7 14  9 32.0000000  0 10G25G 2S23G31S36G21G29S20G 5G26
  21194596.554     1862508.755                                  
  24160458.412     2079786.224                                  
  38518591.538     1192460.2242                                 
  20938674.121     1197063.6693                                 
  38157921.390     1180844.2622                                 
  23089810.154       68334.459                                  
  19970912.015     1310674.416                                  
  38592933.156      988847.0512                                 
  24287071.242      551068.1362                                 
  22528896.750      202614.183                                  
 18  5  7 14  9 33.0000000  0 10G25G 2S23G31S36G21G29S20G 5G26
  21195573.871     1867647.050                                  
  24161555.115     2085545.500                                  
  38519170.571     1195504.4852                                 
  20939314.527     1200426.2273                                 
  38158500.135     1183883.9412                                 
  23089798.942       68277.114                                  
  19971586.152     1314216.706                                  
  38593490.612      991776.7542                                 
  24287303.452      552285.2822                                 
  22528927.593      202774.620                                  
 18  5  7 14  9 34.0000000  0 10G25G 2S23G31S36G21G29S20G 5G26
  21196553.195     1872793.147                                  
  24162652.472     2091312.500                                  
  38519752.239     1198556.1952                                 
  20939955.596     1203796.7142                                 
  38159079.046     1186931.0812                                 
  23089789.501       68227.505                                  
  19972261.126     1317766.919                                  
  38594049.892      994713.6032                                 
  24287536.465      553510.3742                                 
  22528959.894      202942.702                                  
 18  5  7 14  9 35.0000000  0 10G25G 2S23G31S36G21G29S20G 5G26
  21197531.707     1877936.561                                  
  24163749.070     2097076.747                                  
  38520331.761     1201604.9363                                 
  20940597.362     1207164.8463                                 
  38159658.297     1189975.2622                                 
  23089779.188       68175.070                                  
  19972936.441     1321314.562                                  
  38594608.342      997647.4852                                 
  24287769.696      554732.8202                                 
  22528991.199      203107.935                                  
 18  5  7 14  9 36.0000000  0 10G25G 2S23G31S36G21G29S20G 5G26
  21198510.001     1883072.174                                  
  24164844.027     2102833.088                                  
  38520910.009     1204645.4212                                 
  20941237.279     1210525.3482                                 
  38160236.441     1193011.2842                                 
  23089767.558       68114.684                                  
  19973610.159     1324854.478                                  
  38595164.935     1000573.3092                                 
  24288001.478      555947.5632                                 
  22529020.708      203265.133                                  
 18  5  7 14  9 37.0000000  0 10G25G 2S23G31S36G21G29S20G 5G26
  21199487.126     1888209.834                                  
  24165939.884     2108591.390                                  
  38521488.859     1207687.5892                                 
  20941876.900     1213888.2532                                 
  38160814.636     1196049.0992                                 
  23089756.922       68056.271                                  
  19974284.069     1328396.573                                  
  38595722.129     1003500.9422                                 
  24288232.641      557163.841                                  
  22529051.769      203424.249                                  
 18  5  7 14  9 38.0000000  0 10G25G 2S23G31S36G21G29S20G 5G26
  21200465.865     1893355.064                                  
  24167037.188     2114357.223                                  
  38522069.297     1210736.9482                                 
  20942518.623     1217258.9502                                 
  38161394.585     1199093.9592                                 
  23089747.141       68005.279                                  
  19974959.227     1331946.332                                  
  38596280.658     1006435.5832                                 
  24288465.078      558388.425                                  
  22529083.162      203590.713                                  
 18  5  7 14  9 39.0000000  0 10G25G 2S23G31S36G21G29S20G 5G26
  21201444.971     1898501.344                                  
  24168134.275     2120124.002                                  
  38522649.089     1213787.0012                                 
  20943160.162     1220630.9442                                 
  38161973.915     1202139.5602                                 
  23089737.264       67955.239                                  
  19975635.370     1335497.253                                  
  38596839.833     1009370.6622                                 
  24288697.803      559614.6053                                 
  22529115.183      203758.087                                  
 18  5  7 14  9 40.0000000  0 10G25G 2S23G31S36G21G29S20G 5G26
  21202423.579     1903644.143                                  
  24169232.138     2125887.195                                  
  38523229.579     1216833.1202                                 
  20943802.802     1223999.8252                                 
  38162553.018     1205181.2552                                 
  23089727.082       67901.591                                  
  19976310.135     1339044.786                                  
  38597397.341     1012302.2072                                 
  24288929.201      560836.8082                                 
  22529146.428      203921.762                                  
 18  5  7 14  9 41.0000000  0 10G25G 2S23G31S36G21G29S20G 5G26
  21203401.952     1908788.435                                  
  24170329.835     2131651.819                                  
  38523809.694     1219880.4002                                 
  20944445.022     1227370.4172                                 
  38163132.295     1208224.1512                                 
  23089717.066       67849.333                                  
  19976985.738     1342593.921                                  
  38597955.477     1015234.9332                                 
  24289161.699      562060.6202                                 
  22529177.577      204086.745                                  
 18  5  7 14  9 42.0000000  0 10G25G 2S23G31S36G21G29S20G 5G26
  21204382.532     1913940.098                                  
  24171428.099     2137423.713                                  
  38524390.464     1222934.6442                                 
  20945088.525     1230748.5862                                 
  38163714.007     1211274.0462                                 
  23089709.178       67804.304                                  
  19977662.483     1346150.533                                  
  38598514.940     1018174.5622                                 
  24289395.698      563291.9202                                 
  22529210.610      204258.911                                  
 18  5  7 14  9 43.0000000  0 10G25G 2S23G31S36G21G29S20G 5G26
  21205363.208     1919095.006                                  
  24172527.463     2143198.805                                  
  38524971.931     1225991.7842                                 
  20945733.031     1234130.260                                  
  38164294.899     1214326.7962                                 
  23089701.229       67762.448                                  
  19978339.639     1349710.481                                  
  38599075.188     1021117.0682                                 
  24289630.395      564526.5713                                 
  22529243.512      204434.148                                  
 18  5  7 14  9 44.0000000  0 10G25G 2S23G31S36G21G29S20G 5G26
  21206343.692     1924248.409                                  
  24173626.129     2148972.268                                  
  38525552.421     1229047.0372                                 
  20946377.415     1237510.713                                  
  38164875.546     1217377.5792                                 
  23089693.368       67718.900                                  
  19979016.865     1353269.030                                  
  38599635.270     1024057.6212                                 
  24289864.394      565759.7723                                 
  22529276.100      204607.676                                  
 18  5  7 14  9 45.0000000  0 10G25G 2S23G31S36G21G29S20G 5G26
  21207324.769     1929402.648                                  
  24174725.405     2154746.491                                  
  38526133.819     1232102.7712                                 
  20947021.416     1240892.301                                  
  38165455.958     1220428.8482                                 
  23089685.271       67676.094                                  
  19979694.509     1356828.531                                  
  38600194.960     1026998.5782                                 
  24290099.326      566993.8812                                 
  22529309.378      204781.836                                  
 18  5  7 14  9 46.0000000  0 10G25G 2S23G31S36G21G29S20G 5G26
  21208306.335     1934563.157                                  
  24175824.559     2160526.921                                  
  38526716.909     1235164.3232                                 
  20947665.922     1244280.450                                  
  38166037.364     1223486.0802                                 
  23089678.902       67639.471                                  
  19980372.651     1360394.422                                  
  38600756.220     1029945.4162                                 
  24290335.959      568234.3822                                 
  22529343.258      204962.110                                  
 18  5  7 14  9 47.0000000  0 10G25G 2S23G31S36G21G29S20G 5G26
  21209289.533     1939727.229                                  
  24176925.267     2166310.821                                  
  38527300.366     1238229.0452                                 
  20948310.777     1247672.414                                  
  38166619.625     1226546.5642                                 
  23089672.384       67606.305                                  
  19981052.197     1363963.973                                  
  38601317.393     1032895.5702                                 
  24290573.893      569478.4602                                 
  22529378.210      205145.779                                  
 18  5  7 14  9 48.0000000  0 10G25G 2S23G31S36G21G29S20G 5G26
  21210270.837     1944882.795                                  
  24178024.648     2172086.121                                  
  38527882.462     1241284.9082                                 
  20948954.211     1251056.095                                  
  38167200.334     1229598.1292                                 
  23089663.677       67564.486                                  
  19981729.353     1367525.108                                  
  38601876.960     1035836.7242                                 
  24290809.244      570714.1982                                 
  22529411.453      205320.753                                  
 18  5  7 14  9 49.0000000  0 10G25G 2S23G31S36G21G29S20G 5G26
  21211250.510     1950031.596                                  
  24179122.136     2177854.564                                  
  38528462.611     1244333.7542                                 
  20949596.230     1254433.296                                  
  38167779.489     1232642.5982                                 
  23089654.210       67515.789                                  
  19982405.959     1371079.591                                  
  38602435.097     1038770.8862                                 
  24291042.719      571943.2352                                 
  22529443.623      205488.742                                  
 18  5  7 14  9 50.0000000  0 10G25G 2S23G31S36G21G29S20G 5G26
  21212231.352     1955186.602                                  
  24180221.334     2183629.123                                  
  38529043.904     1247388.3352                                 
  20950239.550     1257816.963                                  
  38168359.508     1235692.8802                                 
  23089646.471       67473.176                                  
  19983083.585     1374640.388                                  
  38602994.402     1041711.0352                                 
  24291277.783      573178.5252                                 
  22529475.914      205662.774                                  
 18  5  7 14  9 51.0000000  0 10G25G 2S23G31S36G21G29S20G 5G26
  21213212.787     1960347.927                                  
  24181321.561     2189409.960                                  
  38529626.209     1250448.8322                                 
  20950883.768     1261207.206                                  
  38168941.045     1238749.1092                                 
  23089639.342       67436.758                                  
  19983762.591     1378207.603                                  
  38603555.278     1044657.0512                                 
  24291514.460      574420.2852                                 
  22529510.352      205842.906                                  
 18  5  7 14  9 52.0000000  0 10G25G 2S23G31S36G21G29S20G 5G26
  21214193.934     1965502.642                                  
  24182419.913     2195184.054                                  
  38530207.511     1253502.3422                                 
  20951526.608     1264591.083                                  
  38169521.344     1241798.3052                                 
  23089631.359       67393.619                                  
  19984439.921     1381768.317                                  
  38604114.602     1047595.9582                                 
  24291750.090      575655.4482                                 
  22529543.351      206016.285                                  
 18  5  7 14  9 53.0000000  0 10G25G 2S23G31S36G21G29S20G 5G26
  21215173.790     1970649.954                                  
  24183516.772     2200950.678                                  
  38530788.141     1256548.1172                                 
  20952168.706     1267967.826                                  
  38170099.635     1244839.7072                                 
  23089621.063       67342.933                                  
  19985116.422     1385321.721                                  
  38604672.267     1050526.9522                                 
  24291984.028      576883.3912                                 
  22529574.979      206182.038                                  
 18  5  7 14  9 54.0000000  0 10G25G 2S23G31S36G21G29S20G 5G26
  21216153.759     1975802.632                                  
  24184614.984     2206722.567                                  
  38531368.858     1259598.8142                                 
  20952811.311     1271350.244                                  
  38170679.323     1247886.1572                                 
  23089612.478       67297.569                                  
  19985793.011     1388880.611                                  
  38605230.430     1053463.3102                                 
  24292219.283      578116.7322                                 
  22529607.532      206353.053                                  
 18  5  7 14  9 55.0000000  0 10G25G 2S23G31S36G21G29S20G 5G26
  21217135.099     1980962.385                                  
  24185714.514     2212501.454                                  
  38531951.817     1262656.2482                                 
  20953456.576     1274739.986                                  
  38171260.275     1250939.1422                                 
  23089605.245       67259.065                                  
  19986472.069     1392446.665                                  
  38605790.503     1056406.5092                                 
  24292456.082      579356.678                                  
  22529641.430      206530.865                                  
 18  5  7 14  9 56.0000000  0 10G25G 2S23G31S36G21G29S20G 5G26
  21218115.897     1986117.924                                  
  24186813.127     2218276.052                                  
  38532533.328     1265709.1092                                 
  20954101.405     1278125.798                                  
  38171840.617     1253987.6992                                 
  23089596.938       67216.303                                  
  19987150.045     1396008.625                                  
  38606349.835     1059344.7962                                 
  24292690.901      580593.098                                  
  22529675.100      206704.307                                  
 18  5  7 14  9 57.0000000  0 10G25G 2S23G31S36G21G29S20G 5G26
  21219095.133     1991265.641                                  
  24187910.955     2224042.713                                  
  38533112.205     1268753.7852                                 
  20954743.748     1281504.082                                  
  38172419.240     1257028.0472                                 
  23089586.913       67165.543                                  
  19987826.354     1399562.876                                  
  38606907.491     1062274.6092                                 
  24292923.504      581822.2273                                 
  22529706.222      206869.775                                  
 18  5  7 14  9 58.0000000  0  9G25G 2S23S36G21G29S20G 5G26
  21220075.958     1996417.549                                  
  24189009.909     2229813.513                                  
  38533691.822     1271802.1502                                 
  38172998.422     1260072.1552                                 
  23089578.266       67118.939                                  
  19988504.103     1403121.390                                  
  38607466.195     1065208.3762                                 
  24293158.314      583055.1812                                 
  22529737.781      207039.195                                  
 18  5  7 14  9 59.0000000  0 10G25G 2S23G31S36G21G29S20G 5G26
  21221058.204     2001577.561                                  
  24190108.837     2235592.326                                  
  38534273.761     1274858.2872                                 
  20956032.516     1288277.6342                                 
  38173579.139     1263124.1882                                 
  23089571.400       67080.263                                  
  19989182.803     1406688.126                                  
  38608025.893     1068150.0062                                 
  24293394.599      584296.3122                                 
  22529771.242      207216.560                                  
 18  5  7 14 10  0.0000000  0 10G25G 2S23G31S36G21G29S20G 5G26
  21222039.308     2006735.545                                  
  24191207.589     2241369.021                                  
  38534855.158     1277912.1092                                 
  20956678.506     1291666.9662                                 
  38174159.341     1266173.8162                                 
  23089563.268       67039.455                                  
  19989861.224     1410252.963                                  
  38608585.033     1071089.0252                                 
  24293629.941      585535.5353                                 
  22529804.894      207391.777                                  
 18  5  7 14 10  1.0000000  0  9G25G 2S23S36G21G29S20G 5G26
  21223018.780     2011887.822                                  
  24192305.993     2247139.894                                  
  38535435.064     1280959.8662                                 
  38174738.610     1269217.3132                                 
  23089553.182       66992.820                                  
  19990538.441     1413812.169                                  
  38609143.266     1074021.9572                                 
  24293863.870      586769.0583                                 
  22529836.802      207561.055                                  
 18  5  7 14 10  2.0000000  0 11G25G 2S23G31S36G21G29S20G 5G26G12
  21223999.517     2017040.748                                  
  24193404.502     2252911.370                                  
  38536013.617     1284007.8632                                 
  20957962.624     1298433.3793                                 
  38175317.896     1272261.0212                                 
  23089543.776       66946.751                                  
  19991216.207     1417372.136                                  
  38609701.376     1076955.4752                                 
  24294097.973      588003.3342                                 
  22529869.172      207730.786                                  
  24265317.425     2202729.3883                                 
 18  5  7 14 10  3.0000000  0 11G25G 2S23G31S36G21G29S20G 5G26G12
  21224981.842     2022201.380                                  
  24194504.128     2258690.453                                  
  38536595.224     1287063.2112                                 
  20958611.178     1301825.8353                                 
  38175898.212     1275312.0032                                 
  23089536.508       66908.245                                  
  19991895.082     1420939.923                                  
  38610261.127     1079896.3252                                 
  24294334.363      589245.3542                                 
  22529903.069      207908.062                                  
  24266529.936     2209128.8333                                 
 18  5  7 14 10  4.0000000  0 11G25G 2S23G31S36G21G29S20G 5G26G12
  21225964.551     2027366.197                                  
  24195605.306     2264473.642                                  
  38537177.390     1290122.3292                                 
  20959254.463     1305223.4353                                 
  38176478.998     1278366.8162                                 
  23089529.755       66873.790                                  
  19992574.977     1424512.008                                  
  38610821.392     1082840.9672                                 
  24294571.328      590491.7302                                 
  22529938.336      208089.329                                  
  24267745.353     2215532.4303                                 
 18  5  7 14 10  5.0000000  0  9G25G 2S23S36G21G29S20G 5G26
  21226947.199     2032529.971                                  
  24196705.106     2270255.683                                  
  38537758.377     1293180.0062                                 
  38177060.431     1281420.2282                                 
  23089522.705       66838.156                                  
  19993254.305     1428083.122                                  
  38611381.605     1085783.8092                                 
  24294808.084      591737.2022                                 
  22529973.019      208269.353                                  
 18  5  7 14 10  6.0000000  0  9G25G 2S23S36G21G29S20G 5G26
  21227929.707     2037694.328                                  
  24197805.255     2276038.252                                  
  38538339.854     1296237.8622                                 
  38177642.370     1284473.8712                                 
  23089515.611       66803.078                                  
  19993933.956     1431654.939                                  
  38611941.015     1088726.9542                                 
  24295045.703      592983.3233                                 
  22530007.744      208449.765                                  
 18  5  7 14 10  7.0000000  0  9G25G 2S23S36G21G29S20G 5G26
  21228913.865     2042865.055                                  
  24198906.564     2281827.083                                  
  38538923.371     1299301.7172                                 
  38178224.806     1287533.5672                                 
  23089510.647       66774.221                                  
  19994614.907     1435233.243                                  
  38612502.249     1091676.2772                                 
  24295285.635      594235.8092                                 
  22530043.858      208636.404                                  
 18  5  7 14 10  8.0000000  0  9G25G 2S23S36G21G29S20G 5G26
  21229899.252     2048039.427                                  
  24200008.764     2287619.459                                  
  38539507.360     1302368.8022                                 
  38178807.529     1290596.5512                                 
  23089505.726       66748.840                                  
  19995296.487     1438815.260                                  
  38613064.722     1094628.7922                                 
  24295526.160      595492.0642                                 
  22530079.892      208826.437                                  
 18  5  7 14 10  9.0000000  0  9G25G 2S23S36G21G29S20G 5G26
  21230882.502     2053207.506                                  
  24201110.396     2293405.477                                  
  38540090.154     1305429.3122                                 
  38179389.895     1293652.8632                                 
  23089500.168       66717.095                                  
  19995976.862     1442391.121                                  
  38613625.197     1097574.4252                                 
  24295765.080      596742.1622                                 
  22530114.784      209010.055                                  
 18  5  7 14 10 10.0000000  0  9G25G 2S23S36G21G29S20G 5G26
  21231866.023     2058370.732                                  
  24202210.728     2299186.559                                  
  38540671.080     1308484.5122                                 
  38179970.237     1296703.9762                                 
  23089493.493       66680.405                                  
  19996656.592     1445962.237                                  
  38614184.433     1100514.9512                                 
  24296001.714      597987.5173                                 
  22530148.315      209188.638                                  
 18  5  7 14 10 11.0000000  0  9G25G 2S23S36G21G29S20G 5G26
  21232849.814     2063540.351                                  
  24203311.601     2304973.936                                  
  38541253.979     1311545.7632                                 
  38180551.591     1299760.9992                                 
  23089488.564       66650.004                                  
  19997337.133     1449539.807                                  
  38614745.998     1103461.7662                                 
  24296239.865      599239.2572                                 
  22530183.782      209373.423                                  
 18  5  7 14 10 12.0000000  0  9G25G 2S23S36G21G29S20G 5G26
  21233835.210     2068717.356                                  
  24204414.141     2310768.584                                  
  38541838.517     1314614.0242                                 
  38181134.132     1302824.9042                                 
  23089485.126       66626.834                                  
  19998019.192     1453124.898                                  
  38615308.471     1106415.5862                                 
  24296480.364      600498.5352                                 
  22530219.974      209565.384                                  
 18  5  7 14 10 13.0000000  0  9G25G 2S23S36G21G29S20G 5G26
  21234819.472     2073890.202                                  
  24205516.698     2316559.044                                  
  38542422.096     1317677.7972                                 
  38181716.010     1305884.4182                                 
  23089479.760       66599.406                                  
  19998700.754     1456705.959                                  
  38615870.176     1109364.5492                                 
  24296718.403      601753.7153                                 
  22530255.503      209753.084                                  
 18  5  7 14 10 14.0000000  0 10G25G 2S23G31S36G21G29S20G 5G26
  21235802.504     2079056.068                                  
  24206617.240     2322342.390                                  
  38543003.913     1320734.1352                                 
  20965729.969     1339248.3683                                 
  38182296.290     1308936.5222                                 
  23089474.211       66564.852                                  
  19999381.016     1460280.103                                  
  38616429.430     1112306.1902                                 
  24296956.555      603001.9752                                 
  22530289.408      209933.522                                  
 18  5  7 14 10 15.0000000  0 10G25G 2S23G31S36G21G29S20G 5G26
  21236786.600     2084225.716                                  
  24207718.349     2328129.465                                  
  38543586.200     1323793.8962                                 
  20966381.394     1342653.3833                                 
  38182877.601     1311992.0342                                 
  23089469.552       66533.989                                  
  20000061.941     1463858.166                                  
  38616989.870     1115251.3522                                 
  24297194.837      604254.2073                                 
  22530323.908      210117.606                                  
 18  5  7 14 10 16.0000000  0 10G25G 2S23G31S36G21G29S20G 5G26
  21237771.351     2089401.912                                  
  24208819.675     2333922.984                                  
  38544169.518     1326859.8292                                 
  20967028.492     1346065.0982                                 
  38183460.080     1315053.7862                                 
  23089465.058       66509.561                                  
  20000744.148     1467442.867                                  
  38617550.990     1118202.6152                                 
  24297433.827      605513.1073                                 
  22530359.192      210308.059                                  
 18  5  7 14 10 17.0000000  0 10G25G 2S23G31S36G21G29S20G 5G26
  21238756.023     2094576.800                                  
  24209920.741     2339715.105                                  
  38544753.402     1329924.0062                                 
  20967677.439     1349475.8823                                 
  38184042.185     1318113.8092                                 
  23089459.701       66483.687                                  
  20001426.042     1471026.376                                  
  38618112.433     1121152.0582                                 
  24297672.860      606771.2843                                 
  22530395.680      210496.973                                  
 18  5  7 14 10 18.0000000  0  9G25G 2S23S36G21G29S20G 5G26
  21239740.093     2099747.137                                  
  24211021.858     2345502.598                                  
  38545335.698     1332983.3212                                 
  38184623.853     1321168.8162                                 
  23089454.065       66453.181                                  
  20002106.827     1474605.419                                  
  38618672.489     1124096.5872                                 
  24297912.111      608024.6153                                 
  22530430.869      210681.209                                  
 18  5  7 14 10 19.0000000  0  9G25G 2S23S36G21G29S20G 5G26
  21240723.797     2104919.181                                  
  24212123.673     2351291.698                                  
  38545917.672     1336043.9572                                 
  38185205.512     1324225.2182                                 
  23089448.786       66424.255                                  
  20002788.110     1478186.303                                  
  38619233.051     1127042.6322                                 
  24298157.121      609279.1913                                 
  22530465.961      210866.967                                  
 18  5  7 14 10 20.0000000  0  9G25G 2S23S36G21G29S20G 5G26
  21241709.446     2110097.667                                  
  24213227.086     2357087.167                                  
  38546501.451     1339110.6492                                 
  38185788.454     1327287.7082                                 
  23089444.266       66401.609                                  
  20003470.387     1481773.706                                  
  38619795.289     1129994.7152                                 
  24298402.000      610540.6472                                 
  22530502.048      211058.956                                  
 18  5  7 14 10 21.0000000  0  9G25G 2S23S36G21G29S20G 5G26
  21242694.677     2115279.349                                  
  24214331.833     2362885.760                                  
  38547085.484     1342180.2092                                 
  38186371.701     1330353.0262                                 
  23089440.026       66382.097                                  
  20004154.052     1485364.442                                  
  38620357.290     1132949.4512                                 
  24298642.830      611805.4222                                 
  22530539.304      211254.011                                  
 18  5  7 14 10 22.0000000  0 10G25G 2S23G31S36G21G29S20G 5G26
  21243680.658     2120459.236                                  
  24215435.009     2368682.430                                  
  38547668.941     1345247.5472                                 
  20970927.036     1366541.7083                                 
  38186954.783     1333416.1062                                 
  23089435.899       66360.663                                  
  20004836.957     1488953.458                                  
  38620919.406     1135902.1462                                 
  24298877.815      613068.3543                                 
  22530575.810      211447.049                                  
 18  5  7 14 10 23.0000000  0 10G25G 2S23G31S36G21G29S20G 5G26
  21244666.499     2125639.610                                  
  24216538.107     2374479.541                                  
  38548252.136     1348315.0422                                 
  20971580.215     1369959.3113                                 
  38187536.722     1336479.2812                                 
  23089431.405       66339.577                                  
  20005520.203     1492543.064                                  
  38621481.582     1138854.9082                                 
  24299112.451      614332.0273                                 
  22530612.168      211640.385                                  
 18  5  7 14 10 24.0000000  0  9G25G 2S23S36G21G29S20G 5G26
  21245653.239     2130825.855                                  
  24217642.287     2380282.422                                  
  38548837.398     1351387.9882                                 
  38188121.208     1339547.9522                                 
  23089427.715       66324.259                                  
  20006203.937     1496138.642                                  
  38622044.308     1141812.9972                                 
  24299361.491      615601.5633                                 
  22530649.947      211839.445                                  
 18  5  7 14 10 25.0000000  0  9G25G 2S23S36G21G29S20G 5G26
  21246640.197     2136014.394                                  
  24218746.284     2386087.502                                  
  38549421.841     1354462.8072                                 
  38188705.249     1342618.5092                                 
  23089425.961       66311.114                                  
  20006889.033     1499736.643                                  
  38622607.365     1144772.8892                                 
  24299599.870      616873.4792                                 
  22530687.797      212040.558                                  
 18  5  7 14 10 26.0000000  0  9G25G 2S23S36G21G29S20G 5G26
  21247626.100     2141196.302                                  
  24219849.740     2391885.870                                  
  38550005.542     1357530.6462                                 
  38189288.610     1345682.0572                                 
  23089421.476       66291.269                                  
  20007572.846     1503328.109                                  
  38623169.236     1147726.1192                                 
  24299838.859      618138.9203                                 
  22530724.835      212234.883                                  
 18  5  7 14 10 27.0000000  0  9G25G 2S23S36G21G29S20G 5G26
  21248611.522     2146372.579                                  
  24220952.358     2397678.521                                  
  38550588.702     1360592.4962                                 
  38189870.540     1348739.6442                                 
  23089416.581       66265.682                                  
  20008254.704     1506914.046                                  
  38623730.173     1150673.6912                                 
  24300077.168      619398.7702                                 
  22530759.779      212423.430                                  
 18  5  7 14 10 28.0000000  0 10G25G 2S23G31S36G21G29S20G 5G26
  21249597.363     2151554.321                                  
  24222055.552     2403476.550                                  
  38551172.526     1363659.4242                                 
  20974830.100     1387069.0873                                 
  38190453.054     1351802.3562                                 
  23089412.428       66245.405                                  
  20008938.273     1510505.565                                  
  38624291.564     1153626.1322                                 
  24300317.894      620664.2273                                 
  22530796.390      212617.226                                  
 18  5  7 14 10 29.0000000  0 11G25G 2S23G31S36G21G29S20G 5G26G12
  21250583.824     2156741.937                                  
  24223159.915     2409280.356                                  
  38551757.745     1366731.8612                                 
  20975484.300     1390495.7843                                 
  38191037.462     1354870.6342                                 
  23089408.764       66230.883                                  
  20009623.133     1514103.050                                  
  38624853.976     1156583.7802                                 
  24300560.592      621935.6612                                 
  22530834.649      212816.738                                  
  24298228.998     2375796.7743                                 
 18  5  7 14 10 30.0000000  0 10G25G 2S23S36G21G29S20G 5G26G12
  21251570.111     2161924.783                                  
  24224263.022     2415079.284                                  
  38552341.306     1369799.1472                                 
  38191620.160     1357933.7162                                 
  23089404.314       66211.472                                  
  20010306.789     1517695.847                                  
  38625416.082     1159536.2742                                 
  24300801.509      623202.3132                                 
  22530872.001      213011.207                                  
  24299455.077     2382211.4673                                 
 18  5  7 14 10 31.0000000  0 10G25G 2S23S36G21G29S20G 5G26G12
  21252555.629     2167100.672                                  
  24225364.715     2420871.228                                  
  38552922.625     1372859.1152                                 
  38192201.627     1360989.4962                                 
  23089399.219       66185.048                                  
  20010989.267     1521281.844                                  
  38625976.522     1162481.5122                                 
  24301041.808      624462.1742                                 
  22530908.202      213198.647                                  
  24300689.235     2388618.7823                                 
 18  5  7 14 10 32.0000000  0 11G25G 2S23G31S36G21G29S20G 5G26G12
  21253541.322     2172280.334                                  
  24226467.508     2426666.806                                  
  38553505.297     1375922.4982                                 
  20977436.220     1400752.6953                                 
  38192783.130     1364048.6102                                 
  23089394.891       66162.211                                  
  20011672.330     1524871.659                                  
  38626537.931     1165430.2262                                 
  24301282.106      625725.8762                                 
  22530945.031      213389.633                                  
  24301917.713     2395029.5503                                 
 18  5  7 14 10 33.0000000  0 10G25G 2S23S36G21G29S20G 5G26G12
  21254527.286     2177465.802                                  
  24227570.702     2432468.119                                  
  38554089.949     1378991.2212                                 
  38193366.560     1367113.1062                                 
  23089391.968       66145.119                                  
  20012357.329     1528467.424                                  
  38627100.150     1168384.3282                                 
  24301523.608      626995.5272                                 
  22530982.985      213586.253                                  
  24303130.206     2401445.8193                                 
 18  5  7 14 10 34.0000000  0 11G25G 2S23G31S36G21G29S20G 5G26G12
  21255513.615     2182648.456                                  
  24228674.524     2438266.518                                  
  38554673.336     1382056.7712                                 
  20978738.295     1407601.1253                                 
  38193949.005     1370174.3962                                 
  23089388.748       66125.109                                  
  20013040.313     1532060.446                                  
  38627661.288     1171335.2602                                 
  24301764.203      628262.4002                                 
  22531019.124      213779.8553                                 
  24304355.499     2407859.1253                                 
 18  5  7 14 10 35.0000000  0 11G25G 2S23G31S36G21G29S20G 5G26G12
  21256498.654     2187825.557                                  
  24229776.619     2444059.306                                  
  38555255.144     1385116.3012                                 
  20979391.247     1411018.8292                                 
  38194530.498     1373229.8152                                 
  23089384.325       66099.431                                  
  20013723.271     1535648.044                                  
  38628221.850     1174280.3212                                 
  24302003.550      629523.7782                                 
  22531053.571      213967.7522                                 
  24305568.726     2414266.6083                                 
 18  5  7 14 10 36.0000000  0 11G25G 2S23G31S36G21G29S20G 5G26G12
  21257485.097     2193004.809                                  
  24230879.508     2449854.141                                  
  38555837.728     1388177.7332                                 
  20980048.256     1414439.0032                                 
  38195112.463     1376286.9962                                 
  23089379.805       66075.801                                  
  20014406.901     1539237.902                                  
  38628782.788     1177227.1802                                 
  24302244.808      630787.4882                                 
  22531089.405      214157.6442                                 
  24306785.050     2420675.9522                                 
 18  5  7 14 10 37.0000000  0 11G25G 2S23G31S36G21G29S20G 5G26G12
  21258471.419     2198189.590                                  
  24231983.243     2455654.424                                  
  38556420.949     1391244.2892                                 
  20980702.910     1417865.0082                                 
  38195695.641     1379349.2702                                 
  23089376.481       66057.566                                  
  20015090.443     1542833.376                                  
  38629344.170     1180179.3412                                 
  24302487.026      632056.784                                  
  22531126.740      214352.8592                                 
  24308003.947     2427090.6052                                 
 18  5  7 14 10 38.0000000  0 11G25G 2S23G31S36G21G29S20G 5G26G12
  21259458.272     2203376.631                                  
  24233086.952     2461456.837                                  
  38557005.017     1394312.6742                                 
  20981348.673     1421293.4162                                 
  38196278.138     1382413.4892                                 
  23089374.012       66041.480                                  
  20015775.347     1546431.195                                  
  38629905.701     1183133.3592                                 
  24302728.807      633328.4053                                 
  22531163.978      214550.1092                                 
  24309225.131     2433507.1923                                 
 18  5  7 14 10 39.0000000  0 11G25G 2S23G31S36G21G29S20G 5G26G12
  21260446.068     2208563.207                                  
  24234190.756     2467258.762                                  
  38557588.630     1397380.3272                                 
  20982001.660     1424721.6772                                 
  38196861.176     1385476.8482                                 
  23089371.595       66024.841                                  
  20016459.832     1550028.698                                  
  38630467.065     1186086.3782                                 
  24302971.523      634599.6783                                 
  22531200.467      214746.8192                                 
  24310446.053     2439923.0123                                 
 18  5  7 14 10 40.0000000  0 11G25G 2S23G31S36G21G29S20G 5G26G12
  21261433.872     2213752.849                                  
  24235296.271     2473063.634                                  
  38558172.454     1400450.6232                                 
  20982654.246     1428153.2282                                 
  38197445.444     1388542.8412                                 
  23089369.047       66011.129                                  
  20017145.084     1553629.345                                  
  38631029.809     1189042.1422                                 
  24303213.967      635874.0723                                 
  22531238.744      214946.3242                                 
  24311666.983     2446341.6653                                 
 18  5  7 14 10 41.0000000  0 10G25G 2S23G31S36G21G29S20G 5G26
  21262422.959     2218949.012                                  
  24236402.362     2478874.965                                  
  38558757.516     1403527.0902                                 
  20983308.227     1431591.6502                                 
  38198029.293     1391615.0582                                 
  23089367.703       66003.829                                  
  20017831.480     1557236.637                                  
  38631593.634     1192004.1332                                 
  24303457.180      637155.1223                                 
  22531277.230      215152.1982                                 
 18  5  7 14 10 42.0000000  0 10G25G 2S23G31S36G21G29S20G 5G26
  21263412.134     2224146.970                                  
  24237507.886     2484688.000                                  
  38559342.936     1406604.9282                                 
  20983963.143     1435032.0712                                 
  38198614.277     1394688.6532                                 
  23089366.360       65998.194                                  
  20018518.451     1560845.818                                  
  38632157.686     1194967.2552                                 
  24303701.422      638438.0483                                 
  22531318.430      215359.6692                                 
 18  5  7 14 10 43.0000000  0 10G25G 2S23G31S36G21G29S20G 5G26
  21264399.964     2229342.169                                  
  24238613.715     2490498.190                                  
  38559927.588     1409679.6142                                 
  20984618.329     1438470.073                                  
  38199198.615     1397759.0942                                 
  23089364.842       65989.752                                  
  20019204.437     1564452.354                                  
  38632720.857     1197927.2012                                 
  24303944.965      639718.4192                                 
  22531357.501      215564.273                                  
 18  5  7 14 10 44.0000000  0 10G25G 2S23G31S36G21G29S20G 5G26
  21265389.139     2234537.122                                  
  24239720.303     2496308.000                                  
  38560511.917     1412753.7352                                 
  20985272.851     1441908.100                                  
  38199782.700     1400828.8802                                 
  23089363.987       65980.879                                  
  20019890.876     1568058.733                                  
  38633283.696     1200886.6152                                 
  24304189.478      640998.5242                                 
  22531396.223      215768.344                                  
 18  5  7 14 10 45.0000000  0 10G25G 2S23G31S36G21G29S20G 5G26
  21266377.598     2239736.571                                  
  24240827.432     2502122.258                                  
  38561096.351     1415831.9912                                 
  20985928.421     1445350.791                                  
  38200367.998     1403902.8722                                 
  23089363.123       65976.469                                  
  20020578.118     1571669.711                                  
  38633847.862     1203850.1512                                 
  24304435.090      642283.2642                                 
  22531435.521      215976.788                                  
 18  5  7 14 10 46.0000000  0 10G25G 2S23G31S36G21G29S20G 5G26
  21267366.484     2244937.915                                  
  24241934.072     2507938.337                                  
  38561681.753     1418911.6142                                 
  20986583.694     1448795.711                                  
  38200952.859     1406978.3652                                 
  23089362.669       65973.834                                  
  20021265.273     1575282.717                                  
  38634412.682     1206815.2992                                 
  24304681.024      643569.9582                                 
  22531475.125      216186.952                                  
 18  5  7 14 10 47.0000000  0 10G25G 2S23G31S36G21G29S20G 5G26
  21268354.646     2250131.134                                  
  24243039.474     2513746.147                                  
  38562266.214     1421982.8432                                 
  20987237.903     1452232.750                                  
  38201536.290     1410045.3022                                 
  23089361.238       65962.890                                  
  20021951.459     1578887.660                                  
  38634975.172     1209772.0362                                 
  24304925.101      644848.6032                                 
  22531513.498      216388.798                                  
 18  5  7 14 10 48.0000000  0 10G25G 2S23G31S36G21G29S20G 5G26
  21269342.041     2255318.336                                  
  24244142.650     2519547.921                                  
  38562849.112     1425047.6802                                 
  20987891.134     1455664.102                                  
  38202118.717     1413105.9382                                 
  23089359.013       65945.891                                  
  20022636.895     1582486.725                                  
  38635536.842     1212722.4172                                 
  24305167.728      646121.3782                                 
  22531551.949      216584.485                                  
 18  5  7 14 10 49.0000000  0 10G25G 2S23G31S36G21G29S20G 5G26
  21270330.177     2260510.750                                  
  24245248.026     2525354.763                                  
  38563433.302     1428117.3172                                 
  20988544.706     1459100.952                                  
  38202701.894     1416171.3582                                 
  23089357.006       65933.965                                  
  20023322.008     1586091.078                                  
  38636099.428     1215677.3712                                 
  24305411.953      647399.401                                  
  22531590.165      216785.148                                  
 18  5  7 14 10 50.0000000  0 10G25G 2S23G31S36G21G29S20G 5G26
  21271317.911     2265708.466                                  
  24246353.837     2531166.857                                  
  38564018.425     1431191.9242                                 
  20989198.932     1462543.295                                  
  38203286.416     1419241.5812                                 
  23089355.427       65927.246                                  
  20024009.407     1589700.848                                  
  38636662.852     1218637.2052                                 
  24305656.605      648682.817                                  
  22531628.974      216990.978                                  
 18  5  7 14 10 51.0000000  0 10G25G 2S23G31S36G21G29S20G 5G26
  21272304.276     2270900.434                                  
  24247458.401     2536973.100                                  
  38564602.702     1434260.3822                                 
  20989852.504     1465980.161                                  
  38203869.148     1422305.5772                                 
  23089352.277       65914.623                                  
  20024695.078     1593304.970                                  
  38637225.439     1221591.0452                                 
  24305900.367      649960.580                                  
  22531666.414      217190.832                                  
 18  5  7 14 10 52.0000000  0 10G25G 2S23G31S36G21G29S20G 5G26
  21273290.318     2276085.054                                  
  24248562.224     2542771.876                                  
  38565185.574     1437321.1402                                 
  20990504.828     1469409.865                                  
  38204450.459     1425361.8922                                 
  23089347.915       65894.554                                  
  20025379.310     1596901.811                                  
  38637785.713     1224537.4662                                 
  24306141.547      651231.133                                  
  22531703.164      217383.146                                  
 18  5  7 14 10 53.0000000  0 10G25G 2S23G31S36G21G29S20G 5G26
  21274277.861     2281272.560                                  
  24249666.316     2548573.516                                  
  38565768.324     1440384.5392                                 
  20991157.667     1472842.776                                  
  38205032.894     1428420.7722                                 
  23089344.922       65877.278                                  
  20026064.370     1600501.701                                  
  38638347.147     1227486.2832                                 
  24306383.904      652504.650                                  
  22531740.804      217578.202                                  
 18  5  7 14 10 54.0000000  0 10G25G 2S23G31S36G21G29S20G 5G26
  21275266.136     2286466.143                                  
  24250771.674     2554381.069                                  
  38566351.946     1443453.4802                                 
  20991811.910     1476282.1133                                 
  38205615.723     1431485.3082                                 
  23089342.182       65865.938                                  
  20026750.225     1604107.715                                  
  38638909.228     1230440.3292                                 
  24306627.526      653784.297                                  
  22531778.976      217779.154                                  
 18  5  7 14 10 55.0000000  0  9G25G 2S23S36G21G29S20G 5G26
  21276254.491     2291657.830                                  
  24251876.447     2560186.665                                  
  38566935.970     1446520.1502                                 
  38206198.604     1434547.6312                                 
  23089339.565       65852.620                                  
  20027436.568     1607711.966                                  
  38639470.523     1233392.3092                                 
  24306869.980      655062.190                                  
  22531816.774      217978.008                                  
 18  5  7 14 10 56.0000000  0  9G25G 2S23S36G21G29S20G 5G26
  21277241.457     2296842.651                                  
  24252980.697     2565985.286                                  
  38567518.607     1449579.5462                                 
  38206779.609     1437602.6732                                 
  23089334.574       65832.329                                  
  20028121.149     1611309.435                                  
  38640030.849     1236337.1982                                 
  24307111.962      656333.237                                  
  22531852.808      218169.832                                  
 18  5  7 14 10 57.0000000  0 10G25G 2S23G31S36G21G29S20G 5G26
  21278228.354     2302028.833                                  
  24254084.860     2571785.251                                  
  38568101.427     1452640.0272                                 
  20993770.601     1486583.5042                                 
  38207361.068     1440658.7902                                 
  23089329.845       65813.308                                  
  20028806.000     1614908.436                                  
  38640591.420     1239283.1692                                 
  24307354.215      657605.804                                  
  22531889.759      218362.892                                  
 18  5  7 14 10 58.0000000  0 10G25G 2S23G31S36G21G29S20G 5G26
  21279216.299     2307221.818                                  
  24255189.554     2577591.903                                  
  38568684.884     1455706.8792                                 
  20994424.854     1490023.3153                                 
  38207943.364     1443721.1702                                 
  23089326.390       65800.966                                  
  20029492.858     1618514.297                                  
  38641153.779     1242235.6042                                 
  24307597.453      658885.295                                  
  22531927.879      218562.500                                  
 18  5  7 14 10 59.0000000  0  9G25G 2S23S36G21G29S20G 5G26
  21280203.955     2312417.262                                  
  24256295.078     2583400.917                                  
  38569268.698     1458775.8572                                 
  38208526.995     1446785.6272                                 
  23089324.148       65790.975                                  
  20030179.219     1622122.731                                  
  38641715.781     1245189.9492                                 
  24307840.762      660167.321                                  
  22531966.558      218764.428                                  
 18  5  7 14 11  0.0000000  0  9G25G 2S23S36G21G29S20G 5G26
  21281191.140     2317611.050                                  
  24257400.436     2589208.160                                  
  38569852.827     1461842.8332                                 
  38209110.129     1449848.1032                                 
  23089322.019       65779.191                                  
  20030866.060     1625729.602                                  
  38642276.840     1248142.2722                                 
  24308084.445      661447.727                                  
  22532005.123      218964.481                                  
 18  5  7 14 11  1.0000000  0 10G25G 2S23G31S36G21G29S20G 5G26
  21282179.136     2322806.425                                  
  24258506.073     2595016.981                                  
  38570437.357     1464911.0122                                 
  20996392.654     1500349.5193                                 
  38209692.783     1452911.8592                                 
  23089320.518       65768.962                                  
  20031552.211     1629338.217                                  
  38642839.401     1251095.7552                                 
  24308328.146      662729.891                                  
  22532044.071      219165.990                                  
 18  5  7 14 11  2.0000000  0 10G25G 2S23G31S36G21G29S20G 5G26
  21283168.066     2328007.817                                  
  24259612.399     2600831.649                                  
  38571022.488     1467984.8042                                 
  20997050.204     1503798.7453                                 
  38210276.702     1455981.1172                                 
  23089320.012       65764.569                                  
  20032240.465     1632952.885                                  
  38643402.790     1254054.7002                                 
  24308572.685      664018.079                                  
  22532084.722      219373.325                                  
 18  5  7 14 11  3.0000000  0 10G25G 2S23G31S36G21G29S20G 5G26
  21284158.811     2333211.755                                  
  24260719.973     2606648.805                                  
  38571607.943     1471060.7882                                 
  20997709.430     1507251.1953                                 
  38210861.101     1459052.4942                                 
  23089319.192       65762.643                                  
  20032928.859     1636570.225                                  
  38643966.144     1257015.8952                                 
  24308818.340      665308.984                                  
  22532124.700      219583.057                                  
 18  5  7 14 11  4.0000000  0 10G25G 2S23G31S36G21G29S20G 5G26
  21285148.038     2338413.828                                  
  24261825.087     2612464.014                                  
  38572192.683     1474134.5822                                 
  20998367.312     1510701.6732                                 
  38211445.117     1462121.6702                                 
  23089317.909       65758.727                                  
  20033616.415     1640185.831                                  
  38644529.585     1259975.1812                                 
  24309064.580      666598.079                                  
  22532163.579      219790.713                                  
 18  5  7 14 11  5.0000000  0 10G25G 2S23G31S36G21G29S20G 5G26
  21286138.163     2343616.717                                  
  24262931.658     2618279.908                                  
  38572777.788     1477208.7292                                 
  20999024.146     1514153.1132                                 
  38212029.647     1465191.2022                                 
  23089317.831       65755.508                                  
  20034304.616     1643802.313                                  
  38645092.171     1262935.0382                                 
  24309310.585      667888.099                                  
  22532202.659      219999.037                                  
 18  5  7 14 11  6.0000000  0 10G25G 2S23G31S36G21G29S20G 5G26
  21287128.855     2348824.379                                  
  24264039.179     2624100.500                                  
  38573363.653     1480287.3092                                 
  20999675.877     1517609.6802                                 
  38212614.569     1468265.2332                                 
  23089317.586       65756.913                                  
  20034993.568     1647423.681                                  
  38645656.354     1265898.7532                                 
  24309557.767      669182.965                                  
  22532242.489      220211.879                                  
 18  5  7 14 11  7.0000000  0 10G25G 2S23G31S36G21G29S20G 5G26
  21288120.429     2354033.767                                  
  24265146.832     2629922.733                                  
  38573948.672     1483367.2562                                 
  21000335.958     1521068.2293                                 
  38213199.841     1471340.6492                                 
  23089318.476       65760.020                                  
  20035682.581     1651046.883                                  
  38646220.633     1268863.7562                                 
  24309805.822      670479.694                                  
  22532283.131      220426.334                                  
