     2.11           OBSERVATION DATA    M (MIXED)           RINEX VERSION / TYPE
CONVBIN 2.4.2                           20180507 151807 UTC PGM / RUN BY / DATE 
log: 144430.ubx                                             COMMENT             
format: u-blox                                              COMMENT             
                                                            MARKER NAME         
                                                            MARKER NUMBER       
                                                            OBSERVER / AGENCY   
                                                            REC # / TYPE / VERS 
                                                            ANT # / TYPE        
  4146379.5741   613424.9922  4791598.7139                  APPROX POSITION XYZ 
        0.0000        0.0000        0.0000                  ANTENNA: DELTA H/E/N
     1     1                                                WAVELENGTH FACT L1/2
     4    C1    L1    C2    L2                              # / TYPES OF OBSERV 
  2018     5     7    14    44   49.0010000     GPS         TIME OF FIRST OBS   
  2018     5     7    14    57   53.0000000     GPS         TIME OF LAST OBS    
                                                            END OF HEADER       
 18  5  7 14 44 49.0010000  0  5G29G31G26G21G25
  20793631.637       47227.5542                                 
  21764438.344       49947.7822                                 
  21895872.782       14611.9542                                 
  22403033.870       14209.5452                                 
  22619297.996       60634.3182                                 
 18  5  7 14 44 50.0010000  0  5G29G31G26G21G25
  20794457.739       51572.1882                                 
  21765303.640       54496.0652                                 
  21895982.562       15191.6102                                 
  22403134.619       14745.9652                                 
  22620391.802       66380.1202                                 
 18  5  7 14 44 51.0010000  0  5G29G31G26G21G25
  20795280.081       55895.4932                                 
  21766164.695       59023.2062                                 
  21896089.008       15749.8562                                 
  22403232.410       15261.0972                                 
  22621481.114       72104.5112                                 
 18  5  7 14 44 52.0010000  0  5G29G31G26G21G25
  20796098.566       60197.9932                                 
  21767022.320       63529.7402                                 
  21896191.310       16287.1422                                 
  22403326.222       15755.4502                                 
  22622565.270       77808.0172                                 
 18  5  7 14 44 53.0010000  0  5G29G31G26G21G25
  20796911.842       64472.1822                                 
  21767874.868       68008.1382                                 
  21896288.237       16796.1092                                 
  22403414.119       16221.5272                                 
  22623645.404       83483.1342                                 
 18  5  7 14 44 54.0010000  0  5G29G31G26G21G25
  20797718.932       68716.9422                                 
  21768721.701       72457.3002                                 
  21896379.066       17275.5992                                 
  22403496.336       16658.1862                                 
  22624719.560       89128.7762                                 
 18  5  7 14 44 55.0010000  0  6G29G31G26G21G25S20
  20798522.663       72942.6732                                 
  21769563.805       76887.5932                                 
  21896466.640       17736.0002                                 
  22403575.446       17075.8222                                 
  22625789.678       94755.2642                                 
  38978849.093       47871.1572                                 
 18  5  7 14 44 56.0010000  0  7G29G31G26G21G 4G25S20
  20799324.544       77152.5562                                 
  21770402.759       81302.2502                                 
  21896550.549       18180.4602                                 
  22403651.748       17477.6562                                 
  20820690.311       28824.8912                                 
  22626856.750      100365.8552                                 
  38979356.851       50540.3512                                 
 18  5  7 14 44 57.0010000  0  7G29G31G26G21G 4G25S20
  20800121.338       81339.1142                                 
  21771238.633       85693.7512                                 
  21896629.241       18601.5612                                 
  22403723.991       17856.1632                                 
  20820928.507       30073.5992                                 
  22627919.686      105953.0042                                 
  38979860.543       53185.9012                                 
 18  5  7 14 44 58.0010000  0  6G29G31G26G21G25S20
  20800912.566       85500.5162                                 
  21772069.648       90060.3092                                 
  21896704.643       18997.4232                                 
  22403791.218       18209.5672                                 
  22628976.899      111514.9602                                 
  38980358.642       55805.8152                                 
 18  5  7 14 44 59.0010000  0  6G29G31G26G21G25S20
  20801701.979       89646.1432                                 
  21772897.800       94411.2682                                 
  21896777.524       19377.5322                                 
  22403855.287       18547.2032                                 
  22630032.297      117061.0412                                 
  38980853.539       58409.5952                                 
 18  5  7 14 45  0.0010000  0  6G29G31G26G21G25S20
  20802488.295       93779.9542                                 
  21773723.012       98750.5962                                 
  21896847.936       19745.6712                                 
  22403917.096       18873.0412                                 
  22631085.819      122595.2152                                 
  38981346.298       61001.1072                                 
 18  5  7 14 45  1.0010000  0  6G29G31G26G21G25S20
  20803271.207       97895.267                                  
  21774544.978      103071.6162                                 
  21896913.793       20095.2622                                 
  22403975.222       19180.3972                                 
  22632135.694      128110.8212                                 
  38981835.829       63573.6492                                 
 18  5  7 14 45  2.0010000  0  6G29G31G26G21G25S20
  20804050.211      101989.601                                  
  21775362.573      107371.8432                                 
  21896976.832       20423.8692                                 
  22404029.327       19466.8202                                 
  22633181.546      133605.3752                                 
  38982321.207       66124.9652                                 
 18  5  7 14 45  3.0010000  0  6G29G31G26G21G25S20
  20804825.411      106067.946                                  
  21776178.345      111656.2662                                 
  21897036.468       20736.3382                                 
  22404080.587       19737.2752                                 
  22634223.778      139083.8592                                 
  38982803.513       68659.8912                                 
 18  5  7 14 45  4.0010000  0  6G29G31G26G21G25S20
  20805599.442      110135.897                                  
  21776991.412      115930.4752                                 
  21897093.067       21038.3802                                 
  22404130.154       19997.3532                                 
  22635264.090      144551.8552                                 
  38983283.708       71184.1602                                 
 18  5  7 14 45  5.0010000  0  6G29G31G26G21G25S20
  20806370.462      114189.401                                  
  21777801.948      120190.4592                                 
  21897148.158       21325.9322                                 
  22404176.833       20243.0142                                 
  22636301.776      150005.3572                                 
  38983761.382       73693.4872                                 
 18  5  7 14 45  6.0010000  0  6G29G31G26G21G25S20
  20807138.298      118224.372                                  
  21778608.288      124432.0702                                 
  21897199.261       21594.8722                                 
  22404220.616       20470.1512                                 
  22637336.059      155440.2282                                 
  38984235.731       76184.2412                                 
 18  5  7 14 45  7.0010000  0  6G29G31G26G21G25S20
  20807903.446      122244.920                                  
  21779412.621      128659.447                                  
  21897247.423       21849.274                                  
  22404260.682       20682.390                                  
  22638367.341      160860.100                                  
  38984706.861       78660.0442                                 
 18  5  7 14 45  8.0010000  0  6G29G31G26G21G25S20
  20808666.274      126255.308                                  
  21780214.964      132876.846                                  
  21897293.536       22093.504                                  
  22404298.679       20885.010                                  
  22639397.261      166270.227                                  
  38985175.766       81124.9062                                 
 18  5  7 14 45  9.0010000  0  6G29G31G26G21G25S20
  20809426.318      130253.263                                  
  21781015.362      137082.017                                  
  21897336.751       22325.251                                  
  22404334.051       21075.207                                  
  22640424.634      171667.854                                  
  38985642.210       83576.9252                                 
 18  5  7 14 45 10.0010000  0  7G29G31G26G21G25G 5S20
  20810183.623      134233.481                                  
  21781812.401      141269.613                                  
  21897377.427       22539.217                                  
  22404366.404       21247.686                                  
  22641448.910      177047.654                                  
  24210694.579       74559.6303                                 
  38986105.304       86011.0792                                 
 18  5  7 14 45 11.0010000  0  7G29G31G26G21G25S20S23
  20810938.554      138198.456                                  
  21782607.092      145442.157                                  
  21897415.722       22737.864                                  
  22404395.703       21404.952                                  
  22642470.000      182412.136                                  
  38986565.038       88429.5792                                 
  38959128.052      120820.3622                                 
 18  5  7 14 45 12.0010000  0  7G29G31G26G21G25S20S23
  20811691.191      142154.810                                  
  21783399.411      149606.272                                  
  21897452.315       22927.829                                  
  22404424.286       21553.642                                  
  22643489.050      187767.913                                  
  38987023.325       90839.0772                                 
  38959608.850      123345.4082                                 
 18  5  7 14 45 13.0010000  0  7G29G31G26G21G25S20S23
  20812441.873      146100.412                                  
  21784189.496      153759.818                                  
  21897486.474       23107.002                                  
  22404450.758       21691.582                                  
  22644506.240      193112.854                                  
  38987479.866       93237.5132                                 
  38960087.553      125859.3542                                 
 18  5  7 14 45 14.0010000  0  7G29G31G26G21G25S20S23
  20813188.847      150027.717                                  
  21784975.471      157895.259                                  
  21897516.986       23267.782                                  
  22404473.548       21811.277                                  
  22645520.272      198439.425                                  
  38987932.909       95617.2042                                 
  38960562.129      128354.6112                                 
 18  5  7 14 45 15.0010000  0  7G29G31G26G21G25S20S23
  20813933.858      153939.073                                  
  21785760.102      162014.945                                  
  21897544.801       23412.553                                  
  22404493.372       21915.041                                  
  22646530.623      203749.944                                  
  38988382.653       97980.3702                                 
  38961033.948      130833.4952                                 
 18  5  7 14 45 16.0010000  0  7G29G31G26G21G25S20S23
  20814676.565      157843.295                                  
  21786542.239      166127.658                                  
  21897570.261       23550.165                                  
  22404512.113       22011.686                                  
  22647539.646      209053.281                                  
  38988830.434      100336.0672                                 
  38961503.917      133304.9222                                 
 18  5  7 14 45 17.0010000  0  7G29G31G26G21G25S20S23
  20815417.946      161740.285                                  
  21787323.371      170233.351                                  
  21897595.442       23680.461                                  
  22404529.188       22101.137                                  
  22648547.868      214349.301                                  
  38989277.509      102684.3752                                 
  38961972.124      135768.7152                                 
 18  5  7 14 45 18.0010000  0  7G29G31G26G21G25S20S23
  20816156.710      165622.059                                  
  21788101.320      174324.008                                  
  21897617.237       23795.549                                  
  22404543.523       22175.401                                  
  22649552.808      219630.019                                  
  38989721.059      105017.2622                                 
  38962437.582      138216.9162                                 
 18  5  7 14 45 19.0010000  0  7G29G31G26G21G25S20S23
  20816891.608      169487.075                                  
  21788876.982      178398.061                                  
  21897636.144       23893.706                                  
  22404555.669       22232.889                                  
  22650554.678      224893.876                                  
  38990160.804      107332.5632                                 
  38962899.481      140647.9442                                 
 18  5  7 14 45 20.0010000  0  7G29G31G26G21G25S20S23
  20817625.887      173343.921                                  
  21789650.995      182464.175                                  
  21897652.766       23983.682                                  
  22404564.507       22282.271                                  
  22651554.139      230149.539                                  
  38990599.756      109639.4102                                 
  38963360.341      143070.4392                                 
 18  5  7 14 45 21.0010000  0  8G29G31G26G21G25G 5S20S23
  20818359.085      177194.838                                  
  21790423.446      186524.541                                  
  21897669.064       24067.670                                  
  22404572.020       22325.772                                  
  22652552.632      235399.127                                  
  24214512.303       94599.0763                                 
  38991037.285      111939.9422                                 
  38963820.276      145486.6202                                 
 18  5  7 14 45 22.0010000  0  8G29G31G26G21G25G 5S20S23
  20819089.333      181031.643                                  
  21791193.795      190570.965                                  
  21897681.637       24137.501                                  
  22404578.057       22355.149                                  
  22653548.446      240634.561                                  
  24214846.510       96353.5433                                 
  38991471.795      114226.0572                                 
  38964277.359      147888.3352                                 
 18  5  7 14 45 23.0010000  0  8G29G31G26G21G25G 5S20S23
  20819816.588      184853.118                                  
  21791960.898      194602.224                                  
  21897691.741       24191.951                                  
  22404580.553       22369.236                                  
  22654541.922      245854.566                                  
  24215179.329       98092.6773                                 
  38991903.810      116496.4242                                 
  38964730.768      150274.3292                                 
 18  5  7 14 45 24.0010000  0  8G29G31G26G21G25G 5S20S23
  20820542.491      188666.653                                  
  21792726.596      198625.759                                  
  21897700.579       24238.423                                  
  22404581.635       22375.391                                  
  22655534.420      251066.610                                  
  24215518.491       99824.0742                                 
  38992334.290      118758.5922                                 
  38965183.924      152651.9592                                 
 18  5  7 14 45 25.0010000  0  8G29G31G26G21G25G 5S20S23
  20821266.971      192474.332                                  
  21793491.395      202643.603                                  
  21897707.664       24278.895                                  
  22404581.722       22375.740                                  
  22656524.746      256272.636                                  
  24215852.654      101549.8262                                 
  38992763.583      121014.3402                                 
  38965634.968      155023.4052                                 
 18  5  7 14 45 26.0010000  0  8G29G31G26G21G25G 5S20S23
  20821988.276      196270.329                                  
  21794252.975      206649.949                                  
  21897712.725       24307.675                                  
  22404579.087       22364.421                                  
  22657513.118      261466.976                                  
  24216176.975      103264.1482                                 
  38993190.136      123258.2682                                 
  38966083.700      157382.7332                                 
 18  5  7 14 45 27.0010000  0  8G29G31G26G21G25G 5S20S23
  20822707.914      200051.123                                  
  21795011.745      210641.268                                  
  21897714.854       24321.220                                  
  22404573.442       22337.935                                  
  22658497.868      266645.970                                  
  24216487.851      104963.5603                                 
  38993613.862      125486.7842                                 
  38966530.190      159726.4932                                 
 18  5  7 14 45 28.0010000  0  8G29G31G26G21G25G 5S20S23
  20823425.790      203821.600                                  
  21795769.338      214622.470                                  
  21897715.988       24324.356                                  
  22404566.671       22301.120                                  
  22659481.145      271814.603                                  
  24216809.092      106652.8342                                 
  38994035.503      127704.4142                                 
  38966974.333      162059.5432                                 
 18  5  7 14 45 29.0010000  0  8G29G31G26G21G25G 5S20S23
  20824142.837      207587.278                                  
  21796525.534      218599.104                                  
  21897715.874       24322.573                                  
  22404558.766       22259.587                                  
  22660464.351      276978.301                                  
  24217125.936      108337.6302                                 
  38994456.201      129916.6732                                 
  38967416.880      164387.4202                                 
 18  5  7 14 45 30.0010000  0  8G29G31G26G21G25G 5S20S23
  20824857.232      211344.689                                  
  21797280.780      222567.591                                  
  21897713.693       24312.585                                  
  22404549.186       22209.807                                  
  22661445.324      282133.735                                  
  24217442.936      110014.2343                                 
  38994875.399      132120.2172                                 
  38967858.030      166706.6412                                 
 18  5  7 14 45 31.0010000  0  7G29G31G26G21G25S20S23
  20825569.602      215091.179                                  
  21798033.146      226525.366                                  
  21897709.540       24291.614                                  
  22404538.550       22149.109                                  
  22662423.408      287278.104                                  
  38995292.651      134312.5432                                 
  38968297.749      169014.5262                                 
 18  5  7 14 45 32.0010000  0  7G29G31G26G21G25S20S23
  20826280.942      218826.735                                  
  21798784.989      230472.400                                  
  21897704.026       24259.470                                  
  22404524.564       22077.539                                  
  22663400.577      292411.501                                  
  38995707.853      136493.9672                                 
  38968734.170      171311.1182                                 
 18  5  7 14 45 33.0010000  0  8G29G31G26G21G25G 5S20S23
  20826990.878      222557.487                                  
  21799535.287      234414.814                                  
  21897697.255       24222.568                                  
  22404509.792       22001.156                                  
  22664376.533      297540.006                                  
  24218385.545      114990.2693                                 
  38996121.903      138669.9092                                 
  38969170.443      173602.5082                                 
 18  5  7 14 45 34.0010000  0  8G29G31G26G21G25G 5S20S23
  20827699.567      226281.313                                  
  21800284.800      238350.473                                  
  21897688.417       24178.7763                                 
  22404493.337       21917.856                                  
  22665351.049      302661.489                                  
  24218701.123      116634.7783                                 
  38996533.807      140838.2402                                 
  38969605.058      175886.6002                                 
 18  5  7 14 45 35.0010000  0  8G29G31G26G21G25G 5S20S23
  20828405.245      229991.469                                  
  21801030.849      242272.661                                  
  21897677.056       24121.0522                                 
  22404475.407       21820.950                                  
  22666322.127      307769.211                                  
  24219012.304      118265.6773                                 
  38996943.904      142992.6512                                 
  38970036.768      178156.6612                                 
 18  5  7 14 45 36.0010000  0  8G29G31G26G21G25G 5S20S23
  20829109.082      233688.822                                  
  21801775.869      246182.240                                  
  21897663.367       24050.7102                                 
  22404455.234       21711.280                                  
  22667291.522      312864.077                                  
  24219322.735      119883.6283                                 
  38997351.376      145133.9892                                 
  38970466.436      180413.4822                                 
 18  5  7 14 45 37.0010000  0  8G29G31G26G21G25G 5S20S23
  20829811.052      237381.003                                  
  21802518.759      250086.838                                  
  21897649.808       23974.9982                                 
  22404433.133       21596.448                                  
  22668259.660      317953.687                                  
  24219633.427      121496.6992                                 
  38997757.582      147269.8212                                 
  38970895.170      182664.7842                                 
 18  5  7 14 45 38.0010000  0  8G29G31G26G21G25G 5S20S23
  20830512.681      241068.181                                  
  21803260.219      253986.581                                  
  21897634.714       23894.2482                                 
  22404410.090       21476.628                                  
  22669226.925      323038.208                                  
  24219936.895      123105.0102                                 
  38998163.125      149400.3802                                 
  38971322.378      184910.6592                                 
 18  5  7 14 45 39.0010000  0  8G29G31G26G21G25G 5S20S23
  20831212.234      244742.596                                  
  21803999.410      257873.754                                  
  21897617.473       23800.6682                                 
  22404385.686       21344.102                                  
  22670191.547      328109.900                                  
  24220246.942      124700.8052                                 
  38998566.059      151517.7812                                 
  38971747.483      187143.3542                                 
 18  5  7 14 45 40.0010000  0  8G29G31G26G21G25G 5S20S23
  20831909.327      248404.073                                  
  21804736.961      261748.193                                  
  21897596.550       23694.0972                                 
  22404358.673       21198.647                                  
  22671153.543      333168.534                                  
  24220540.236      126283.8972                                 
  38998966.210      153621.7972                                 
  38972169.996      189362.7602                                 
 18  5  7 14 45 41.0010000  0  8G29G31G26G21G25G 5S20S23
  20832604.727      252060.292                                  
  21805472.863      265617.558                                  
  21897575.304       23582.2412                                 
  22404329.619       21047.950                                  
  22672115.442      338221.860                                  
  24220844.725      127861.9013                                 
  38999365.750      155719.8852                                 
  38972591.183      191576.5182                                 
 18  5  7 14 45 42.0010000  0  8G29G31G26G21G25G 5S20S23
  20833299.708      255712.298                                  
  21806208.119      269482.899                                  
  21897552.532       23466.0612                                 
  22404299.901       20893.076                                  
  22673075.772      343270.879                                  
  24221144.825      129435.9712                                 
  38999764.174      157813.4052                                 
  38973011.638      193785.7422                                 
 18  5  7 14 45 43.0010000  0  8G29G31G26G21G25G 5S20S23
  20833991.845      259352.038                                  
  21806940.810      273336.162                                  
  21897529.148       23337.596                                  
  22404268.046       20725.975                                  
  22674033.614      348307.580                                  
  24221441.985      130998.0862                                 
  39000160.006      159894.4702                                 
  38973429.579      195982.2702                                 
 18  5  7 14 45 44.0010000  0  8G29G31G26G21G25G 5S20S23
  20834682.140      262978.708                                  
  21807672.227      277176.524                                  
  21897502.179       23195.994                                  
  22404233.808       20545.816                                  
  22674989.851      353331.119                                  
  24221737.252      132547.2132                                 
  39000553.587      161962.1632                                 
  38973845.200      198165.3182                                 
 18  5  7 14 45 45.0010000  0  8G29G31G26G21G25G 5S20S23
  20835370.953      266599.474                                  
  21808401.882      281011.186                                  
  21897473.552       23048.427                                  
  22404198.707       20359.783                                  
  22675944.727      358348.652                                  
  24222031.009      134090.7943                                 
  39000945.972      164023.5002                                 
  38974259.529      200342.1052                                 
 18  5  7 14 45 46.0010000  0  8G29G31G26G21G25G 5S20S23
  20836059.582      270217.562                                  
  21809131.039      284843.341                                  
  21897444.934       22898.109                                  
  22404162.742       20171.089                                  
  22676898.521      363363.440                                  
  24222324.076      135631.8622                                 
  39001337.259      166081.4612                                 
  38974672.453      202515.7932                                 
 18  5  7 14 45 47.0010000  0  8G29G31G26G21G25G 5S20S23
  20836746.414      273826.365                                  
  21809858.609      288666.409                                  
  21897414.649       22738.471                                  
  22404125.250       19973.160                                  
  22677850.832      368368.874                                  
  24222615.530      137163.9233                                 
  39001727.201      168129.7672                                 
  38975084.444      204679.8492                                 
 18  5  7 14 45 48.0010000  0  8G29G31G26G21G25G 5S20S23
  20837430.462      277423.007                                  
  21810583.526      292477.491                                  
  21897381.799       22566.578                                  
  22404084.670       19763.073                                  
  22678801.275      373362.040                                  
  24222904.907      138684.0342                                 
  39002114.247      170165.7032                                 
  38975493.730      206831.3402                                 
 18  5  7 14 45 49.0010000  0  8G29G31G26G21G25G 5S20S23
  20838113.761      281011.643                                  
  21811307.256      296280.761                                  
  21897347.762       22386.693                                  
  22404043.357       19545.035                                  
  22679750.794      378347.153                                  
  24223192.120      140196.5203                                 
  39002499.583      172193.4972                                 
  38975902.013      208974.4342                                 
 18  5  7 14 45 50.0010000  0  8G29G31G26G21G25G 5S20S23
  20838795.645      284597.095                                  
  21812030.262      300081.040                                  
  21897312.766       22203.529                                  
  22404000.351       19323.810                                  
  22680698.908      383328.985                                  
  24223478.173      141705.9363                                 
  39002884.962      174217.7582                                 
  38976308.874      211113.9432                                 
 18  5  7 14 45 51.0010000  0  7G29G31G26G21G25S20S23
  20839476.919      288176.413                                  
  21812752.597      303875.359                                  
  21897276.818       22014.168                                  
  22403957.187       19096.508                                  
  22681645.181      388304.603                                  
  39003269.355      176235.1212                                 
  38976715.254      213246.9802                                 
 18  5  7 14 45 52.0010000  0  8G29G31G26G21G25G 5S20S23
  20840156.666      291746.197                                  
  21813472.819      307660.330                                  
  21897239.379       21815.226                                  
  22403911.948       18859.712                                  
  22682589.465      393270.640                                  
  24224048.420      144703.9433                                 
  39003651.585      178242.4872                                 
  38977119.349      215370.0902                                 
 18  5  7 14 45 53.0010000  0  8G29G31G26G21G25G 5S20S23
  20840834.284      295307.692                                  
  21814191.707      311437.199                                  
  21897199.819       21607.945                                  
  22403865.452       18614.656                                  
  22683532.963      398228.270                                  
  24224332.474      146189.9233                                 
  39004032.122      180241.4512                                 
  38977521.803      217484.5642                                 
 18  5  7 14 45 54.0010000  0  8G29G31G26G21G25G 5S20S23
  20841511.205      298866.164                                  
  21814910.211      315211.230                                  
  21897158.942       21397.580                                  
  22403818.004       18366.599                                  
  22684476.688      403182.818                                  
  24224619.626      147673.2703                                 
  39004411.699      182236.9152                                 
  38977923.350      219595.6052                                 
 18  5  7 14 45 55.0010000  0  8G29G31G26G21G25G 5S20S23
  20842187.147      302419.031                                  
  21815627.188      318979.836                                  
  21897117.585       21181.555                                  
  22403770.034       18112.955                                  
  22685418.773      408131.681                                  
  24224911.437      149151.2342                                 
  39004790.456      184226.3222                                 
  38978323.754      221700.6292                                 
 18  5  7 14 45 56.0010000  0  8G29G31G26G21G25G 5S20S23
  20842861.276      305959.632                                  
  21816341.845      322736.344                                  
  21897074.675       20953.190                                  
  22403719.917       17847.084                                  
  22686359.061      413068.192                                  
  24225201.050      150617.1282                                 
  39005166.779      186203.2902                                 
  38978721.785      223792.9732                                 
 18  5  7 14 45 57.0010000  0  8G29G31G26G21G25G 5S20S23
  20843533.475      309490.474                                  
  21817054.922      326483.297                                  
  21897029.470       20715.027                                  
  22403667.444       17571.496                                  
  22687296.451      417994.866                                  
  24225478.413      152073.5822                                 
  39005541.478      188170.1402                                 
  38979117.713      225875.1852                                 
 18  5  7 14 45 58.0010000  0  8G29G31G26G21G25G 5S20S23
  20844204.410      313018.344                                  
  21817767.327      330227.464                                  
  21896983.672       20473.828                                  
  22403614.203       17292.943                                  
  22688234.287      422918.493                                  
  24225756.543      153527.2882                                 
  39005915.323      190133.5092                                 
  38979513.135      227954.0822                                 
 18  5  7 14 45 59.0010000  0  8G29G31G26G21G25G 5S20S23
  20844874.856      316541.696                                  
  21818479.383      333967.308                                  
  21896936.757       20228.064                                  
  22403560.657       17009.931                                  
  22689170.552      427837.509                                  
  24226030.852      154976.7272                                 
  39006287.946      192091.9162                                 
  38979908.112      230028.0872                                 
 18  5  7 14 46  0.0010000  0  8G29G31G26G21G25G 5S20S23
  20845543.400      320053.963                                  
  21819189.301      337696.243                                  
  21896887.390       19971.152                                  
  22403504.756       16715.843                                  
  22690104.767      432745.377                                  
  24226305.134      156415.2802                                 
  39006658.476      194038.7462                                 
  38980300.960      232090.6052                                 
 18  5  7 14 46  1.0010000  0  9G29G31G26G21G25G 5S20S27S23
  20846209.937      323555.861                                  
  21819897.344      341414.985                                  
  21896836.671       19703.797                                  
  22403447.754       16411.417                                  
  22691036.653      437642.765                                  
  24226576.607      157843.7572                                 
  39007027.190      195975.0612                                 
  40057515.640      236475.6242                                 
  38980691.618      234142.3612                                 
 18  5  7 14 46  2.0010000  0  9G29G31G26G21G25G 5S20S27S23
  20846874.834      327054.381                                  
  21820603.860      345130.548                                  
  21896785.682       19432.882                                  
  22403389.148       16103.683                                  
  22691967.517      442536.740                                  
  24226848.604      159268.9972                                 
  39007395.128      197907.6682                                 
  40057904.963      238516.7082                                 
  38981080.845      236190.3452                                 
 18  5  7 14 46  3.0010000  0  9G29G31G26G21G25G 5S20S27S23
  20847540.159      330549.339                                  
  21821309.808      348842.806                                  
  21896733.366       19158.649                                  
  22403329.808       15792.402                                  
  22692899.027      447427.124                                  
  24227118.454      160691.0083                                 
  39007762.019      199836.2352                                 
  40058292.803      240553.9552                                 
  38981468.947      238234.4672                                 
 18  5  7 14 46  4.0010000  0  9G29G31G26G21G25G 5S20S27S23
  20848204.079      334033.435                                  
  21822013.942      352544.312                                  
  21896677.813       18873.393                                  
  22403268.933       15470.248                                  
  22693828.042      452306.4413                                 
  24227386.288      162102.9063                                 
  39008126.545      201753.2532                                 
  40058678.217      242580.2643                                 
  38981855.626      240267.1302                                 
 18  5  7 14 46  5.0010000  0  9G29G31G26G21G25G 5S20S27S23
  20848864.648      337505.0163                                 
  21822715.668      356233.5923                                 
  21896621.554       18575.8543                                 
  22403205.868       15136.368                                  
  22694753.409      457173.0783                                 
  24227655.284      163505.4203                                 
  39008488.637      203658.5373                                 
  40059061.956      244594.3233                                 
  38982240.325      242287.8013                                 
 18  5  7 14 46  6.0010000  0  8G29G31G26G21G25G 5S20S27
  20849526.247      340969.4703                                 
  21823416.320      359915.2483                                 
  21896563.183       18270.2883                                 
  22403140.753       14794.8163                                 
  22695676.002      462033.0403                                 
  24227929.226      164896.5463                                 
  39008849.839      205555.4593                                 
  40059443.339      246599.5703                                 
 18  5  7 14 46  7.0010000  0  8G29G31G26G21G25G 5S20S27
  20850180.822      344425.8233                                 
  21824116.894      363597.0153                                 
  21896504.864       17963.9273                                 
  22403078.927       14449.8103                                 
  22696602.530      466884.0813                                 
  24228195.970      166283.7443                                 
  39009211.233      207452.2713                                 
  40059824.085      248600.5593                                 
 18  5  7 14 46  8.0010000  0  7G29G31G26G21G25S20S27
  20850836.077      347874.2363                                 
  21824816.360      367269.7353                                 
  21896444.774       17651.3923                                 
  22403009.405       14094.5323                                 
  22697523.378      471724.6883                                 
  39009570.018      209339.0753                                 
  40060201.254      250584.7073                                 
 18  5  7 14 46  9.0010000  0  8G29G31G26G21G25G 5S20S27
  20851492.415      351324.0923                                 
  21825513.644      370938.1503                                 
  21896384.039       17332.9963                                 
  22402937.013       13736.0693                                 
  22698444.602      476565.8843                                 
  24228722.582      169044.7783                                 
  39009927.277      211216.5553                                 
  40060578.799      252567.7883                                 
 18  5  7 14 46 10.0010000  0  7G29G31G26G21G25S20S27
  20852148.438      354758.1433                                 
  21826208.817      374590.3433                                 
  21896321.602       16997.3493                                 
  22402866.383       13363.5343                                 
  22699365.022      481394.2103                                 
  39010282.397      213080.6533                                 
  40060953.961      254540.9063                                 
 18  5  7 14 46 11.0010000  0  8G29G31G26G21G25G 5S20S27
  20852797.953      358183.6213                                 
  21826903.851      378234.9383                                 
  21896254.209       16653.1523                                 
  22402796.059       12983.1213                                 
  22700279.658      486214.8913                                 
  24229229.459      171761.3423                                 
  39010635.668      214937.0672                                 
  40061327.771      256505.9733                                 
 18  5  7 14 46 12.0010000  0  8G29G31G26G21G25G 5S20S27
  20853448.960      361606.0132                                 
  21827597.017      381876.2222                                 
  21896190.978       16305.6942                                 
  22402721.843       12599.5352                                 
  22701198.089      491031.9012                                 
  24229484.442      173112.8343                                 
  39010988.712      216789.7542                                 
  40061701.040      258467.1812                                 
 18  5  7 14 46 13.0010000  0  8G29G31G26G21G25G 5S20S27
  20854099.608      365024.5412                                 
  21828289.887      385513.8022                                 
  21896122.940       15954.3492                                 
  22402649.835       12212.0992                                 
  22702112.271      495845.0002                                 
  24229735.437      174460.8933                                 
  39011341.111      218638.2542                                 
  40062073.017      260424.0602                                 
 18  5  7 14 46 14.0010000  0  8G29G31G26G21G25G 5S20S27
  20854748.093      368433.7092                                 
  21828979.947      389142.2092                                 
  21896051.534       15593.5632                                 
  22402573.717       11815.3462                                 
  22703027.500      500648.6352                                 
  24229987.715      175799.9393                                 
  39011691.223      220477.0382                                 
  40062443.503      262371.3512                                 
 18  5  7 14 46 15.0010000  0  8G29G31G26G21G25G 5S20S27
  20855395.383      371832.7482                                 
  21829666.534      392760.6802                                 
  21895982.640       15222.6312                                 
  22402496.011       11408.4832                                 
  22703939.003      505442.0762                                 
  24230236.179      177128.9153                                 
  39012038.997      222305.1142                                 
  40062811.920      264308.1713                                 
 18  5  7 14 46 16.0010000  0  8G29G31G26G21G25G 5S20S27
  20856040.779      375224.9382                                 
  21830355.312      396372.4842                                 
  21895909.838       14844.7632                                 
  22402416.848       10994.8072                                 
  22704851.292      510228.5742                                 
  24230486.398      178450.9383                                 
  39012385.724      224125.7482                                 
  40063178.864      266237.8212                                 
 18  5  7 14 46 17.0010000  0  8G29G31G26G21G25G 5S20S27
  20856686.350      378615.6522                                 
  21831042.091      399983.0042                                 
  21895838.536       14465.3812                                 
  22402338.811       10579.6882                                 
  22705761.530      515013.5252                                 
  24230738.912      179772.0743                                 
  39012732.303      225944.6422                                 
  40063545.370      268165.5263                                 
 18  5  7 14 46 18.0010000  0  8G29G31G26G21G25G 5S20S27
  20857329.487      381997.9242                                 
  21831727.623      403585.2652                                 
  21895764.739       14077.5082                                 
  22402258.435       10156.1512                                 
  22706669.386      519789.9552                                 
  24230983.188      181084.9323                                 
  39013076.884      227754.6572                                 
  40063910.682      270084.3252                                 
 18  5  7 14 46 19.0010000  0  8G29G31G26G21G25G 5S20S27
  20857970.739      385368.997                                  
  21832410.712      407176.008                                  
  21895688.735       13677.855                                  
  22402175.599        9721.453                                  
  22707576.213      524555.095                                  
  24231223.583      182386.7762                                 
  39013418.873      229553.3752                                 
  40064273.359      271991.6092                                 
 18  5  7 14 46 20.0010000  0  8G29G31G26G21G25G 5S20S27
  20858611.737      388734.961                                  
  21833093.487      410762.352                                  
  21895611.596       13273.578                                  
  22402091.628        9281.694                                  
  22708481.897      529315.067                                  
  24231463.558      183683.8703                                 
  39013760.679      231346.6892                                 
  40064634.988      273893.4523                                 
 18  5  7 14 46 21.0010000  0  8G29G31G26G21G25G 5S20S27
  20859251.785      392099.562                                  
  21833776.462      414347.492                                  
  21895534.414       12867.860                                  
  22402007.902        8840.586                                  
  22709387.476      534073.584                                  
  24231709.728      184979.6963                                 
  39014101.526      233138.0402                                 
  40064996.129      275793.4693                                 
 18  5  7 14 46 22.0010000  0  8G29G31G26G21G25G 5S20S27
  20859890.594      395457.020                                  
  21834456.689      417925.697                                  
  21895455.818       12454.946                                  
  22401922.475        8392.381                                  
  22710291.310      538824.887                                  
  24231953.682      186268.7323                                 
  39014441.185      234921.6722                                 
  40065356.214      277685.9383                                 
 18  5  7 14 46 23.0010000  0  8G29G31G26G21G25G 5S20S27
  20860527.597      398804.429                                  
  21835135.232      421494.028                                  
  21895375.285       12031.939                                  
  22401835.302        7934.157                                  
  22711193.207      543566.054                                  
  24232195.377      187547.9313                                 
  39014778.699      236694.8342                                 
  40065713.865      279567.9232                                 
 18  5  7 14 46 24.0010000  0  8G29G31G26G21G25S20S27S23
  20861163.832      402146.262                                  
  21835813.260      425056.971                                  
  21895293.732       11603.309                                  
  22401747.615        7470.385                                  
  22712094.214      548301.579                                  
  39015115.008      238462.1592                                 
  40066070.818      281443.8633                                 
  38989270.616      279288.8832                                 
 18  5  7 14 46 25.0010000  0  8G29G31G26G21G25S20S27S23
  20861799.587      405486.683                                  
  21836490.922      428618.690                                  
  21895211.978       11173.206                                  
  22401658.863        7005.224                                  
  22712995.256      553035.591                                  
  39015451.265      240227.9112                                 
  40066426.934      283318.1033                                 
  38989628.529      281169.9702                                 
 18  5  7 14 46 26.0010000  0  9G29G31G26G21G25G 5S20S27S23
  20862434.146      408821.855                                  
  21837167.746      432175.344                                  
  21895128.679       10737.808                                  
  22401569.526        6534.859                                  
  22713895.173      557764.268                                  
  24232921.942      191362.3673                                 
  39015786.187      241988.2132                                 
  40066782.525      285186.6812                                 
  38989985.115      283045.3972                                 
 18  5  7 14 46 27.0010000  0  9G29G31G26G21G25G 5S20S27S23
  20863067.101      412146.472                                  
  21837842.459      435721.622                                  
  21895043.880       10291.785                                  
  22401478.000        6053.960                                  
  22714792.882      562482.323                                  
  24233161.106      192619.8213                                 
  39016119.495      243737.1702                                 
  40067136.119      287044.3523                                 
  38990339.590      284909.8912                                 
 18  5  7 14 46 28.0010000  0  8G29G31G26G21G25S20S27S23
  20863698.380      415463.179                                  
  21838516.150      439260.200                                  
  21894957.972        9837.810                                  
  22401384.327        5565.202                                  
  22715689.360      567192.406                                  
  39016451.573      245477.7562                                 
  40067487.802      288893.7753                                 
  38990692.940      286766.1192                                 
 18  5  7 14 46 29.0010000  0  8G29G31G26G21G25S20S27S23
  20864329.528      418778.161                                  
  21839189.162      442797.202                                  
  21894871.393        9382.070                                  
  22401290.794        5074.741                                  
  22716585.167      571900.657                                  
  39016782.472      247216.2162                                 
  40067839.136      290741.1493                                 
  38991046.036      288620.2402                                 
 18  5  7 14 46 30.0010000  0  9G29G31G26G21G25G 5S20S27S23
  20864958.949      422088.543                                  
  21839861.257      446329.810                                  
  21894783.845        8921.661                                  
  22401196.450        4579.717                                  
  22717479.971      576604.248                                  
  24233874.515      196361.5213                                 
  39017112.657      248949.8432                                 
  40068189.694      292583.5273                                 
  38991398.278      290469.3672                                 
 18  5  7 14 46 31.0010000  0  8G29G31G26G21G25S20S27S23
  20865587.026      425388.117                                  
  21840530.577      449851.782                                  
  21894693.497        8450.401                                  
  22401099.932        4073.905                                  
  22718373.143      581296.942                                  
  39017439.988      250672.2642                                 
  40068538.096      294414.5843                                 
  38991747.980      292307.3432                                 
 18  5  7 14 46 32.0010000  0  9G29G31G26G21G25G 5S20S27S23
  20866213.707      428678.053                                  
  21841199.270      453364.309                                  
  21894602.101        7969.452                                  
  22401002.185        3558.504                                  
  22719264.430      585979.933                                  
  24234347.538      198818.6193                                 
  39017766.167      252384.8212                                 
  40068884.840      296235.5393                                 
  38992095.702      294135.2602                                 
 18  5  7 14 46 33.0010000  0  9G29G31G26G21G25G 5S20S27S23
  20866839.210      431965.612                                  
  21841867.098      456874.631                                  
  21894510.427        7486.057                                  
  22400903.007        3040.745                                  
  22720155.011      590660.452                                  
  24234583.927      200040.0583                                 
  39018091.186      254094.5582                                 
  40069230.678      298053.8053                                 
  38992442.900      295960.4492                                 
 18  5  7 14 46 34.0010000  0  9G29G31G26G21G25G 5S20S27S23
  20867464.311      435250.474                                  
  21842534.220      460382.487                                  
  21894418.028        6999.928                                  
  22400804.012        2520.352                                  
  22721045.242      595338.210                                  
  24234813.223      201259.5523                                 
  39018416.101      255800.9982                                 
  40069576.419      299868.9352                                 
  38992789.688      297782.5572                                 
 18  5  7 14 46 35.0010000  0  9G29G31G26G21G25G 5S20S27S23
  20868087.302      438525.060                                  
  21843199.693      463880.201                                  
  21894323.997        6503.473                                  
  22400702.879        1989.684                                  
  22721933.581      600005.594                                  
  24235041.237      202468.8893                                 
  39018738.816      257496.5202                                 
  40069920.258      301673.5023                                 
  38993134.600      299593.9642                                 
 18  5  7 14 46 36.0010000  0  8G29G31G26G21G25S20S27S23
  20868708.364      441788.762                                  
  21843863.377      467367.240                                  
  21894227.463        5996.075                                  
  22400600.176        1448.187                                  
  22722819.266      604662.025                                  
  39019059.543      259181.0622                                 
  40070261.706      303467.0272                                 
  38993477.227      301394.1242                                 
 18  5  7 14 46 37.0010000  0  8G29G31G26G21G25S20S27S23
  20869328.536      445049.633                                  
  21844526.625      470851.630                                  
  21894130.710        5485.826                                  
  22400495.954         903.881                                  
  22723704.961      609315.552                                  
  39019379.204      260862.7502                                 
  40070602.483      305257.3522                                 
  38993819.312      303191.1122                                 
 18  5  7 14 46 38.0010000  0  9G29G31G26G21G25G 5S20S27S23
  20869948.132      448309.185                                  
  21845189.594      474334.890                                  
  21894032.901        4974.186                                  
  22400392.108         358.296                                  
  22724590.359      613967.666                                  
  24235719.928      206057.8673                                 
  39019698.648      262542.8012                                 
  40070942.753      307045.9382                                 
  38994161.127      304986.4042                                 
 18  5  7 14 46 39.0010000  0  9G29G31G26G21G25G 5S20S27S23
  20870565.721      451559.585                                  
  21845850.337      477809.169                                  
  21893933.810        4453.337                                  
  22400286.613        -196.402                                  
  22725474.195      618610.571                                  
  24235947.889      207244.1733                                 
  39020016.513      264213.0242                                 
  40071281.733      308825.0132                                 
  38994500.577      306772.1502                                 
 18  5  7 14 46 40.0010000  0  8G29G31G26G21G25S20S27S23
  20871182.464      454799.157                                  
  21846509.711      481272.822                                  
  21893832.712        3921.621                                  
  22400179.556        -761.893                                  
  22726355.431      623242.558                                  
  39020331.663      265871.9212                                 
  40071617.754      310592.8362                                 
  38994837.960      308546.7062                                 
 18  5  7 14 46 41.0010000  0  8G29G31G26G21G25S20S27S23
  20871798.544      458035.170                                  
  21847168.597      484733.097                                  
  21893731.047        3386.278                                  
  22400070.910       -1330.919                                  
  22727235.951      627870.910                                  
  39020646.649      267526.9302                                 
  40071953.383      312356.6682                                 
  38995174.880      310317.2852                                 
 18  5  7 14 46 42.0010000  0  8G29G31G26G21G25S20S27S23
  20872414.214      461269.628                                  
  21847826.670      488192.001                                  
  21893628.876        2849.349                                  
  22399962.353       -1901.469                                  
  22728116.376      632497.608                                  
  39020960.700      269179.9532                                 
  40072288.558      314118.4562                                 
  38995511.119      312085.8952                                 
 18  5  7 14 46 43.0010000  0  8G29G31G26G21G25S20S27S23
  20873027.877      464496.257                                  
  21848483.296      491643.263                                  
  21893525.152        2304.534                                  
  22399852.032       -2479.800                                  
  22728995.500      637116.419                                  
  39021273.539      270824.9652                                 
  40072622.354      315872.0803                                 
  38995846.739      313846.2822                                 
 18  5  7 14 46 44.0010000  0  8G29G31G26G21G25S20S27S23
  20873639.961      467712.057                                  
  21849138.342      495083.891                                  
  21893419.343        1748.836                                  
  22399740.011       -3068.940                                  
  22729872.243      641724.316                                  
  39021584.258      272458.4792                                 
  40072953.847      317614.5483                                 
  38996179.358      315595.5052                                 
 18  5  7 14 46 45.0010000  0  8G29G31G26G21G25S20S27S23
  20874251.172      470922.286                                  
  21849791.774      498519.132                                  
  21893312.539        1187.515                                  
  22399627.073       -3663.581                                  
  22730748.349      646326.569                                  
  39021893.606      274086.0462                                 
  40073284.040      319351.1062                                 
  38996510.808      317338.7422                                 
 18  5  7 14 46 46.0010000  0  8G29G31G26G21G25S20S27S23
  20874861.415      474131.105                                  
  21850445.521      501953.134                                  
  21893205.080         624.742                                  
  22399513.760       -4259.622                                  
  22731624.201      650927.315                                  
  39022203.103      275712.0392                                 
  40073614.007      321085.7052                                 
  38996842.222      319080.1972                                 
 18  5  7 14 46 47.0010000  0  8G29G31G26G21G25S20S27S23
  20875471.230      477334.202                                  
  21851098.229      505381.595                                  
  21893096.950          56.208                                  
  22399400.168       -4861.352                                  
  22732498.518      655522.265                                  
  39022511.466      277331.8082                                 
  40073942.917      322814.1182                                 
  38997172.433      320815.5882                                 
 18  5  7 14 46 48.0010000  0  8G29G31G26G21G25S20S27S23
  20876078.734      480527.368                                  
  21851748.485      508800.328                                  
  21892986.857        -522.327                                  
  22399282.990       -5472.960                                  
  22733370.924      660107.211                                  
  39022817.630      278941.1522                                 
  40074269.402      324532.2202                                 
  38997500.837      322540.6662                                 
 18  5  7 14 46 49.0010000  0  8G29G31G26G21G25S20S27S23
  20876684.806      483713.611                                  
  21852398.060      512212.325                                  
  21892875.751       -1107.829                                  
  22399165.218       -6091.482                                  
  22734242.563      664685.162                                  
  39023122.442      280543.4682                                 
  40074594.796      326243.1372                                 
  38997827.496      324258.4342                                 
 18  5  7 14 46 50.0010000  0  8G29G31G26G21G25S20S27S23
  20877290.590      486897.749                                  
  21853047.217      515622.375                                  
  21892763.756       -1695.498                                  
  22399046.574       -6712.078                                  
  22735113.337      669260.912                                  
  39023426.974      282143.2022                                 
  40074919.562      327951.4273                                 
  38998154.252      325973.6752                                 
 18  5  7 14 46 51.0010000  0  8G29G31G26G21G25S20S27S23
  20877895.816      490076.755                                  
  21853695.030      519027.493                                  
  21892650.547       -2288.332                                  
  22398928.052       -7337.762                                  
  22735982.637      673831.468                                  
  39023730.285      283737.2252                                 
  40075243.298      329654.1313                                 
  38998479.916      327683.4202                                 
 18  5  7 14 46 52.0010000  0  8G29G31G26G21G25S20S27S23
  20878498.608      493243.133                                  
  21854340.366      522420.170                                  
  21892534.460       -2893.856                                  
  22398806.887       -7976.020                                  
  22736850.123      678389.296                                  
  39024031.249      285318.3732                                 
  40075564.993      331343.9213                                 
  38998802.684      329380.1732                                 
 18  5  7 14 46 53.0010000  0  8G29G31G26G21G25S20S27S23
  20879099.898      496399.871                                  
  21854984.392      525803.384                                  
  21892418.128       -3509.033                                  
  22398683.077       -8623.892                                  
  22737716.046      682937.430                                  
  39024330.442      286889.4942                                 
  40075884.768      333023.8023                                 
  38999123.219      331066.8412                                 
 18  5  7 14 46 54.0010000  0  8G29G31G26G21G25S20S27S23
  20879700.491      499555.222                                  
  21855628.131      529185.390                                  
  21892300.007       -4125.690                                  
  22398559.582       -9273.132                                  
  22738580.539      687484.070                                  
  39024629.321      288458.9032                                 
  40076204.404      334701.8822                                 
  38999443.866      332751.7412                                 
 18  5  7 14 46 55.0010000  0  8G29G31G26G21G25S20S27S23
  20880299.950      502707.585                                  
  21856271.459      532564.592                                  
  21892181.643       -4745.369                                  
  22398435.546       -9925.307                                  
  22739444.935      692027.650                                  
  39024927.649      290024.9912                                 
  40076523.272      336376.5253                                 
  38999764.462      334433.3272                                 
 18  5  7 14 46 56.0010000  0  8G29G31G26G21G25S20S27S23
  20880897.890      505847.848                                  
  21856912.118      535931.894                                  
  21892061.917       -5377.182                                  
  22398309.267      -10589.547                                  
  22740306.950      696559.084                                  
  39025223.640      291578.5402                                 
  40076839.644      338038.8672                                 
  39000082.431      336102.4242                                 
 18  5  7 14 46 57.0010000  0  8G29G31G26G21G25S20S27S23
  20881493.396      508977.948                                  
  21857551.337      539289.216                                  
  21891939.922       -6019.217                                  
  22398181.209      -11263.912                                  
  22741167.551      701080.250                                  
  39025517.406      293121.5332                                 
  40077153.774      339690.5913                                 
  39000398.053      337761.0172                                 
 18  5  7 14 46 58.0010000  0  8G29G31G26G21G25S20S27S23
  20882088.431      512106.435                                  
  21858190.145      542645.112                                  
  21891817.055       -6662.910                                  
  22398052.330      -11939.844                                  
  22742027.908      705599.705                                  
  39025810.430      294662.4022                                 
  40077467.634      341340.3432                                 
  39000712.515      339417.6382                                 
 18  5  7 14 46 59.0010000  0  8G29G31G26G21G25S20S27S23
  20882683.746      515233.639                                  
  21858828.186      545999.892                                  
  21891694.659       -7307.955                                  
  22397922.937      -12617.046                                  
  22742887.741      710117.823                                  
  39026103.620      296201.4482                                 
  40077781.206      342988.4683                                 
  39001027.700      341072.5032                                 
 18  5  7 14 47  0.0010000  0  8G29G31G26G21G25S20S27S23
  20883277.140      518350.753                                  
  21859464.858      549344.780                                  
  21891569.864       -7963.113                                  
  22397792.366      -13304.274                                  
  22743745.637      714625.769                                  
  39026394.201      297730.2212                                 
  40078092.718      344626.1552                                 
  39001341.028      342716.9732                                 
 18  5  7 14 47  1.0010000  0  8G29G31G26G21G25S20S27S23
  20883868.389      521456.997                                  
  21860099.321      552678.974                                  
  21891442.914       -8629.221                                  
  22397659.639      -14002.367                                  
  22744601.230      719122.746                                  
  39026683.421      299247.8662                                 
  40078401.849      346252.5662                                 
  39001651.389      344350.1902                                 
 18  5  7 14 47  2.0010000  0  8G29G31G26G21G25S20S27S23
  20884459.201      524559.878                                  
  21860733.113      556009.978                                  
  21891315.580       -9298.726                                  
  22397526.442      -14703.785                                  
  22745455.985      723616.299                                  
  39026971.567      300761.9392                                 
  40078711.206      347875.3192                                 
  39001961.296      345979.6312                                 
 18  5  7 14 47  3.0010000  0  8G29G31G26G21G25S20S27S23
  20885049.698      527662.463                                  
  21861367.149      559340.875                                  
  21891187.722       -9968.561                                  
  22397393.148      -15405.454                                  
  22746310.889      728109.461                                  
  39027259.766      302275.3232                                 
  40079019.665      349497.3112                                 
  39002271.055      347608.3462                                 
 18  5  7 14 47  4.0010000  0  8G29G31G26G21G25S20S27S23
  20885638.373      530756.884                                  
  21861999.048      562663.815                                  
  21891059.070      -10646.624                                  
  22397257.979      -16115.262                                  
  22747164.144      732594.389                                  
  39027545.261      303780.0362                                 
  40079326.676      351110.7363                                 
  39002579.505      349228.5792                                 
 18  5  7 14 47  5.0010000  0  8G29G31G26G21G25S20S27S23
  20886225.006      533840.710                                  
  21862629.420      565976.316                                  
  21890927.836      -11335.324                                  
  22397120.646      -16835.615                                  
  22748015.767      737068.637                                  
  39027829.542      305273.4752                                 
  40079631.828      352713.1943                                 
  39002885.128      350837.8472                                 
 18  5  7 14 47  6.0010000  0  8G29G31G26G21G25S20S27S23
  20886810.696      536919.596                                  
  21863259.189      569284.079                                  
  21890796.331      -12029.016                                  
  22396982.580      -17560.866                                  
  22748866.299      741537.876                                  
  39028112.742      306761.4442                                 
  40079935.950      354310.3313                                 
  39003190.437      352441.8012                                 
 18  5  7 14 47  7.0010000  0  8G29G31G26G21G25S20S27S23
  20887396.325      539997.495                                  
  21863888.767      572591.037                                  
  21890663.849      -12723.769                                  
  22396844.060      -18287.093                                  
  22749717.006      746006.028                                  
  39028395.898      308248.4012                                 
  40080239.898      355906.0852                                 
  39003495.720      354044.4132                                 
 18  5  7 14 47  8.0010000  0  8G29G31G26G21G25S20S27S23
  20887981.248      543069.791                                  
  21864516.765      575892.575                                  
  21890530.913      -13424.132                                  
  22396705.060      -19018.872                                  
  22750566.561      750468.525                                  
  39028678.234      309729.8082                                 
  40080542.345      357495.9173                                 
  39003800.174      355641.0142                                 
 18  5  7 14 47  9.0010000  0  8G29G31G26G21G25S20S27S23
  20888563.640      546131.681                                  
  21865143.202      579183.902                                  
  21890395.700      -14134.962                                  
  22396564.132      -19761.008                                  
  22751414.127      754920.538                                  
  39028957.673      311200.2172                                 
  40080843.213      359074.9522                                 
  39004101.478      357226.8952                                 
 18  5  7 14 47 10.0010000  0  8G29G31G26G21G25S20S27S23
  20889144.383      549186.224                                  
  21865768.504      582468.047                                  
  21890259.344      -14853.187                                  
  22396421.555      -20510.464                                  
  22752259.878      759365.104                                  
  39029235.960      312662.5862                                 
  40081142.275      360646.0982                                 
  39004401.726      358805.0172                                 
 18  5  7 14 47 11.0010000  0  8G29G31G26G21G25S20S27S23
  20889725.772      552239.656                                  
  21866393.475      585751.275                                  
  21890121.662      -15572.568                                  
  22396278.263      -21260.989                                  
  22753105.253      763808.496                                  
  39029514.116      314123.5672                                 
  40081441.101      362215.7253                                 
  39004702.201      360381.5802                                 
 18  5  7 14 47 12.0010000  0  8G29G31G26G21G25S20S27S23
  20890305.887      555289.131                                  
  21867017.006      589030.729                                  
  21889983.892      -16295.951                                  
  22396134.098      -22015.443                                  
  22753949.827      768247.835                                  
  39029791.095      315580.0702                                 
  40081739.159      363780.9782                                 
  39005001.883      361953.8332                                 
 18  5  7 14 47 13.0010000  0  8G29G31G26G21G25S20S27S23
  20890883.673      558328.793                                  
  21867639.307      592300.567                                  
  21889844.552      -17029.196                                  
  22395988.589      -22779.666                                  
  22754793.047      772677.285                                  
  39030066.137      317026.3652                                 
  40082035.394      365335.9162                                 
  39005299.688      363515.8932                                 
 18  5  7 14 47 14.0010000  0  8G29G31G26G21G25S20S27S23
  20891461.353      561359.717                                  
  21868260.160      595561.831                                  
  21889704.305      -17771.225                                  
  22395841.370      -23552.593                                  
  22755634.523      777097.920                                  
  39030339.102      318463.7702                                 
  40082329.902      366881.7892                                 
  39005595.251      365068.8362                                 
 18  5  7 14 47 15.0010000  0  8G29G31G26G21G25S20S27S23
  20892037.935      564389.116                                  
  21868880.070      598821.775                                  
  21889562.679      -18514.829                                  
  22395693.995      -24327.009                                  
  22756475.894      781516.960                                  
  39030612.363      319899.0942                                 
  40082623.807      368425.8382                                 
  39005890.230      366619.8892                                 
 18  5  7 14 47 16.0010000  0  8G29G31G26G21G25S20S27S23
  20892613.591      567415.651                                  
  21869500.129      602079.021                                  
  21889420.617      -19261.353                                  
  22395546.418      -25104.244                                  
  22757316.384      785933.046                                  
  39030884.403      321330.9432                                 
  40082916.918      369966.6303                                 
  39006184.789      368167.6502                                 
 18  5  7 14 47 17.0010000  0  8G29G31G26G21G25S20S27S23
  20893187.163      570431.419                                  
  21870117.893      605325.708                                  
  21889276.277      -20018.673                                  
  22395396.163      -25892.209                                  
  22758154.020      790338.296                                  
  39031154.515      322751.9272                                 
  40083208.197      371496.4782                                 
  39006477.011      369704.2962                                 
 18  5  7 14 47 18.0010000  0  8G29G31G26G21G25S20S27S23
  20893759.355      573437.012                                  
  21870733.746      608562.390                                  
  21889130.612      -20786.217                                  
  22395243.919      -26690.311                                  
  22758990.261      794733.280                                  
  39031422.717      324162.6572                                 
  40083497.478      373015.8262                                 
  39006767.260      371230.4132                                 
 18  5  7 14 47 19.0010000  0  8G29G31G26G21G25S20S27S23
  20894330.885      576440.555                                  
  21871349.337      611797.212                                  
  21888984.422      -21555.856                                  
  22395091.343      -27490.423                                  
  22759826.118      799126.159                                  
  39031690.708      325570.6782                                 
  40083785.843      374532.6112                                 
  39007056.751      372754.1012                                 
 18  5  7 14 47 20.0010000  0  8G29G31G26G21G25S20S27S23
  20894902.083      579442.716                                  
  21871964.370      615030.844                                  
  21888837.413      -22326.923                                  
  22394938.234      -28291.877                                  
  22760661.817      803517.545                                  
  39031958.936      326976.9582                                 
  40084074.382      376047.6823                                 
  39007346.328      374276.0252                                 
 18  5  7 14 47 21.0010000  0  8G29G31G26G21G25S20S27S23
  20895471.632      582435.391                                  
  21872578.016      618255.156                                  
  21888689.287      -23107.524                                  
  22394783.791      -29102.787                                  
  22761495.432      807899.385                                  
  39032224.458      328373.1912                                 
  40084360.784      377552.9183                                 
  39007633.925      375788.0692                                 
 18  5  7 14 47 22.0010000  0  8G29G31G26G21G25S20S27S23
  20896039.593      585417.346                                  
  21873189.742      621468.955                                  
  21888538.683      -23898.876                                  
  22394628.074      -29924.352                                  
  22762327.109      812270.433                                  
  39032487.738      329758.4322                                 
  40084645.057      379047.1262                                 
  39007919.324      377289.0322                                 
 18  5  7 14 47 23.0010000  0  8G29G31G26G21G25S20S27S23
  20896606.271      588395.109                                  
  21873800.979      624678.722                                  
  21888387.826      -24694.491                                  
  22394470.787      -30750.101                                  
  22763158.638      816637.210                                  
  39032750.259      331139.0282                                 
  40084928.440      380536.6542                                 
  39008203.902      378785.4142                                 
 18  5  7 14 47 24.0010000  0  8G29G31G26G21G25S20S27S23
  20897172.827      591371.560                                  
  21874411.257      627887.386                                  
  21888236.000      -25491.448                                  
  22394313.342      -31577.104                                  
  22763989.146      821002.601                                  
  39033012.833      332517.9902                                 
  40085211.718      382024.4892                                 
  39008488.131      380280.1042                                 
 18  5  7 14 47 25.0010000  0  8G29G31G26G21G25S20S27S23
  20897737.630      594340.487                                  
  21875019.903      631088.679                                  
  21888083.040      -26295.962                                  
  22394154.065      -32411.604                                  
  22764817.779      825360.370                                  
  39033273.661      333889.1352                                 
  40085493.181      383504.3993                                 
  39008771.182      381766.9022                                 
 18  5  7 14 47 26.0010000  0  9G29G31G26G21G25G 5S20S27S23
  20898300.486      597298.518                                  
  21875627.197      634279.289                                  
  21887927.541      -27111.440                                  
  22393993.296      -33256.949                                  
  22765645.189      829707.174                                  
  24245260.101      256479.1773                                 
  39033532.439      335249.1132                                 
  40085773.205      384973.0682                                 
  39009051.511      383242.4282                                 
 18  5  7 14 47 27.0010000  0  8G29G31G26G21G25S20S27S23
  20898862.506      600250.454                                  
  21876233.383      637463.966                                  
  21887770.498      -27933.046                                  
  22393831.533      -34108.351                                  
  22766470.846      834047.801                                  
  39033789.516      336602.6462                                 
  40086051.370      386435.2342                                 
  39009330.793      384711.4882                                 
 18  5  7 14 47 28.0010000  0  9G29G31G26G21G25G 5S20S27S23
  20899423.879      603200.488                                  
  21876838.853      640646.947                                  
  21887614.458      -28756.622                                  
  22393669.446      -34961.626                                  
  22767296.311      838386.456                                  
  24245611.113      258275.0983                                 
  39034046.261      337953.6662                                 
  40086328.846      387895.1713                                 
  39009609.744      386178.2962                                 
 18  5  7 14 47 29.0010000  0  9G29G31G26G21G25G 5S20S27S23
  20899983.621      606145.327                                  
  21877443.494      643824.905                                  
  21887457.171      -29585.405                                  
  22393505.990      -35820.047                                  
  22768121.271      842719.837                                  
  24245779.603      259167.6533                                 
  39034302.212      339299.0022                                 
  40086605.188      389349.6692                                 
  39009888.528      387639.4942                                 
 18  5  7 14 47 30.0010000  0  9G29G31G26G21G25G 5S20S27S23
  20900542.080      609079.897                                  
  21878046.486      646992.773                                  
  21887297.440      -30424.526                                  
  22393341.147      -36688.704                                  
  22768943.839      847042.871                                  
  24245945.092      260050.2472                                 
  39034556.069      340633.5792                                 
  40086879.985      390793.4832                                 
  39010164.530      389090.0352                                 
 18  5  7 14 47 31.0010000  0  9G29G31G26G21G25G 5S20S27S23
  20901099.650      612007.478                                  
  21878647.742      650153.856                                  
  21887136.497      -31270.675                                  
  22393174.576      -37564.283                                  
  22769765.107      851358.838                                  
  24246118.120      260925.9753                                 
  39034808.888      341961.1852                                 
  40087153.098      392229.8343                                 
  39010439.824      390533.2112                                 
 18  5  7 14 47 32.0010000  0  9G29G31G26G21G25G 5S20S27S23
  20901656.146      614933.728                                  
  21879248.675      653313.793                                  
  21886974.663      -32118.187                                  
  22393007.176      -38441.177                                  
  22770586.166      855673.408                                  
  24246287.588      261800.6012                                 
  39035061.148      343287.0522                                 
  40087426.273      393664.3182                                 
  39010714.325      391974.6822                                 
 18  5  7 14 47 33.0010000  0  9G29G31G26G21G25G 5S20S27S23
  20902212.188      617856.488                                  
  21879848.605      656470.396                                  
  21886812.394      -32969.248                                  
  22392839.287      -39321.518                                  
  22771406.850      859984.380                                  
  24246454.438      262672.0702                                 
  39035312.815      344608.8272                                 
  40087698.557      395094.8702                                 
  39010988.224      393412.2652                                 
 18  5  7 14 47 34.0010000  0  9G29G31G26G21G25G 5S20S27S23
  20902766.748      620768.624                                  
  21880447.375      659616.561                                  
  21886648.632      -33830.965                                  
  22392669.383      -40212.446                                  
  22772225.204      864284.657                                  
  24246617.449      263533.1212                                 
  39035562.275      345919.5512                                 
  40087968.713      396514.4092                                 
  39011259.688      394838.8192                                 
 18  5  7 14 47 35.0010000  0  9G29G31G26G21G25G 5S20S27S23
  20903319.213      623671.831                                  
  21881044.347      662753.991                                  
  21886482.942      -34701.669                                  
  22392498.406      -41112.258                                  
  22773041.647      868575.936                                  
  24246781.202      264385.4552                                 
  39035810.286      347221.0922                                 
  40088236.835      397924.6562                                 
  39011529.215      396256.0732                                 
 18  5  7 14 47 36.0010000  0  9G29G31G26G21G25G 5S20S27S23
  20903871.181      626573.372                                  
  21881641.118      665889.944                                  
  21886316.476      -35574.063                                  
  22392327.472      -42013.696                                  
  22773857.367      872865.453                                  
  24246942.765      265236.4162                                 
  39036058.079      348520.5902                                 
  40088505.036      399332.9502                                 
  39011798.446      397671.3472                                 
 18  5  7 14 47 37.0010000  0  8G29G31G26G21G25S20S27S23
  20904422.372      629471.795                                  
  21882237.086      669022.941                                  
  21886150.219      -36449.634                                  
  22392155.492      -42918.211                                  
  22774673.600      877151.784                                  
  39036304.642      349816.4482                                 
  40088772.601      400737.7563                                 
  39012067.293      399083.0832                                 
 18  5  7 14 47 38.0010000  0  8G29G31G26G21G25S20S27S23
  20904972.219      632360.037                                  
  21882831.231      672145.970                                  
  21885981.763      -37335.425                                  
  22391981.452      -43832.874                                  
  22775487.051      881427.857                                  
  39036549.468      351101.8812                                 
  40089038.333      402132.0302                                 
  39012333.644      400484.2712                                 
 18  5  7 14 47 39.0010000  0  8G29G31G26G21G25S20S27S23
  20905520.200      635237.512                                  
  21883423.692      675258.391                                  
  21885811.257      -38232.023                                  
  22391805.318      -44758.267                                  
  22776299.149      885693.079                                  
  39036792.114      352376.1542                                 
  40089301.953      403515.0502                                 
  39012597.989      401874.3342                                 
 18  5  7 14 47 40.0010000  0  8G29G31G26G21G25S20S27S23
  20906066.793      638112.588                                  
  21884015.543      678368.622                                  
  21885639.949      -39131.082                                  
  22391628.565      -45685.996                                  
  22777110.567      889955.822                                  
  39037034.009      353647.7522                                 
  40089564.587      404895.3202                                 
  39012861.723      403261.5962                                 
 18  5  7 14 47 41.0010000  0  8G29G31G26G21G25S20S27S23
  20906613.569      640986.717                                  
  21884607.323      681478.076                                  
  21885468.963      -40031.105                                  
  22391451.480      -46614.657                                  
  22777921.793      894217.553                                  
  39037275.694      354918.0612                                 
  40089827.213      406274.1572                                 
  39013125.648      404647.5452                                 
 18  5  7 14 47 42.0010000  0  8G29G31G26G21G25S20S27S23
  20907158.836      643850.385                                  
  21885197.298      684577.266                                  
  21885295.211      -40941.641                                  
  22391273.095      -47553.713                                  
  22778731.326      898468.740                                  
  39037515.015      356177.1672                                 
  40090087.431      407642.1193                                 
  39013387.725      406022.6472                                 
 18  5  7 14 47 43.0010000  0  8G29G31G26G21G25S20S27S23
  20907701.224      646702.438                                  
  21885785.291      687665.030                                  
  21885120.517      -41863.854                                  
  22391092.337      -48504.353                                  
  22779538.171      902708.224                                  
  39037752.094      357424.5372                                 
  40090345.808      408998.1212                                 
  39013646.625      407385.7062                                 
 18  5  7 14 47 44.0010000  0  8G29G31G26G21G25S20S27S23
  20908244.231      649552.610                                  
  21886372.081      690751.087                                  
  21884944.322      -42787.970                                  
  22390911.248      -49456.830                                  
  22780344.363      906945.764                                  
  39037988.850      358669.7142                                 
  40090603.085      410351.8152                                 
  39013905.612      408746.5382                                 
 18  5  7 14 47 45.0010000  0  8G29G31G26G21G25S20S27S23
  20908786.113      652402.470                                  
  21886959.307      693837.037                                  
  21884767.769      -43712.445                                  
  22390730.254      -50409.577                                  
  22781150.798      911182.898                                  
  39038225.422      359914.0082                                 
  40090860.589      411705.0162                                 
  39014164.826      410106.7092                                 
 18  5  7 14 47 46.0010000  0  8G29G31G26G21G25S20S27S23
  20909326.756      655243.671                                  
  21887544.631      696914.486                                  
  21884590.231      -44645.637                                  
  22390547.882      -51370.949                                  
  22781955.358      915411.303                                  
  39038460.817      361149.4522                                 
  40091116.479      413049.2293                                 
  39014422.182      411457.8442                                 
 18  5  7 14 47 47.0010000  0  8G29G31G26G21G25S20S27S23
  20909865.557      658073.010                                  
  21888128.481      699980.257                                  
  21884410.546      -45590.713                                  
  22390362.717      -52344.147                                  
  22782757.580      919627.745                                  
  39038693.908      362372.5522                                 
  40091369.812      414381.3382                                 
  39014676.205      412796.7202                                 
 18  5  7 14 47 48.0010000  0  8G29G31G26G21G25S20S27S23
  20910403.216      660898.729                                  
  21888711.231      703042.586                                  
  21884230.189      -46539.465                                  
  22390176.794      -53320.925                                  
  22783559.400      923840.505                                  
  39038926.022      363591.6702                                 
  40091622.727      415709.5133                                 
  39014929.931      414131.5512                                 
 18  5  7 14 47 49.0010000  0  8G29G31G26G21G25S20S27S23
  20910940.691      663723.905                                  
  21889294.251      706104.567                                  
  21884048.977      -47488.799                                  
  22389990.077      -54298.198                                  
  22784360.845      928052.648                                  
  39039158.058      364809.9692                                 
  40091875.371      417036.7642                                 
  39015183.701      415465.5082                                 
 18  5  7 14 47 50.0010000  0  8G29G31G26G21G25S20S27S23
  20911477.416      666542.619                                  
  21889875.308      709160.261                                  
  21883866.762      -48444.647                                  
  22389803.482      -55281.894                                  
  22785160.667      932258.235                                  
  39039388.453      366021.6002                                 
  40092126.768      418357.0722                                 
  39015436.572      416792.5922                                 
 18  5  7 14 47 51.0010000  0  8G29G31G26G21G25S20S27S23
  20912011.332      669351.051                                  
  21890454.612      712205.864                                  
  21883682.662      -49410.814                                  
  22389614.557      -56275.828                                  
  22785958.691      936453.469                                  
  39039617.182      367222.5662                                 
  40092375.791      419666.6692                                 
  39015686.738      418109.0232                                 
 18  5  7 14 47 52.0010000  0  8G29G31G26G21G25S20S27S23
  20912544.549      672152.889                                  
  21891033.218      715245.054                                  
  21883497.830      -50383.618                                  
  22389424.096      -57276.317                                  
  22786755.678      940642.022                                  
  39039844.549      368416.5162                                 
  40092623.576      420969.2572                                 
  39015936.215      419418.5052                                 
 18  5  7 14 47 53.0010000  0  8G29G31G26G21G25S20S27S23
  20913077.811      674953.841                                  
  21891611.797      718283.556                                  
  21883312.631      -51357.354                                  
  22389233.854      -58277.653                                  
  22787552.629      944829.614                                  
  39040071.655      369608.8072                                 
  40092870.889      422270.6062                                 
  39016184.619      420726.7052                                 
 18  5  7 14 47 54.0010000  0  8G29G31G26G21G25S20S27S23
  20913609.615      677750.313                                  
  21892189.146      721317.753                                  
  21883126.114      -52335.609                                  
  22389042.748      -59283.433                                  
  22788348.307      949012.654                                  
  39040297.705      370796.2212                                 
  40093117.757      423567.3472                                 
  39016432.700      422030.0212                                 
 18  5  7 14 47 55.0010000  0  8G29G31G26G21G25S20S27S23
  20914139.779      680536.585                                  
  21892764.497      724341.931                                  
  21882938.088      -53324.106                                  
  22388848.606      -60299.350                                  
  22789142.204      953185.424                                  
  39040521.696      371973.0202                                 
  40093362.496      424853.3563                                 
  39016679.045      423322.7872                                 
 18  5  7 14 47 56.0010000  0  8G29G31G26G21G25S20S27S23
  20914669.087      683315.246                                  
  21893338.470      727358.681                                  
  21882748.509      -54320.268                                  
  22388654.263      -61322.859                                  
  22789934.994      957350.487                                  
  39040744.492      373142.0732                                 
  40093605.578      426131.1832                                 
  39016923.008      424607.5722                                 
 18  5  7 14 47 57.0010000  0  8G29G31G26G21G25S20S27S23
  20915197.445      686093.615                                  
  21893912.940      730375.322                                  
  21882558.659      -55316.742                                  
  22388459.317      -62346.606                                  
  22790727.495      961515.190                                  
  39040966.860      374310.7582                                 
  40093848.494      427408.3993                                 
  39017167.590      425891.7162                                 
 18  5  7 14 47 58.0010000  0  8G29G31G26G21G25S20S27S23
  20915725.323      688867.415                                  
  21894485.752      733387.577                                  
  21882368.015      -56317.845                                  
  22388263.308      -63374.893                                  
  22791519.255      965675.233                                  
  39041188.207      375474.6532                                 
  40094090.546      428680.6263                                 
  39017411.282      427170.8372                                 
 18  5  7 14 47 59.0010000  0  8G29G31G26G21G25S20S27S23
  20916251.342      691630.271                                  
  21895057.220      736389.064                                  
  21882175.714      -57329.941                                  
  22388065.379      -64414.083                                  
  22792309.279      969824.252                                  
  39041407.120      376626.8872                                 
  40094329.849      429941.5002                                 
  39017652.636      428438.7122                                 
 18  5  7 14 48  0.0010000  0  8G29G31G26G21G25S20S27S23
  20916775.337      694383.647                                  
  21895626.272      739381.260                                  
  21881981.502      -58351.533                                  
  22387865.984      -65462.711                                  
  22793097.104      973963.707                                  
  39041624.786      377769.0242                                 
  40094568.010      431192.4563                                 
  39017891.940      429696.6552                                 
 18  5  7 14 48  1.0010000  0  8G29G31G26G21G25S20S27S23
  20917298.600      697135.561                                  
  21896195.079      742372.189                                  
  21881786.853      -59374.636                                  
  22387665.647      -66512.743                                  
  22793884.039      978101.631                                  
  39041841.648      378909.1942                                 
  40094805.490      432441.5312                                 
  39018130.798      430952.8342                                 
 18  5  7 14 48  2.0010000  0  8G29G31G26G21G25S20S27S23
  20917821.155      699884.653                                  
  21896763.162      745360.463                                  
  21881591.542      -60400.616                                  
  22387464.568      -67565.565                                  
  22794670.137      982236.651                                  
  39042057.778      380046.4272                                 
  40095042.062      433687.2962                                 
  39018369.229      432205.7582                                 
 18  5  7 14 48  3.0010000  0  8G29G31G26G21G25S20S27S23
  20918342.925      702622.538                                  
  21897330.242      748337.718                                  
  21881394.014      -61437.849                                  
  22387262.145      -68629.558                                  
  22795455.719      986360.385                                  
  39042271.962      381172.2002                                 
  40095277.021      434921.5312                                 
  39018605.444      433447.1202                                 
 18  5  7 14 48  4.0010000  0  8G29G31G26G21G25S20S27S23
  20918862.252      705350.994                                  
  21897895.891      751305.738                                  
  21881195.361      -62484.538                                  
  22387058.082      -69702.920                                  
  22796238.867      990474.612                                  
  39042484.575      382288.2272                                 
  40095510.147      436146.0292                                 
  39018839.652      434678.6572                                 
 18  5  7 14 48  5.0010000  0  8G29G31G26G21G25S20S27S23
  20919381.309      708077.931                                  
  21898460.658      754272.410                                  
  21880995.835      -63532.784                                  
  22386853.217      -70777.770                                  
  22797021.039      994587.238                                  
  39042696.552      383402.2372                                 
  40095743.160      437368.6462                                 
  39019074.288      435908.3132                                 
 18  5  7 14 48  6.0010000  0  8G29G31G26G21G25S20S27S23
  20919899.598      710803.379                                  
  21899024.161      757237.792                                  
  21880796.021      -64582.570                                  
  22386648.308      -71854.063                                  
  22797803.402      998698.299                                  
  39042908.293      384514.4692                                 
  40095975.178      438589.3273                                 
  39019308.165      437136.1002                                 
 18  5  7 14 48  7.0010000  0  8G29G31G26G21G25S20S27S23
  20920416.020      713519.146                                  
  21899586.686      760193.674                                  
  21880594.297      -65642.070                                  
  22386441.985      -72939.995                                  
  22798583.644     1002799.613                                  
  39043118.088      385616.3922                                 
  40096205.564      439800.1622                                 
  39019540.061      438353.8762                                 
 18  5  7 14 48  8.0010000  0  8G29G31G26G21G25S20S27S23
  20920931.543      716224.295                                  
  21900147.397      763139.127                                  
  21880390.845      -66712.199                                  
  22386233.699      -74036.478                                  
  22799361.968     1006890.222                                  
  39043325.728      386707.2732                                 
  40096433.909      441000.0762                                 
  39019769.836      439560.6132                                 
 18  5  7 14 48  9.0010000  0  8G29G31G26G21G25S20S27S23
  20921445.888      718927.358                                  
  21900707.679      766082.673                                  
  21880186.790      -67784.490                                  
  22386024.750      -75135.011                                  
  22800140.344     1010978.674                                  
  39043532.574      387795.7282                                 
  40096662.036      442197.6303                                 
  39019998.120      440764.8802                                 
 18  5  7 14 48 10.0010000  0  8G29G31G26G21G25S20S27S23
  20921959.814      721629.626                                  
  21901267.892      769025.607                                  
  21879982.370      -68857.599                                  
  22385815.339      -76234.270                                  
  22800917.803     1015066.238                                  
  39043739.185      388883.1482                                 
  40096889.962      443393.9132                                 
  39020227.111      441967.9272                                 
 18  5  7 14 48 11.0010000  0  8G29G31G26G21G25S20S27S23
  20922472.327      724322.442                                  
  21901826.491      771959.287                                  
  21879776.510      -69940.190                                  
  22385604.863      -77342.951                                  
  22801694.346     1019144.300                                  
  39043944.155      389960.8472                                 
  40097115.934      444580.4022                                 
  39020453.928      443161.2092                                 
 18  5  7 14 48 12.0010000  0  8G29G31G26G21G25S20S27S23
  20922982.903      727004.637                                  
  21902382.996      774882.524                                  
  21879568.617      -71033.467                                  
  22385391.604      -78462.219                                  
  22802468.595     1023211.648                                  
  39044146.866      391027.5192                                 
  40097339.314      445755.8473                                 
  39020678.347      444343.4282                                 
 18  5  7 14 48 13.0010000  0  8G29G31G26G21G25S20S27S23
  20923492.345      729682.801                                  
  21902938.341      777801.918                                  
  21879359.764      -72130.782                                  
  22385178.031      -79585.426                                  
  22803241.797     1027274.905                                  
  39044348.669      392089.7572                                 
  40097562.179      446927.0052                                 
  39020902.905      445521.3142                                 
 18  5  7 14 48 14.0010000  0  8G29G31G26G21G25S20S27S23
  20924001.368      732360.589                                  
  21903493.903      780721.107                                  
  21879150.745      -73228.551                                  
  22384964.423      -80709.006                                  
  22804015.042     1031337.683                                  
  39044550.472      393151.2702                                 
  40097784.539      448097.2742                                 
  39021126.469      446698.3942                                 
 18  5  7 14 48 15.0010000  0  8G29G31G26G21G25S20S27S23
  20924510.251      735032.797                                  
  21904048.515      783634.906                                  
  21878940.958      -74331.924                                  
  22384749.427      -81838.123                                  
  22804787.371     1035394.808                                  
  39044750.949      394206.8862                                 
  40098006.558      449261.5842                                 
  39021349.875      447869.5402                                 
 18  5  7 14 48 16.0010000  0  8G29G31G26G21G25S20S27S23
  20925016.857      737694.982                                  
  21904601.006      786538.863                                  
  21878728.825      -75445.363                                  
  22384532.478      -82977.215                                  
  22805557.615     1039441.850                                  
  39044950.012      395252.0222                                 
  40098225.785      450415.4612                                 
  39021570.611      449030.3172                                 
 18  5  7 14 48 17.0010000  0  8G29G31G26G21G25S20S27S23
  20925522.276      740350.088                                  
  21905152.642      789435.916                                  
  21878515.688      -76565.922                                  
  22384314.481      -84123.323                                  
  22806326.341     1043481.717                                  
  39045147.391      396289.5512                                 
  40098443.415      451561.8542                                 
  39021789.507      450183.6362                                 
 18  5  7 14 48 18.0010000  0  8G29G31G26G21G25S20S27S23
  20926027.661      743004.069                                  
  21905703.494      792332.027                                  
  21878302.010      -77687.629                                  
  22384096.423      -85270.550                                  
  22807094.142     1047520.379                                  
  39045344.491      397325.3882                                 
  40098661.229      452706.6212                                 
  39022008.568      451335.4182                                 
 18  5  7 14 48 19.0010000  0  8G29G31G26G21G25S20S27S23
  20926532.033      745654.730                                  
  21906254.092      795225.011                                  
  21878087.643      -78812.704                                  
  22383877.484      -86421.024                                  
  22807862.204     1051555.656                                  
  39045541.042      398357.7292                                 
  40098878.214      453847.6532                                 
  39022227.420      452483.5052                                 
 18  5  7 14 48 20.0010000  0  8G29G31G26G21G25S20S27S23
  20927034.949      748297.647                                  
  21906802.613      798110.434                                  
  21877872.176      -79945.563                                  
  22383657.035      -87579.205                                  
  22808628.670     1055583.105                                  
  39045736.467      399382.1372                                 
  40099093.200      454980.5813                                 
  39022444.431      453623.5022                                 
 18  5  7 14 48 21.0000000  0  8G29G31G26G21G25S20S27S23
  20627743.900      750931.409                                  
  21607557.781      800986.888                                  
  21577862.370      -81087.607                                  
  22083643.093      -88746.510                                  
  22509601.102     1059601.309                                  
  38746137.090      400396.9262                                 
  39799514.476      456103.8813                                 
  38722867.303      454753.9692                                 
 18  5  7 14 48 22.0000000  0  8G29G31G26G21G25S20S27S23
  20628244.258      753564.224                                  
  21608104.767      803862.578                                  
  21577644.801      -82230.628                                  
  22083421.170      -89914.703                                  
  22510365.160     1063618.506                                  
  38746329.985      401410.2872                                 
  39799728.180      457225.9983                                 
  38723082.220      455883.1092                                 
 18  5  7 14 48 23.0000000  0  8G29G31G26G21G25S20S27S23
  20628744.809      756194.446                                  
  21608651.796      806735.849                                  
  21577427.057      -83376.307                                  
  22083198.104      -91085.466                                  
  22511129.078     1067633.018                                  
  38746522.286      402420.7332                                 
  39799941.273      458345.2493                                 
  38723296.788      457009.3122                                 
 18  5  7 14 48 24.0000000  0  8G29G31G26G21G25S20S27S23
  20629243.493      758814.505                                  
  21609196.016      809599.154                                  
  21577207.184      -84532.179                                  
  22082973.799      -92266.328                                  
  22511891.522     1071637.286                                  
  38746712.249      403420.7402                                 
  39800152.211      459453.9543                                 
  38723509.785      458124.9782                                 
 18  5  7 14 48 25.0000000  0  8G29G31G26G21G25S20S27S23
  20629740.763      761424.070                                  
  21609738.980      812452.146                                  
  21576985.828      -85698.567                                  
  22082747.121      -93457.642                                  
  22512651.461     1075630.991                                  
  38746900.354      404409.6442                                 
  39800360.803      460551.7912                                 
  38723719.947      459229.7182                                 
 18  5  7 14 48 26.0000000  0  8G29G31G26G21G25S20S27S23
  20630236.515      764031.627                                  
  21610281.690      815303.310                                  
  21576763.373      -86867.011                                  
  22082520.041      -94650.931                                  
  22513410.616     1079622.604                                  
  38747088.153      405396.1032                                 
  39800569.167      461647.1732                                 
  38723929.795      460332.1222                                 
 18  5  7 14 48 27.0000000  0  8G29G31G26G21G25S20S27S23
  20630732.468      766637.854                                  
  21610824.165      818153.320                                  
  21576540.987      -88036.849                                  
  22082292.822      -95845.511                                  
  22514169.587     1083612.801                                  
  38747275.961      406381.1062                                 
  39800777.645      462740.9302                                 
  38724139.180      461432.7742                                 
 18  5  7 14 48 28.0000000  0  8G29G31G26G21G25S20S27S23
  20631226.457      769234.482                                  
  21611364.441      820993.922                                  
  21576316.403      -89216.307                                  
  22082063.840      -97049.630                                  
  22514927.144     1087593.332                                  
  38747461.570      407356.1732                                 
  39800983.487      463824.6763                                 
  38724346.445      462523.4582                                 
 18  5  7 14 48 29.0000000  0  8G29G31G26G21G25S20S27S23
  20631718.396      771820.362                                  
  21611902.955      823823.963                                  
  21576089.969      -90406.539                                  
  22081832.860      -98264.450                                  
  22515683.009     1091563.037                                  
  38747645.347      408320.1292                                 
  39801188.074      464897.3753                                 
  38724551.668      463603.0712                                 
 18  5  7 14 48 30.0000000  0  8G29G31G26G21G25S20S27S23
  20632209.951      774402.612                                  
  21612440.928      826650.557                                  
  21575862.715      -91600.457                                  
  22081601.366      -99482.858                                  
  22516436.928     1095529.034                                  
  38747827.763      409280.2102                                 
  39801391.543      465966.0702                                 
  38724756.403      464678.6172                                 
 18  5  7 14 48 31.0000000  0  8G29G31G26G21G25S20S27S23
  20632701.149      776983.298                                  
  21612978.508      829475.765                                  
  21575635.234      -92795.961                                  
  22081368.868     -100702.789                                  
  22517190.481     1099493.382                                  
  38748009.874      410238.2322                                 
  39801594.795      467032.8232                                 
  38724961.024      465752.1922                                 
 18  5  7 14 48 32.0000000  0  8G29G31G26G21G25S20S27S23
  20633190.619      779556.202                                  
  21613514.805      832293.384                                  
  21575406.130      -93999.279                                  
  22081135.104     -101930.455                                  
  22517943.510     1103449.901                                  
  38748190.911      411187.8142                                 
  39801796.755      468091.4293                                 
  38725163.848      466817.6752                                 
 18  5  7 14 48 33.0000000  0  8G29G31G26G21G25S20S27S23
  20633678.274      782118.353                                  
  21614049.052      835100.429                                  
  21575174.819      -95213.410                                  
  22080899.169     -103168.825                                  
  22518693.817     1107395.546                                  
  38748369.531      412126.1522                                 
  39801996.097      469138.9513                                 
  38725364.403      467872.0062                                 
 18  5  7 14 48 34.0000000  0  8G29G31G26G21G25S20S27S23
  20634165.030      784675.131                                  
  21614582.244      837902.278                                  
  21574943.210      -96432.944                                  
  22080662.038     -104412.535                                  
  22519443.627     1111335.758                                  
  38748547.079      413058.9622                                 
  39802194.428      470180.6413                                 
  38725563.563      468920.6322                                 
 18  5  7 14 48 35.0000000  0  8G29G31G26G21G25S20S27S23
  20634651.315      787230.894                                  
  21615115.374      840703.293                                  
  21574710.704      -97653.529                                  
  22080424.863     -105657.210                                  
  22520193.812     1115274.855                                  
  38748724.504      413990.3702                                 
  39802392.261      471220.8272                                 
  38725762.539      469967.7992                                 
 18  5  7 14 48 36.0000000  0  8G29G31G26G21G25S20S27S23
  20635136.623      789781.147                                  
  21615647.126      843498.990                                  
  21574476.941      -98879.677                                  
  22080186.894     -106907.343                                  
  22520942.723     1119208.370                                  
  38748900.131      414916.0452                                 
  39802589.335      472255.2142                                 
  38725960.808      471009.0732                                 
 18  5  7 14 48 37.0000000  0  8G29G31G26G21G25S20S27S23
  20635619.776      792320.506                                  
  21616177.133      846283.973                                  
  21574241.529     -100116.739                                  
  22079947.146     -108168.346                                  
  22521689.121     1123130.927                                  
  38749074.005      415830.5682                                 
  39802784.289      473278.2733                                 
  38726156.931      472039.0932                                 
 18  5  7 14 48 38.0000000  0  9G29G31G26G21G25G 5S20S27S23
  20636101.455      794852.258                                  
  21616705.848      849061.532                                  
  21574004.755     -101361.445                                  
  22079705.748     -109436.893                                  
  22522434.734     1127045.780                                  
  23955089.138      307506.9133                                 
  38749246.998      416737.2842                                 
  39802977.620      474293.3562                                 
  38726351.012      473061.1442                                 
 18  5  7 14 48 39.0000000  0  9G29G31G26G21G25G 5S20S27S23
  20636582.732      797382.594                                  
  21617233.691      851837.867                                  
  21573767.319     -102607.610                                  
  22079463.984     -110706.813                                  
  22523179.326     1130959.151                                  
  23955160.553      308002.4333                                 
  38749419.110      417641.9322                                 
  39803170.070      475306.6313                                 
  38726544.919      474081.3622                                 
 18  5  7 14 48 40.0000000  0  8G29G31G26G21G25S20S27S23
  20637062.988      799908.933                                  
  21617761.342      854610.370                                  
  21573529.481     -103857.805                                  
  22079221.793     -111980.676                                  
  22523922.557     1134868.428                                  
  38749590.052      418542.1932                                 
  39803361.917      476315.5322                                 
  38726738.198      475097.2292                                 
 18  5  7 14 48 41.0000000  0  8G29G31G26G21G25S20S27S23
  20637541.822      802425.617                                  
  21618287.091      857373.413                                  
  21573289.567     -105117.708                                  
  22078977.568     -113264.166                                  
  22524664.383     1138767.989                                  
  38749759.537      419432.2622                                 
  39803551.741      477314.3883                                 
  38726929.906      476103.0862                                 
 18  5  7 14 48 42.0000000  0  8G29G31G26G21G25S20S27S23
  20638019.469      804933.078                                  
  21618810.580      860127.417                                  
  21573048.143     -106386.864                                  
  22078731.852     -114556.804                                  
  22525404.395     1142658.247                                  
  38749927.199      420312.7612                                 
  39803739.828      478303.6353                                 
  38727119.712      477099.3212                                 
 18  5  7 14 48 43.0000000  0  8G29G31G26G21G25S20S27S23
  20638496.279      807438.343                                  
  21619334.462      862879.418                                  
  21572806.335     -107658.212                                  
  22078485.490     -115851.598                                  
  22526144.127     1146546.245                                  
  38750094.363      421191.0042                                 
  39803927.182      479290.3352                                 
  38727309.274      478093.0322                                 
 18  5  7 14 48 44.0000000  0  8G29G31G26G21G25S20S27S23
  20638972.356      809941.069                                  
  21619857.576      865629.052                                  
  21572563.917     -108932.174                                  
  22078237.784     -117148.887                                  
  22526883.545     1150431.603                                  
  38750260.707      422066.3472                                 
  39804114.126      480274.1062                                 
  38727497.884      479083.7682                                 
 18  5  7 14 48 45.0000000  0  8G29G31G26G21G25S20S27S23
  20639446.347      812434.019                                  
  21620378.814      868369.082                                  
  21572319.178     -110215.951                                  
  22077988.315     -118455.933                                  
  22527621.305     1154307.105                                  
  38750425.699      422931.3742                                 
  39804299.378      481247.6672                                 
  38727684.497      480064.3752                                 
 18  5  7 14 48 46.0000000  0  8G29G31G26G21G25S20S27S23
  20639919.187      814916.949                                  
  21620898.699      871099.293                                  
  21572073.365     -111509.773                                  
  22077737.852     -119772.897                                  
  22528356.806     1158172.513                                  
  38750588.274      423785.8992                                 
  39804482.326      482210.8063                                 
  38727869.173      481034.6172                                 
 18  5  7 14 48 47.0000000  0  8G29G31G26G21G25S20S27S23
  20640391.434      817397.346                                  
  21621417.634      873827.154                                  
  21571826.898     -112806.145                                  
  22077486.787     -121092.390                                  
  22529091.503     1162035.334                                  
  38750750.692      424637.6272                                 
  39804665.475      483171.1492                                 
  38728053.368      482001.9072                                 
 18  5  7 14 48 48.0000000  0  8G29G31G26G21G25S20S27S23
  20640862.816      819876.933                                  
  21621936.865      876554.384                                  
  21571580.056     -114103.394                                  
  22077235.199     -122412.623                                  
  22529826.454     1165897.235                                  
  38750912.700      425488.2442                                 
  39804848.266      484130.3832                                 
  38728237.093      482968.0352                                 
 18  5  7 14 48 49.0000000  0  8G29G31G26G21G25S20S27S23
  20641333.073      822347.780                                  
  21622454.604      879273.047                                  
  21571331.277     -115409.413                                  
  22076982.171     -123741.569                                  
  22530559.887     1169750.325                                  
  38751072.893      426329.7182                                 
  39805028.963      485080.4762                                 
  38728419.387      483925.0282                                 
 18  5  7 14 48 50.0000000  0  9G29G31G26G21G25G 5S20S27S23
  20641801.394      824807.670                                  
  21622970.023      881980.930                                  
  21571081.015     -116726.417                                  
  22076727.101     -125081.413                                  
  22531290.772     1173592.385                                  
  23956120.699      313180.0613                                 
  38751230.704      427159.7672                                 
  39805208.159      486019.2662                                 
  38728598.949      484870.7102                                 
 18  5  7 14 48 51.0000000  0  9G29G31G26G21G25G 5S20S27S23
  20642269.173      827263.471                                  
  21623484.464      884684.917                                  
  21570829.435     -118047.526                                  
  22076471.630     -126425.303                                  
  22532021.491     1177430.292                                  
  23956204.931      313603.9003                                 
  38751387.512      427985.4042                                 
  39805386.221      486953.6513                                 
  38728778.277      485811.9412                                 
 18  5  7 14 48 52.0000000  0  9G29G31G26G21G25G 5S20S27S23
  20642735.766      829717.739                                  
  21623998.460      887387.570                                  
  21570577.550     -119370.219                                  
  22076215.836     -127770.656                                  
  22532751.660     1181266.579                                  
  23956285.630      314026.3703                                 
  38751544.232      428809.0592                                 
  39805563.655      487886.2122                                 
  38728956.897      486751.2712                                 
 18  5  7 14 48 53.0000000  0  8G29G31G26G21G25S20S27S23
  20643201.198      832164.717                                  
  21624511.147      890083.104                                  
  21570324.469     -120700.240                                  
  22075958.672     -129123.275                                  
  22533480.608     1185095.488                                  
  38751699.164      429624.9882                                 
  39805739.780      488810.9593                                 
  38729133.991      487682.9592                                 
 18  5  7 14 48 54.0000000  0  8G29G31G26G21G25S20S27S23
  20643665.086      834601.570                                  
  21625022.221      892768.697                                  
  21570069.626     -122040.435                                  
  22075699.353     -130485.945                                  
  22534207.724     1188914.212                                  
  38751852.420      430430.5052                                 
  39805913.767      489725.2242                                 
  38729309.435      488604.1312                                 
 18  5  7 14 48 55.0000000  0  9G29G31G26G21G25G 5S20S27S23
  20644128.136      837033.655                                  
  21625532.491      895449.696                                  
  21569813.536     -123385.421                                  
  22075439.641     -131853.352                                  
  22534933.671     1192728.066                                  
  23956531.128      315249.1753                                 
  38752004.700      431231.0572                                 
  39806086.760      490634.2702                                 
  38729484.103      489520.1772                                 
 18  5  7 14 48 56.0000000  0  9G29G31G26G21G25G 5S20S27S23
  20644590.366      839463.956                                  
  21626042.395      898129.107                                  
  21569556.834     -124732.208                                  
  22075178.682     -133222.476                                  
  22535659.539     1196540.083                                  
  23956604.768      315648.7952                                 
  38752156.717      432029.2632                                 
  39806259.500      491541.1582                                 
  38729657.593      490434.0062                                 
 18  5  7 14 48 57.0000000  0  9G29G31G26G21G25G 5S20S27S23
  20645051.662      841887.486                                  
  21626551.078      900801.934                                  
  21569299.182     -126085.821                                  
  22074916.519     -134598.334                                  
  22536383.234     1200345.235                                  
  23956687.404      316041.8102                                 
  38752307.705      432820.1962                                 
  39806431.123      492440.8842                                 
  38729830.403      491340.7152                                 
 18  5  7 14 48 58.0000000  0  9G29G31G26G21G25G 5S20S27S23
  20645510.917      844300.440                                  
  21627058.199      903464.348                                  
  21569039.837     -127450.044                                  
  22074653.047     -135984.737                                  
  22537105.952     1204139.731                                  
  23956751.141      316424.5273                                 
  38752455.735      433600.3102                                 
  39806600.163      493329.6613                                 
  38730000.420      492236.4942                                 
 18  5  7 14 48 59.0000000  0  9G29G31G26G21G25G 5S20S27S23
  20645968.794      846707.232                                  
  21627563.915      906120.791                                  
  21568779.349     -128820.461                                  
  22074387.629     -137377.238                                  
  22537827.257     1207928.003                                  
  23956821.762      316801.3633                                 
  38752603.137      434373.9972                                 
  39806768.200      494211.9953                                 
  38730169.504      493125.6902                                 
 18  5  7 14 49  0.0000000  0  9G29G31G26G21G25G 5S20S27S23
  20646426.216      849112.295                                  
  21628069.255      908775.676                                  
  21568518.494     -130192.655                                  
  22074122.412     -138771.424                                  
  22538547.811     1211714.432                                  
  23956890.184      317176.7412                                 
  38752750.182      435145.6362                                 
  39806935.696      495092.0883                                 
  38730338.631      494012.8032                                 
 18  5  7 14 49  1.0000000  0  8G29G31G26G21G25S20S27S23
  20646882.932      851512.472                                  
  21628573.541      911425.847                                  
  21568256.828     -131569.766                                  
  22073856.235     -140170.473                                  
  22539267.877     1215495.925                                  
  38752895.847      435912.1612                                 
  39807102.310      495966.8693                                 
  38730507.157      494894.6052                                 
 18  5  7 14 49  2.0000000  0  8G29G31G26G21G25S20S27S23
  20647338.060      853903.850                                  
  21629076.465      914067.419                                  
  21567993.007     -132955.697                                  
  22073588.801     -141578.234                                  
  22539985.744     1219268.545                                  
  38753040.213      436669.4652                                 
  39807266.752      496832.6192                                 
  38730672.629      495767.2632                                 
 18  5  7 14 49  3.0000000  0  8G29G31G26G21G25S20S27S23
  20647792.210      856289.313                                  
  21629578.045      916703.252                                  
  21567727.798     -134347.597                                  
  22073320.330     -142991.885                                  
  22540701.823     1223035.163                                  
  38753182.991      437419.9402                                 
  39807430.514      497692.0572                                 
  38730837.455      496633.6072                                 
 18  5  7 14 49  4.0000000  0  8G29G31G26G21G25S20S27S23
  20648244.930      858673.281                                  
  21630078.343      919337.793                                  
  21567462.267     -135740.992                                  
  22073051.308     -144406.951                                  
  22541418.486     1226800.215                                  
  38753325.428      438168.6442                                 
  39807593.822      498549.6153                                 
  38731002.263      497498.1632                                 
 18  5  7 14 49  5.0000000  0  8G29G31G26G21G25S20S27S23
  20648697.789      861052.705                                  
  21630579.478      921967.957                                  
  21567196.317     -137138.975                                  
  22072780.717     -145826.541                                  
  22542134.311     1230560.643                                  
  38753466.845      438912.6122                                 
  39807755.838      499402.3222                                 
  38731165.623      498357.7452                                 
 18  5  7 14 49  6.0000000  0  8G29G31G26G21G25S20S27S23
  20649149.340      863421.836                                  
  21631077.751      924588.005                                  
  21566928.509     -138547.308                                  
  22072509.244     -147256.360                                  
  22542847.615     1234310.703                                  
  38753606.028      439646.0882                                 
  39807915.979      500244.3623                                 
  38731327.169      499206.6242                                 
 18  5  7 14 49  7.0000000  0  8G29G31G26G21G25S20S27S23
  20649598.526      865782.728                                  
  21631574.681      927199.998                                  
  21566659.278     -139963.904                                  
  22072235.328     -148694.379                                  
  22543559.845     1238052.422                                  
  38753743.710      440370.9472                                 
  39808074.253      501077.8173                                 
  38731487.187      500046.8812                                 
 18  5  7 14 49  8.0000000  0  8G29G31G26G21G25S20S27S23
  20650047.258      868142.291                                  
  21632072.039      929810.863                                  
  21566389.594     -141381.855                                  
  22071961.979     -150133.675                                  
  22544271.649     1241792.755                                  
  38753880.930      441094.0822                                 
  39808232.622      501909.6253                                 
  38731646.900      500885.4532                                 
 18  5  7 14 49  9.0000000  0  8G29G31G26G21G25S20S27S23
  20650495.712      870499.266                                  
  21632568.759      932419.310                                  
  21566118.260     -142802.438                                  
  22071687.216     -151575.518                                  
  22544982.771     1245530.420                                  
  38754018.219      441814.2002                                 
  39808390.189      502738.5783                                 
  38731805.593      501721.0372                                 
 18  5  7 14 49 10.0000000  0  8G29G31G26G21G25S20S27S23
  20650942.603      872846.079                                  
  21633063.290      935017.774                                  
  21565846.194     -144233.218                                  
  22071411.424     -153027.469                                  
  22545691.634     1249257.826                                  
  38754153.485      442523.8562                                 
  39808546.063      503556.9463                                 
  38731963.142      502546.1192                                 
 18  5  7 14 49 11.0000000  0  8G29G31G26G21G25S20S27S23
  20651387.819      875182.663                                  
  21633556.162      937606.218                                  
  21565572.129     -145674.254                                  
  22071133.722     -154489.583                                  
  22546398.952     1252974.946                                  
  38754286.412      443222.9782                                 
  39808699.773      504364.3402                                 
  38732117.786      503360.6172                                 
 18  5  7 14 49 12.0000000  0  8G29G31G26G21G25S20S27S23
  20651831.404      877517.001                                  
  21634048.232      940192.591                                  
  21565297.184     -147117.561                                  
  22070855.085     -155953.907                                  
  22547106.053     1256689.732                                  
  38754418.902      443919.3522                                 
  39808853.274      505169.2072                                 
  38732272.979      504172.4912                                 
 18  5  7 14 49 13.0000000  0  8G29G31G26G21G25S20S27S23
  20652275.625      879849.790                                  
  21634539.377      942777.589                                  
  21565022.107     -148562.460                                  
  22070575.873     -157419.731                                  
  22547812.551     1260402.891                                  
  38754551.053      444613.6442                                 
  39809006.077      505972.1892                                 
  38732427.353      504982.4692                                 
 18  5  7 14 49 14.0000000  0  8G29G31G26G21G25S20S27S23
  20652717.386      882173.082                                  
  21635029.249      945353.291                                  
  21564745.120     -150016.881                                  
  22070295.657     -158894.977                                  
  22548517.330     1264106.488                                  
  38754681.467      445298.0462                                 
  39809156.890      506765.2942                                 
  38732579.868      505782.5382                                 
 18  5  7 14 49 15.0000000  0  8G29G31G26G21G25S20S27S23
  20653157.498      884486.107                                  
  21635517.628      947918.893                                  
  21564466.108     -151481.614                                  
  22070012.903     -160380.454                                  
  22549221.080     1267799.723                                  
  38754809.787      445971.7442                                 
  39809306.264      507547.8003                                 
  38732730.245      506571.9742                                 
 18  5  7 14 49 16.0000000  0  8G29G31G26G21G25S20S27S23
  20653597.156      886796.060                                  
  21636005.527      950481.621                                  
  21564187.559     -152949.425                                  
  22069729.651     -161868.962                                  
  22549922.971     1271489.816                                  
  38754937.619      446642.1872                                 
  39809454.521      508326.8473                                 
  38732879.837      507357.9732                                 
 18  5  7 14 49 17.0000000  0  8G29G31G26G21G25S20S27S23
  20654036.387      889104.281                                  
  21636492.633      953042.779                                  
  21563908.024     -154419.026                                  
  22069445.788     -163359.152                                  
  22550624.496     1275178.093                                  
  38755064.595      447310.4602                                 
  39809602.307      509103.6992                                 
  38733028.809      508141.7982                                 
 18  5  7 14 49 18.0000000  0  8G29G31G26G21G25S20S27S23
  20654473.759      891404.286                                  
  21636978.621      955595.941                                  
  21563626.858     -155896.854                                  
  22069160.224     -164857.498                                  
  22551324.023     1278858.111                                  
  38755190.446      447970.2722                                 
  39809748.348      509871.9722                                 
  38733176.255      508917.0722                                 
 18  5  7 14 49 19.0000000  0  8G29G31G26G21G25S20S27S23
  20654909.988      893693.753                                  
  21637462.193      958138.708                                  
  21563343.510     -157385.272                                  
  22068873.220     -166366.317                                  
  22552021.334     1282527.460                                  
  38755314.107      448619.2992                                 
  39809892.269      510629.2223                                 
  38733321.406      509681.4212                                 
 18  5  7 14 49 20.0000000  0  8G29G31G26G21G25S20S27S23
  20655344.490      895977.985                                  
  21637945.651      960676.446                                  
  21563059.350     -158878.961                                  
  22068585.082     -167880.331                                  
  22552718.933     1286191.542                                  
  38755436.364      449262.6162                                 
  39810035.273      511380.8452                                 
  38733465.588      510440.1062                                 
 18  5  7 14 49 21.0000000  0  8G29G31G26G21G25S20S27S23
  20655779.454      898261.025                                  
  21638428.830      963213.150                                  
  21562775.252     -160373.874                                  
  22068296.866     -169395.510                                  
  22553416.514     1289854.301                                  
  38755558.899      449904.4542                                 
  39810177.300      512130.9383                                 
  38733609.701      511197.2842                                 
 18  5  7 14 49 22.0000000  0  8G29G31G26G21G25S20S27S23
  20656212.979      900538.305                                  
  21638910.884      965744.297                                  
  21562489.644     -161874.561                                  
  22068006.965     -170916.362                                  
  22554112.568     1293511.245                                  
  38755679.785      450540.0052                                 
  39810319.031      512875.0903                                 
  38733752.889      511948.3252                                 
 18  5  7 14 49 23.0000000  0  8G29G31G26G21G25S20S27S23
  20656643.798      902805.012                                  
  21639390.651      968265.060                                  
  21562202.789     -163385.839                                  
  22067715.250     -172447.749                                  
  22554806.171     1297157.548                                  
  38755798.848      451164.6042                                 
  39810458.197      513608.4063                                 
  38733893.215      512688.4412                                 
 18  5  7 14 49 24.0000000  0  8G29G31G26G21G25S20S27S23
  20657073.920      905064.299                                  
  21639869.154      970778.557                                  
  21561913.325     -164904.608                                  
  22067423.701     -173986.497                                  
  22555497.470     1300796.321                                  
  38755916.114      451781.4452                                 
  39810596.237      514333.9302                                 
  38734032.851      513420.7742                                 
 18  5  7 14 49 25.0000000  0  8G29G31G26G21G25S20S27S23
  20657503.335      907322.367                                  
  21640347.168      973291.025                                  
  21561623.547     -166424.621                                  
  22067130.153     -175526.432                                  
  22556189.083     1304433.833                                  
  38756033.248      452396.8532                                 
  39810734.346      515057.7833                                 
  38734172.026      514151.5042                                 
 18  5  7 14 49 26.0000000  0  8G29G31G26G21G25S20S27S23
  20657932.078      909576.517                                  
  21640824.265      975799.780                                  
  21561334.135     -167948.570                                  
  22066835.890     -177070.208                                  
  22556880.164     1308067.359                                  
  38756149.353      453007.8142                                 
  39810871.191      515777.4302                                 
  38734310.528      514877.9022                                 
 18  5  7 14 49 27.0000000  0  8G29G31G26G21G25S20S27S23
  20658358.623      911820.106                                  
  21641299.618      978298.138                                  
  21561041.809     -169483.108                                  
  22066539.917     -178624.511                                  
  22557569.107     1311690.208                                  
  38756263.356      453607.9132                                 
  39811005.837      516486.5053                                 
  38734446.797      515593.3932                                 
 18  5  7 14 49 28.0000000  0  8G29G31G26G21G25S20S27S23
  20658784.391      914054.784                                  
  21641773.321      980787.766                                  
  21560748.209     -171026.593                                  
  22066242.487     -180187.670                                  
  22558256.550     1315304.098                                  
  38756375.997      454199.0432                                 
  39811138.895      517185.4163                                 
  38734581.041      516299.5782                                 
 18  5  7 14 49 29.0000000  0  8G29G31G26G21G25S20S27S23
  20659208.797      916287.941                                  
  21642246.667      983276.039                                  
  21560453.762     -172571.641                                  
  22065943.922     -181752.313                                  
  22558943.111     1318916.377                                  
  38756488.673      454788.2422                                 
  39811271.464      517882.9072                                 
  38734715.155      517003.8792                                 
 18  5  7 14 49 30.0000000  0  8G29G31G26G21G25S20S27S23
  20659633.038      918518.318                                  
  21642719.699      985761.738                                  
  21560159.377     -174119.478                                  
  22065645.637     -183319.668                                  
  22559630.021     1322525.820                                  
  38756599.953      455373.8372                                 
  39811403.553      518577.3103                                 
  38734848.597      517705.0982                                 
 18  5  7 14 49 31.0000000  0  8G29G31G26G21G25S20S27S23
  20660055.325      920738.879                                  
  21643190.183      988237.788                                  
  21559863.055     -175677.186                                  
  22065345.423     -184896.803                                  
  22560315.466     1326125.335                                  
  38756709.139      455949.0722                                 
  39811533.907      519261.4852                                 
  38734979.901      518396.0832                                 
 18  5  7 14 49 32.0000000  0  8G29G31G26G21G25S20S27S23
  20660476.215      922949.578                                  
  21643659.454      990704.162                                  
  21559565.040     -177244.774                                  
  22065043.691     -186483.726                                  
  22560997.988     1329714.906                                  
  38756816.754      456514.3562                                 
  39811662.384      519935.3173                                 
  38735109.504      519076.8912                                 
 18  5  7 14 49 33.0000000  0  8G29G31G26G21G25S20S27S23
  20660896.739      925158.460                                  
  21644128.926      993168.884                                  
  21559266.554     -178814.222                                  
  22064741.105     -188072.439                                  
  22561680.946     1333302.600                                  
  38756923.611      457077.7582                                 
  39811790.529      520606.9503                                 
  38735238.810      519755.4442                                 
 18  5  7 14 49 34.0000000  0  8G29G31G26G21G25S20S27S23
  20661316.845      927366.264                                  
  21644598.486      995632.738                                  
  21558967.309     -180384.747                                  
  22064439.129     -189662.123                                  
  22562363.205     1336889.156                                  
  38757030.458      457639.6042                                 
  39811918.291      521277.1982                                 
  38735367.531      520432.5932                                 
 18  5  7 14 49 35.0000000  0  8G29G31G26G21G25S20S27S23
  20661736.147      929565.215                                  
  21645065.558      998087.896                                  
  21558666.651     -181964.196                                  
  22064134.841     -191260.629                                  
  22563044.575     1340466.739                                  
  38757134.907      458192.1672                                 
  39812043.880      521938.1153                                 
  38735494.700      521100.4822                                 
 18  5  7 14 49 36.0000000  0  8G29G31G26G21G25S20S27S23
  20662152.169      931754.228                                  
  21645530.694     1000533.321                                  
  21558364.300     -183553.574                                  
  22063828.554     -192868.995                                  
  22563723.345     1344034.329                                  
  38757238.360      458734.1242                                 
  39812167.629      522588.8453                                 
  38735619.329      521758.1122                                 
 18  5  7 14 49 37.0000000  0  8G29G31G26G21G25S20S27S23
  20662568.078      933939.483                                  
  21645995.489     1002975.160                                  
  21558061.024     -185146.769                                  
  22063521.413     -194481.106                                  
  22564401.408     1347598.084                                  
  38757340.540      459272.1262                                 
  39812290.618      523235.1043                                 
  38735744.089      522411.5782                                 
 18  5  7 14 49 38.0000000  0  8G29G31G26G21G25S20S27S23
  20662983.925      936123.989                                  
  21646460.153     1005416.436                                  
  21557757.913     -186740.727                                  
  22063214.978     -196093.880                                  
  22565079.681     1351161.031                                  
  38757442.807      459809.1652                                 
  39812413.145      523880.4022                                 
  38735867.951      523063.9402                                 
 18  5  7 14 49 39.0000000  0  8G29G31G26G21G25S20S27S23
  20663398.289      938301.629                                  
  21646924.285     1007851.028                                  
  21557452.936     -188341.579                                  
  22062906.380     -197713.483                                  
  22565756.208     1354717.016                                  
  38757544.202      460338.8172                                 
  39812534.746      524518.4452                                 
  38735990.661      523709.0892                                 
 18  5  7 14 49 40.0000000  0  8G29G31G26G21G25S20S27S23
  20663810.167      940469.212                                  
  21647384.675     1010275.746                                  
  21557145.908     -189952.525                                  
  22062596.063     -199343.105                                  
  22566431.235     1358262.838                                  
  38757643.109      460857.8802                                 
  39812653.739      525146.0673                                 
  38736111.591      524343.7622                                 
 18  5  7 14 49 41.0000000  0  8G29G31G26G21G25S20S27S23
  20664221.660      942631.450                                  
  21647844.976     1012695.301                                  
  21556838.644     -191568.846                                  
  22062284.856     -200978.010                                  
  22567105.040     1361803.269                                  
  38757740.691      461371.1362                                 
  39812771.842      525768.1323                                 
  38736231.029      524972.7512                                 
 18  5  7 14 49 42.0000000  0  8G29G31G26G21G25S20S27S23
  20664633.180      944793.135                                  
  21648305.243     1015114.494                                  
  21556531.573     -193185.762                                  
  22061973.134     -202613.412                                  
  22567778.732     1365343.065                                  
  38757838.089      461883.7522                                 
  39812889.946      526389.2532                                 
  38736350.502      525600.8122                                 
 18  5  7 14 49 43.0000000  0  9G29G31G26G21G25G 5S20S27S23
  20665042.833      946949.551                                  
  21648764.882     1017528.581                                  
  21556222.722     -194807.938                                  
  22061660.792     -204254.028                                  
  22568451.412     1368877.516                                  
  23958929.704      328471.2743                                 
  38757934.641      462391.0322                                 
  39813007.560      527004.7012                                 
  38736468.945      526223.2472                                 
 18  5  7 14 49 44.0000000  0  8G29G31G26G21G25S20S27S23
  20665451.595      949095.896                                  
  21649222.313     1019932.812                                  
  21555912.099     -196440.243                                  
  22061346.837     -205904.668                                  
  22569123.245     1372401.808                                  
  38758029.335      462887.6872                                 
  39813122.601      527609.6423                                 
  38736585.190      526835.1772                                 
 18  5  7 14 49 45.0000000  0  8G29G31G26G21G25S20S27S23
  20665859.363      951235.441                                  
  21649678.820     1022330.419                                  
  21555600.464     -198079.378                                  
  22061031.433     -207562.047                                  
  22569792.950     1375919.251                                  
  38758122.118      463376.8372                                 
  39813236.550      528207.3882                                 
  38736700.344      527439.9852                                 
 18  5  7 14 49 46.0000000  0  8G29G31G26G21G25S20S27S23
  20666265.526      953373.679                                  
  21650134.715     1024726.900                                  
  21555287.556     -199719.840                                  
  22060715.863     -209220.686                                  
  22570461.930     1379435.297                                  
  38758215.127      463864.3422                                 
  39813349.898      528803.5033                                 
  38736814.826      528043.0952                                 
 18  5  7 14 49 47.0000000  0  8G29G31G26G21G25S20S27S23
  20666671.837      955508.672                                  
  21650589.442     1027120.302                                  
  21554974.839     -201363.580                                  
  22060399.517     -210882.510                                  
  22571130.448     1382948.012                                  
  38758307.317      464348.4282                                 
  39813463.019      529396.0582                                 
  38736928.671      528642.6072                                 
 18  5  7 14 49 48.0000000  0  8G29G31G26G21G25S20S27S23
  20667076.996      957633.513                                  
  21651043.200     1029503.751                                  
  21554660.473     -203017.494                                  
  22060081.050     -212554.434                                  
  22571797.386     1386450.510                                  
  38758397.526      464822.1332                                 
  39813573.409      529978.1612                                 
  38737040.806      529231.5492                                 
 18  5  7 14 49 49.0000000  0  8G29G31G26G21G25S20S27S23
  20667479.686      959749.118                                  
  21651495.387     1031878.145                                  
  21554344.354     -204680.675                                  
  22059761.781     -214235.554                                  
  22572462.615     1389943.691                                  
  38758485.431      465286.0232                                 
  39813682.552      530550.6852                                 
  38737151.170      529810.9622                                 
 18  5  7 14 49 50.0000000  0  8G29G31G26G21G25S20S27S23
  20667881.791      961863.443                                  
  21651946.240     1034251.425                                  
  21554027.353     -206345.180                                  
  22059441.788     -215917.906                                  
  22573127.163     1393435.494                                  
  38758573.031      465748.0902                                 
  39813791.206      531121.5022                                 
  38737260.985      530388.6722                                 
 18  5  7 14 49 51.0000000  0  8G29G31G26G21G25S20S27S23
  20668284.106      963976.095                                  
  21652397.634     1036623.232                                  
  21553709.951     -208011.369                                  
  22059121.157     -217601.856                                  
  22573791.222     1396925.573                                  
  38758660.684      466208.3592                                 
  39813899.659      531690.2273                                 
  38737370.301      530964.3762                                 
 18  5  7 14 49 52.0000000  0  8G29G31G26G21G25S20S27S23
  20668683.873      966079.531                                  
  21652847.282     1038986.013                                  
  21553390.830     -209686.797                                  
  22058798.712     -219294.950                                  
  22574453.074     1400406.350                                  
  38758746.303      466659.0442                                 
  39814005.521      532249.3743                                 
  38737478.659      531530.4732                                 
 18  5  7 14 49 53.0000000  0  8G29G31G26G21G25S20S27S23
  20669081.808      968173.147                                  
  21653295.395     1041339.139                                  
  21553070.043     -211372.096                                  
  22058474.993     -220997.859                                  
  22575113.818     1403877.218                                  
  38758829.646      467099.4132                                 
  39814110.344      532798.3142                                 
  38737584.922      532086.3982                                 
 18  5  7 14 49 54.0000000  0  8G29G31G26G21G25S20S27S23
  20669480.065      970264.160                                  
  21653742.443     1043689.837                                  
  21552748.968     -213060.016                                  
  22058150.437     -222703.305                                  
  22575774.221     1407345.413                                  
  38758912.866      467536.6102                                 
  39814214.382      533344.2532                                 
  38737690.330      532639.2892                                 
 18  5  7 14 49 55.0000000  0  8G29G31G26G21G25S20S27S23
  20669877.398      972354.556                                  
  21654189.867     1046040.120                                  
  21552427.308     -214748.568                                  
  22057825.967     -224409.296                                  
  22576434.250     1410812.903                                  
  38758996.033      467972.9082                                 
  39814317.967      533889.2052                                 
  38737794.752      533191.2062                                 
 18  5  7 14 49 56.0000000  0  8G29G31G26G21G25S20S27S23
  20670273.753      974436.768                                  
  21654635.580     1048382.379                                  
  21552104.322     -216445.343                                  
  22057499.727     -226123.421                                  
  22577092.262     1414272.139                                  
  38759077.247      468400.8782                                 
  39814420.094      534425.4852                                 
  38737898.144      533734.5232                                 
 18  5  7 14 49 57.0000000  0  8G29G31G26G21G25S20S27S23
  20670668.591      976508.647                                  
  21655079.086     1050714.501                                  
  21551779.172     -218152.479                                  
  22057171.907     -227847.812                                  
  22577748.530     1417720.983                                  
  38759156.349      468818.1612                                 
  39814520.075      534951.0523                                 
  38737999.600      534267.1922                                 
 18  5  7 14 49 58.0000000  0  8G29G31G26G21G25S20S27S23
  20671061.683      978576.819                                  
  21655521.990     1053043.096                                  
  21551453.516     -219863.348                                  
  22056843.154     -229575.872                                  
  22578404.091     1421166.012                                  
  38759235.163      469231.3322                                 
  39814619.445      535472.6452                                 
  38738100.480      534795.7762                                 
 18  5  7 14 49 59.0000000  0  8G29G31G26G21G25S20S27S23
  20671454.880      980644.320                                  
  21655965.200     1055371.215                                  
  21551127.947     -221574.904                                  
  22056514.165     -231304.525                                  
  22579059.260     1424610.321                                  
  38759313.688      469643.2622                                 
  39814718.248      535993.2712                                 
  38738200.836      535323.3562                                 
 18  5  7 14 50  0.0000000  0  8G29G31G26G21G25S20S27S23
  20671847.920      982705.764                                  
  21656406.882     1057693.464                                  
  21550801.122     -223292.562                                  
  22056184.356     -233039.205                                  
  22579713.599     1428048.483                                  
  38759391.420      470048.8592                                 
  39814815.909      536507.4562                                 
  38738299.368      535844.4542                                 
 18  5  7 14 50  1.0000000  0  8G29G31G26G21G25S20S27S23
  20672237.749      984757.408                                  
  21656847.081     1060006.061                                  
  21550472.744     -225020.037                                  
  22055852.435     -234783.636                                  
  22580365.871     1431476.760                                  
  38759466.771      470444.1482                                 
  39814912.016      537011.3142                                 
  38738396.592      536355.4342                                 
 18  5  7 14 50  2.0000000  0  8G29G31G26G21G25S20S27S23
  20672626.776      986803.627                                  
  21657286.364     1062313.430                                  
  21550143.170     -226752.961                                  
  22055519.685     -236533.428                                  
  22581017.462     1434899.550                                  
  38759541.135      470833.8912                                 
  39815006.858      537509.3583                                 
  38738492.979      536860.5872                                 
 18  5  7 14 50  3.0000000  0  8G29G31G26G21G25S20S27S23
  20673016.788      988849.375                                  
  21657724.400     1064620.527                                  
  21549813.213     -228486.377                                  
  22055186.046     -238283.607                                  
  22581668.730     1438321.783                                  
  38759615.316      471222.9292                                 
  39815101.543      538006.5602                                 
  38738589.007      537364.9142                                 
 18  5  7 14 50  4.0000000  0  8G29G31G26G21G25S20S27S23
  20673405.213      990891.174                                  
  21658162.522     1066923.831                                  
  21549482.854     -230223.787                                  
  22054852.494     -240037.706                                  
  22582319.205     1441739.995                                  
  38759688.127      471607.1072                                 
  39815195.521      538499.4073                                 
  38738684.041      537864.8822                                 
 18  5  7 14 50  5.0000000  0  8G29G31G26G21G25S20S27S23
  20673791.246      992923.336                                  
  21658599.362     1069217.699                                  
  21549150.288     -231970.855                                  
  22054516.865     -241801.382                                  
  22582966.948     1445148.491                                  
  38759759.245      471981.3752                                 
  39815287.361      538982.2833                                 
  38738777.391      538354.8912                                 
 18  5  7 14 50  6.0000000  0  8G29G31G26G21G25S20S27S23
  20674176.739      994948.684                                  
  21659034.806     1071504.928                                  
  21548816.483     -233724.772                                  
  22054179.526     -243571.827                                  
  22583614.142     1448550.076                                  
  38759828.897      472348.6672                                 
  39815378.277      539457.9852                                 
  38738869.293      538837.6292                                 
 18  5  7 14 50  7.0000000  0  8G29G31G26G21G25S20S27S23
  20674562.267      996973.274                                  
  21659470.058     1073791.569                                  
  21548482.320     -235479.471                                  
  22053842.510     -245342.988                                  
  22584261.152     1451950.823                                  
  38759898.698      472714.9912                                 
  39815468.800      539932.6012                                 
  38738960.653      539319.2812                                 
 18  5  7 14 50  8.0000000  0  8G29G31G26G21G25S20S27S23
  20674947.288      998994.694                                  
  21659904.804     1076075.251                                  
  21548147.965     -237237.350                                  
  22053504.752     -247117.234                                  
  22584906.950     1455348.339                                  
  38759967.679      473077.6802                                 
  39815558.607      540403.6272                                 
  38739051.778      539797.3872                                 
 18  5  7 14 50  9.0000000  0  8G29G31G26G21G25S20S27S23
  20675330.495     1001006.199                                  
  21660337.273     1078349.171                                  
  21547811.359     -239005.200                                  
  22053165.738     -248901.350                                  
  22585552.006     1458735.859                                  
  38760034.644      473429.9032                                 
  39815645.719      540864.4843                                 
  38739140.565      540265.2402                                 
 18  5  7 14 50 10.0000000  0  8G29G31G26G21G25S20S27S23
  20675710.735     1003009.224                                  
  21660768.791     1080614.808                                  
  21547473.601     -240781.530                                  
  22052824.238     -250693.904                                  
  22586195.378     1462114.821                                  
  38760099.472      473773.1752                                 
  39815731.705      541316.5112                                 
  38739228.025      540724.2232                                 
 18  5  7 14 50 11.0000000  0  9G29G31G26G21G25G 5S20S27S23
  20676092.171     1005010.853                                  
  21661199.288     1082879.225                                  
  21547135.119     -242559.308                                  
  22052481.934     -252487.800                                  
  22586838.035     1465492.310                                  
  23959242.569      330344.7253                                 
  38760164.605      474115.1382                                 
  39815816.679      541766.7743                                 
  38739315.242      541181.4332                                 
 18  5  7 14 50 12.0000000  0  8G29G31G26G21G25S20S27S23
  20676472.272     1007010.623                                  
  21661629.008     1085141.962                                  
  21546796.358     -244338.949                                  
  22052140.233     -254283.473                                  
  22587480.150     1468867.848                                  
  38760229.502      474454.7442                                 
  39815901.827      542214.7522                                 
  38739402.074      541636.4102                                 
 18  5  7 14 50 13.0000000  0  8G29G31G26G21G25S20S27S23
  20676851.674     1009001.168                                  
  21662057.996     1087395.673                                  
  21546455.590     -246127.831                                  
  22051796.952     -256088.326                                  
  22588120.957     1472234.122                                  
  38760292.271      474784.6672                                 
  39815985.283      542653.1512                                 
  38739486.559      542081.8162                                 
 18  5  7 14 50 14.0000000  0  8G29G31G26G21G25S20S27S23
  20677228.189     1010981.501                                  
  21662484.723     1089639.355                                  
  21546113.514     -247926.957                                  
  22051451.630     -257903.335                                  
  22588759.626     1475590.084                                  
  38760353.058      475103.9852                                 
  39816066.801      543080.9632                                 
  38739568.523      542516.6072                                 
 18  5  7 14 50 15.0000000  0  8G29G31G26G21G25S20S27S23
  20677604.677     1012959.819                                  
  21662911.172     1091881.199                                  
  21545771.097     -249728.125                                  
  22051105.758     -259720.300                                  
  22589397.903     1478943.931                                  
  38760413.864      475421.0892                                 
  39816147.605      543506.3982                                 
  38739650.827      542949.0092                                 
 18  5  7 14 50 16.0000000  0  8G29G31G26G21G25S20S27S23
  20677980.258     1014937.349                                  
  21663337.707     1094122.419                                  
  21545428.314     -251530.116                                  
  22050760.226     -261537.985                                  
  22590036.485     1482296.958                                  
  38760474.180      475737.2432                                 
  39816228.661      543930.6692                                 
  38739733.105      543380.2902                                 
 18  5  7 14 50 17.0000000  0  8G29G31G26G21G25S20S27S23
  20678354.888     1016906.649                                  
  21663762.969     1096355.604                                  
  21545083.750     -253340.359                                  
  22050412.818     -263363.851                                  
  22590672.755     1485641.659                                  
  38760532.063      476044.5802                                 
  39816307.981      544346.2312                                 
  38739813.498      543802.9262                                 
 18  5  7 14 50 18.0000000  0  8G29G31G26G21G25S20S27S23
  20678728.026     1018865.230                                  
  21664185.788     1098578.247                                  
  21544737.198     -255161.343                                  
  22050063.168     -265200.377                                  
  22591307.376     1488975.571                                  
  38760588.313      476340.6852                                 
  39816384.823      544750.6663                                 
  38739891.718      544214.5402                                 
 18  5  7 14 50 19.0000000  0  9G29G31G26G21G25G 5S20S27S23
  20679100.937     1020819.725                                  
  21664608.615     1100796.983                                  
  21544390.532     -256986.439                                  
  22049713.030     -267040.938                                  
  22591941.045     1492305.308                                  
  23959201.465      330136.0483                                 
  38760643.421      476632.1902                                 
  39816461.307      545150.7182                                 
  38739969.337      544621.6842                                 
 18  5  7 14 50 20.0000000  0  9G29G31G26G21G25G 5S20S27S23
  20679471.894     1022773.505                                  
  21665030.492     1103015.185                                  
  21544043.700     -258812.273                                  
  22049362.271     -268882.145                                  
  22592574.445     1495634.255                                  
  23959189.425      330080.5983                                 
  38760698.625      476922.7082                                 
  39816536.901      545549.8072                                 
  38740045.987      545027.7392                                 
 18  5  7 14 50 21.0000000  0  8G29G31G26G21G25S20S27S23
  20679842.912     1024721.534                                  
  21665451.976     1105227.814                                  
  21543695.097     -260643.859                                  
  22049010.484     -270729.054                                  
  22593206.657     1498957.373                                  
  38760753.174      477207.1422                                 
  39816611.431      545942.7492                                 
  38740122.253      545427.6762                                 
 18  5  7 14 50 22.0000000  0  8G29G31G26G21G25S20S27S23
  20680212.342     1026660.026                                  
  21665871.357     1107431.098                                  
  21543344.792     -262485.045                                  
  22048657.213     -272585.451                                  
  22593837.247     1502270.875                                  
  38760805.673      477481.7582                                 
  39816684.111      546325.7942                                 
  38740196.940      545817.7162                                 
 18  5  7 14 50 23.0000000  0  8G29G31G26G21G25S20S27S23
  20680580.864     1028593.994                                  
  21666289.839     1109630.019                                  
  21542993.677     -264330.778                                  
  22048302.860     -274446.330                                  
  22594467.069     1505579.763                                  
  38760857.256      477751.4762                                 
  39816756.399      546703.8913                                 
  38740270.266      546202.8092                                 
 18  5  7 14 50 24.0000000  0  8G29G31G26G21G25S20S27S23
  20680947.877     1030527.321                                  
  21666708.513     1111828.508                                  
  21542642.090     -266177.152                                  
  22047949.066     -276307.752                                  
  22595096.149     1508887.957                                  
  38760908.656      478020.1382                                 
  39816827.980      547081.0792                                 
  38740342.920      546586.9162                                 
 18  5  7 14 50 25.0000000  0  8G29G31G26G21G25S20S27S23
  20681314.559     1032455.872                                  
  21667125.687     1114022.395                                  
  21542289.796     -268028.345                                  
  22047593.692     -278173.922                                  
  22595724.872     1512191.291                                  
  38760958.860      478283.5922                                 
  39816898.592      547453.1213                                 
  38740415.469      546965.8592                                 
 18  5  7 14 50 26.0000000  0  8G29G31G26G21G25S20S27S23
  20681679.984     1034374.049                                  
  21667541.517     1116206.094                                  
  21541935.260     -269889.925                                  
  22047236.582     -280050.370                                  
  22596351.527     1515484.171                                  
  38761007.145      478536.2622                                 
  39816967.398      547814.2923                                 
  38740485.663      547334.1272                                 
 18  5  7 14 50 27.0000000  0  8G29G31G26G21G25S20S27S23
  20682043.733     1036285.620                                  
  21667956.117     1118383.358                                  
  21541579.703     -271758.146                                  
  22046878.495     -281933.403                                  
  22596977.065     1518770.350                                  
  38761054.156      478782.0442                                 
  39817035.271      548168.6223                                 
  38740554.879      547695.3652                                 
 18  5  7 14 50 28.0000000  0  8G29G31G26G21G25S20S27S23
  20682407.230     1038197.070                                  
  21668370.350     1120560.677                                  
  21541224.094     -273626.507                                  
  22046520.538     -283816.498                                  
  22597602.507     1522056.341                                  
  38761100.669      479027.2522                                 
  39817101.957      548522.3593                                 
  38740623.938      548056.1262                                 
 18  5  7 14 50 29.0000000  0  8G29G31G26G21G25S20S27S23
  20682770.579     1040105.523                                  
  21668783.833     1122735.189                                  
  21540867.717     -275497.891                                  
  22046161.727     -285702.539                                  
  22598226.823     1525339.278                                  
  38761146.546      479269.2902                                 
  39817168.940      548872.5912                                 
  38740692.064      548413.5562                                 
 18  5  7 14 50 30.0000000  0  8G29G31G26G21G25S20S27S23
  20683132.077     1042004.261                                  
  21669196.025     1124900.170                                  
  21540509.499     -277378.996                                  
  22045800.699     -287598.217                                  
  22598849.796     1528612.399                                  
  38761190.398      479501.0462                                 
  39817234.116      549212.8482                                 
  38740757.816      548760.8402                                 
 18  5  7 14 50 31.0000000  0  8G29G31G26G21G25S20S27S23
  20683492.433     1043894.094                                  
  21669606.838     1127056.405                                  
  21540150.364     -279269.060                                  
  22045437.674     -289502.745                                  
  22599470.465     1531876.534                                  
  38761232.558      479723.6332                                 
  39817296.972      549543.8023                                 
  38740822.216      549098.8782                                 
 18  5  7 14 50 32.0000000  0  8G29G31G26G21G25S20S27S23
  20683851.288     1045782.409                                  
  21670016.534     1129211.337                                  
  21539790.148     -281160.617                                  
  22045074.936     -291408.711                                  
  22600091.868     1535139.120                                  
  38761274.351      479944.3692                                 
  39817359.295      549872.8912                                 
  38740886.084      549435.0582                                 
 18  5  7 14 50 33.0000000  0  8G29G31G26G21G25S20S27S23
  20684209.969     1047668.876                                  
  21670425.942     1131364.582                                  
  21539430.203     -283054.077                                  
  22044712.129     -293316.489                                  
  22600713.008     1538399.742                                  
  38761315.970      480162.8872                                 
  39817421.357      550199.8732                                 
  38740949.123      549768.9682                                 
 18  5  7 14 50 34.0000000  0  8G29G31G26G21G25S20S27S23
  20684567.611     1049545.709                                  
  21670833.998     1133508.387                                  
  21539067.517     -284957.200                                  
  22044347.419     -295233.819                                  
  22601331.880     1541650.672                                  
  38761355.198      480370.9652                                 
  39817481.709      550516.7152                                 
  38741010.443      550092.9012                                 
 18  5  7 14 50 35.0000000  0  8G29G31G26G21G25S20S27S23
  20684922.723     1051412.785                                  
  21671240.911     1135642.622                                  
  21538703.593     -286870.089                                  
  22043980.694     -297160.855                                  
  22601948.361     1544891.754                                  
  38761393.144      480569.0222                                 
  39817540.027      550823.5012                                 
  38741070.524      550406.7302                                 
 18  5  7 14 50 36.0000000  0  8G29G31G26G21G25S20S27S23
  20685277.119     1053278.197                                  
  21671646.454     1137775.368                                  
  21538338.927     -288784.678                                  
  22043614.414     -299089.499                                  
  22602564.694     1548131.111                                  
  38761430.060      480765.5212                                 
  39817597.910      551128.2472                                 
  38741129.576      550718.4922                                 
 18  5  7 14 50 37.0000000  0  8G29G31G26G21G25S20S27S23
  20685631.926     1055142.653                                  
  21672052.163     1139907.331                                  
  21537974.156     -290700.255                                  
  22043246.869     -301019.054                                  
  22603181.184     1551369.410                                  
  38761467.455      480960.6552                                 
  39817655.870      551431.5182                                 
  38741188.837      551028.9512                                 
 18  5  7 14 50 38.0000000  0  8G29G31G26G21G25S20S27S23
  20685985.013     1056998.378                                  
  21672456.493     1142030.740                                  
  21537608.068     -292624.558                                  
  22042878.128     -302957.286                                  
  22603795.833     1554598.899                                  
  38761502.757      481146.4902                                 
  39817712.043      551725.7782                                 
  38741246.414      551330.2902                                 
 18  5  7 14 50 39.0000000  0  8G29G31G26G21G25S20S27S23
  20686336.243     1058843.497                                  
  21672858.215     1144143.747                                  
  21537239.659     -294559.516                                  
  22042507.163     -304906.043                                  
  22604408.537     1557817.720                                  
  38761535.852      481321.1472                                 
  39817765.824      552008.9963                                 
  38741301.696      551620.6502                                 
 18  5  7 14 50 40.0000000  0  8G29G31G26G21G25S20S27S23
  20686687.193     1060684.667                                  
  21673259.753     1146252.971                                  
  21536870.709     -296498.438                                  
  22042135.517     -306858.706                                  
  22605020.254     1561032.506                                  
  38761568.143      481491.6452                                 
  39817818.611      552288.0002                                 
  38741355.765      551906.6672                                 
 18  5  7 14 50 41.0000000  0  8G29G31G26G21G25S20S27S23
  20687037.157     1062524.769                                  
  21673661.291     1148361.300                                  
  21536501.716     -298438.456                                  
  22041764.010     -308812.378                                  
  22605632.015     1564246.148                                  
  38761600.435      481660.8852                                 
  39817871.512      552565.5313                                 
  38741409.800      552191.2182                                 
 18  5  7 14 50 42.0000000  0  8G29G31G26G21G25S20S27S23
  20687385.638     1064357.995                                  
  21674061.590     1150462.966                                  
  21536131.649     -300385.363                                  
  22041390.872     -310772.838                                  
  22606241.804     1567452.844                                  
  38761631.557      481822.9812                                 
  39817923.313      552835.8953                                 
  38741462.072      552468.5782                                 
 18  5  7 14 50 43.0000000  0  8G29G31G26G21G25S20S27S23
  20687731.990     1066181.065                                  
  21674459.778     1152554.616                                  
  21535759.000     -302342.441                                  
  22041015.649     -312743.426                                  
  22606850.049     1570649.289                                  
  38761660.097      481974.3302                                 
  39817972.967      553095.7402                                 
  38741513.088      552735.3612                                 
 18  5  7 14 50 44.0000000  0  8G29G31G26G21G25S20S27S23
  20688078.123     1067999.004                                  
  21674857.634     1154641.322                                  
  21535385.591     -304304.693                                  
  22040640.033     -314719.081                                  
  22607457.500     1573840.531                                  
  38761687.703      482120.0062                                 
  39818021.583      553350.0652                                 
  38741563.493      552996.6542                                 
 18  5  7 14 50 45.0000000  0  8G29G31G26G21G25S20S27S23
  20688422.530     1069816.380                                  
  21675254.094     1156727.679                                  
  21535011.999     -306267.548                                  
  22040263.545     -316695.215                                  
  22608064.113     1577031.135                                  
  38761714.978      482264.8522                                 
  39818070.034      553603.4432                                 
  38741612.912      553257.0222                                 
 18  5  7 14 50 46.0000000  0  8G29G31G26G21G25S20S27S23
  20688767.861     1071628.220                                  
  21675650.529     1158808.649                                  
  21534637.701     -308235.917                                  
  22039886.332     -318676.864                                  
  22608670.848     1580216.148                                  
  38761741.467      482403.8782                                 
  39818117.341      553850.8172                                 
  38741661.249      553511.4752                                 
 18  5  7 14 50 47.0000000  0  8G29G31G26G21G25S20S27S23
  20689111.133     1073429.908                                  
  21676044.153     1160879.668                                  
  21534261.160     -310214.467                                  
  22039507.348     -320668.582                                  
  22609275.359     1583390.898                                  
  38761765.854      482532.4572                                 
  39818162.555      554087.6002                                 
  38741708.059      553755.4652                                 
 18  5  7 14 50 48.0000000  0  8G29G31G26G21G25S20S27S23
  20689452.939     1075224.162                                  
  21676437.289     1162943.418                                  
  21533883.895     -312200.493                                  
  22039126.532     -322667.664                                  
  22609877.557     1586558.143                                  
  38761788.871      482653.3162                                 
  39818205.962      554316.7143                                 
  38741753.430      553991.6022                                 
 18  5  7 14 50 49.0000000  0  8G29G31G26G21G25S20S27S23
  20689793.759     1077017.134                                  
  21676829.448     1165006.075                                  
  21533505.252     -314187.808                                  
  22038745.341     -324667.993                                  
  22610479.546     1589724.036                                  
  38761811.513      482772.1892                                 
  39818248.968      554544.2752                                 
  38741797.884      554226.0942                                 
 18  5  7 14 50 50.0000000  0  8G29G31G26G21G25S20S27S23
  20690134.248     1078806.959                                  
  21677221.301     1167065.758                                  
  21533126.486     -316178.307                                  
  22038363.993     -326671.405                                  
  22611080.941     1592886.704                                  
  38761833.613      482887.2922                                 
  39818291.338      554768.3253                                 
  38741841.911      554457.0952                                 
 18  5  7 14 50 51.0000000  0  8G29G31G26G21G25S20S27S23
  20690473.611     1080587.451                                  
  21677611.584     1169116.290                                  
  21532746.394     -318178.164                                  
  22037981.039     -328684.073                                  
  22611680.592     1596039.946                                  
  38761853.952      482993.0592                                 
  39818332.450      554982.7222                                 
  38741883.861      554678.4232                                 
 18  5  7 14 50 52.0000000  0  8G29G31G26G21G25S20S27S23
  20690810.854     1082359.552                                  
  21678000.288     1171158.628                                  
  21532364.295     -320186.422                                  
  22037596.959     -330705.085                                  
  22612279.492     1599184.752                                  
  38761872.536      483090.5132                                 
  39818371.548      555188.2593                                 
  38741924.032      554890.9902                                 
 18  5  7 14 50 53.0000000  0  8G29G31G26G21G25S20S27S23
  20691147.817     1084130.403                                  
  21678388.468     1173199.886                                  
  21531981.682     -322195.924                                  
  22037212.426     -332727.282                                  
  22612877.450     1602328.222                                  
  38761890.676      483186.1132                                 
  39818410.113      555392.1683                                 
  38741964.220      555101.9042                                 
 18  5  7 14 50 54.0000000  0  8G29G31G26G21G25S20S27S23
  20691484.423     1085899.480                                  
  21678776.779     1175239.530                                  
  21531598.903     -324207.271                                  
  22036827.414     -334751.196                                  
  22613475.172     1605469.818                                  
  38761908.414      483279.3622                                 
  39818447.927      555594.2433                                 
  38742004.067      555310.6462                                 
 18  5  7 14 50 55.0000000  0  8G29G31G26G21G25S20S27S23
  20691818.796     1087658.730                                  
  21679163.126     1177269.569                                  
  21531214.291     -326228.435                                  
  22036440.001     -336784.882                                  
  22614070.984     1608601.528                                  
  38761924.459      483362.3052                                 
  39818484.075      555785.8103                                 
  38742041.707      555509.2462                                 
 18  5  7 14 50 56.0000000  0  8G29G31G26G21G25S20S27S23
  20692151.824     1089407.856                                  
  21679547.520     1179289.655                                  
  21530828.502     -328259.750                                  
  22036051.193     -338828.602                                  
  22614664.553     1611723.028                                  
  38761938.140      483434.9882                                 
  39818518.758      555967.0423                                 
  38742077.262      555697.3112                                 
 18  5  7 14 50 57.0000000  0  8G29G31G26G21G25S20S27S23
  20692484.565     1091154.694                                  
  21679931.861     1181307.614                                  
  21530441.334     -330293.372                                  
  22035662.062     -340874.588                                  
  22615258.000     1614842.144                                  
  38761951.708      483505.0562                                 
  39818552.637      556145.3622                                 
  38742113.026      555882.7222                                 
 18  5  7 14 50 58.0000000  0  8G29G31G26G21G25S20S27S23
  20692817.219     1092900.964                                  
  21680315.993     1183325.187                                  
  21530053.424     -332327.601                                  
  22035272.713     -342921.073                                  
  22615851.229     1617960.638                                  
  38761964.385      483574.0282                                 
  39818586.168      556322.7872                                 
  38742148.476      556067.2042                                 
 18  5  7 14 50 59.0000000  0  8G29G31G26G21G25S20S27S23
  20693148.520     1094639.219                                  
  21680697.917     1185334.935                                  
  21529664.659     -334369.854                                  
  22034882.028     -344975.489                                  
  22616443.568     1621071.025                                  
  38761976.155      483634.7682                                 
  39818618.267      556491.6463                                 
  38742181.955      556243.2662                                 
 18  5  7 14 51  0.0000000  0  8G29G31G26G21G25S20S27S23
  20693477.142     1096366.878                                  
  21681078.166     1187334.275                                  
  21529274.167     -336422.720                                  
  22034488.936     -347040.455                                  
  22617032.521     1624170.761                                  
  38761986.050      483684.5742                                 
  39818648.107      556649.4352                                 
  38742213.705      556408.4372                                 
 18  5  7 14 51  1.0000000  0  8G29G31G26G21G25S20S27S23
  20693804.779     1098090.207                                  
  21681457.882     1189329.457                                  
  21528882.427     -338479.934                                  
  22034094.727     -349109.694                                  
  22617621.623     1627266.067                                  
  38761994.749      483729.7442                                 
  39818677.520      556802.5783                                 
  38742244.060      556568.8912                                 
 18  5  7 14 51  2.0000000  0  8G29G31G26G21G25S20S27S23
  20694132.162     1099812.350                                  
  21681837.259     1191323.637                                  
  21528490.434     -340538.361                                  
  22033700.579     -351180.056                                  
  22618210.289     1630360.118                                  
  38762002.819      483773.5172                                 
  39818706.121      556954.2793                                 
  38742273.970      556727.7782                                 
 18  5  7 14 51  3.0000000  0  8G29G31G26G21G25S20S27S23
  20694458.490     1101527.773                                  
  21682215.178     1193311.300                                  
  21528096.984     -342603.504                                  
  22033305.576     -353257.066                                  
  22618797.550     1633447.382                                  
  38762009.817      483809.9052                                 
  39818733.535      557098.9843                                 
  38742303.050      556879.5592                                 
 18  5  7 14 51  4.0000000  0  8G29G31G26G21G25S20S27S23
  20694782.855     1103233.760                                  
  21682591.588     1195289.690                                  
  21527702.365     -344678.121                                  
  22032908.915     -355343.460                                  
  22619383.895     1636525.127                                  
  38762014.965      483836.4292                                 
  39818759.318      557234.1383                                 
  38742330.046      557021.5652                                 
 18  5  7 14 51  5.0000000  0  8G29G31G26G21G25S20S27S23
  20695107.132     1104934.659                                  
  21682967.562     1197263.180                                  
  21527306.856     -346757.846                                  
  22032510.212     -357434.883                                  
  22619968.041     1639597.705                                  
  38762019.092      483857.7362                                 
  39818783.643      557363.3443                                 
  38742355.750      557158.1292                                 
 18  5  7 14 51  6.0000000  0  8G29G31G26G21G25S20S27S23
  20695431.130     1106634.829                                  
  21683342.515     1199236.125                                  
  21526911.312     -348838.324                                  
  22032111.649     -359526.973                                  
  22620552.396     1642669.473                                  
  38762022.730      483877.8292                                 
  39818808.152      557491.7282                                 
  38742380.940      557293.5482                                 
 18  5  7 14 51  7.0000000  0  8G29G31G26G21G25S20S27S23
  20695753.820     1108329.605                                  
  21683716.866     1201203.856                                  
  21526514.529     -350924.190                                  
  22031712.257     -361624.413                                  
  22621135.643     1645735.794                                  
  38762025.260      483892.1272                                 
  39818832.094      557614.3642                                 
  38742405.405      557423.2522                                 
 18  5  7 14 51  8.0000000  0  8G29G31G26G21G25S20S27S23
  20696074.398     1110014.044                                  
  21684089.358     1203161.430                                  
  21526115.643     -353020.428                                  
  22031311.871     -363732.090                                  
  22621717.390     1648791.701                                  
  38762026.255      483895.7292                                 
  39818853.348      557726.2273                                 
  38742428.526      557542.2402                                 
 18  5  7 14 51  9.0000000  0  8G29G31G26G21G25S20S27S23
  20696393.117     1111691.378                                  
  21684460.515     1205112.077                                  
  21525715.535     -355123.795                                  
  22030909.547     -365846.817                                  
  22622298.055     1651840.418                                  
  38762025.697      483892.1762                                 
  39818872.727      557830.7992                                 
  38742449.414      557653.7432                                 
 18  5  7 14 51 10.0000000  0  8G29G31G26G21G25S20S27S23
  20696712.369     1113367.806                                  
  21684831.324     1207061.999                                  
  21525315.062     -357228.090                                  
  22030507.163     -367962.405                                  
  22622877.437     1654888.141                                  
  38762024.842      483887.3302                                 
  39818892.341      557933.9492                                 
  38742470.799      557763.9612                                 
 18  5  7 14 51 11.0000000  0  8G29G31G26G21G25S20S27S23
  20697030.792     1115040.862                                  
  21685201.425     1209008.726                                  
  21524913.698     -359335.758                                  
  22030104.665     -370081.303                                  
  22623456.505     1657932.424                                  
  38762022.809      483878.3472                                 
  39818910.942      558033.3893                                 
  38742491.129      557870.4252                                 
 18  5  7 14 51 12.0000000  0  8G29G31G26G21G25S20S27S23
  20697347.714     1116704.120                                  
  21685570.192     1210945.823                                  
  21524510.999     -361453.270                                  
  22029700.047     -372209.935                                  
  22624034.194     1660966.815                                  
  38762018.865      483859.2012                                 
  39818928.532      558122.6182                                 
  38742509.382      557966.6992                                 
 18  5  7 14 51 14.0000000  0  8G29G31G26G21G25S20S27S23
  20697976.978     1120011.605                                  
  21686304.471     1214801.547                                  
  21523701.676     -365707.346                                  
  22028886.151     -376486.029                                  
  22625185.350     1667016.349                                  
  38762007.496      483800.8822                                 
  39818959.245      558281.2242                                 
  38742541.560      558139.1172                                 
 18  5  7 14 51 15.0000000  0  8G29G31G26G21G25S20S27S23
  20698290.933     1121663.170                                  
  21686671.266     1216727.519                                  
  21523296.499     -367836.594                                  
  22028479.203     -378626.136                                  
  22625760.222     1670038.816                                  
  38762001.432      483769.3222                                 
  39818973.807      558357.7942                                 
  38742557.030      558222.6202                                 
 18  5  7 14 51 16.0000000  0  8G29G31G26G21G25S20S27S23
  20698603.135     1123305.423                                  
  21687036.307     1218644.344                                  
  21522889.673     -369975.166                                  
  22028070.406     -380775.538                                  
  22626333.592     1673051.921                                  
  38761993.527      483727.9322                                 
  39818986.528      558424.5833                                 
  38742571.182      558296.4392                                 
 18  5  7 14 51 18.0000000  0  8G29G31G26G21G25S20S27S23
  20699224.197     1126567.985                                  
  21687761.547     1222456.585                                  
  21522071.302     -374274.305                                  
  22027248.596     -385096.055                                  
  22627477.131     1679055.929                                  
  38761973.922      483621.7082                                 
  39819007.774      558535.0253                                 
  38742594.958      558420.9832                                 
 18  5  7 14 51 19.0000000  0  8G29G31G26G21G25S20S27S23
  20699534.226     1128197.630                                  
  21688124.058     1224361.352                                  
  21521661.972     -376425.538                                  
  22026837.295     -387257.844                                  
  22628048.399     1682056.189                                  
  38761963.399      483566.7142                                 
  39819017.642      558588.0912                                 
  38742606.231      558481.1362                                 
 18  5  7 14 51 20.0000000  0  8G29G31G26G21G25S20S27S23
  20699842.589     1129818.631                                  
  21688484.954     1226257.656                                  
  21521251.063     -378585.461                                  
  22026424.370     -389428.194                                  
  22628617.930     1685047.712                                  
  38761951.498      483502.6242                                 
  39819026.053      558632.1103                                 
  38742616.404      558532.2342                                 
 18  5  7 14 51 21.0000000  0  9G29G31G26G21G25G 5S20S27S23
  20700150.106     1131430.094                                  
  21688844.263     1228144.608                                  
  21520838.269     -380754.914                                  
  22026009.928     -391608.043                                  
  22629185.420     1688029.620                                  
  23956723.569       -8575.9573                                 
  38761937.416      483428.5392                                 
  39819032.536      558666.2042                                 
  38742624.545      558573.3992                                 
 18  5  7 14 51 22.0000000  0  8G29G31G26G21G25S20S27S23
  20700456.156     1133038.883                                  
  21689203.197     1230029.050                                  
  21520424.621     -382927.043                                  
  22025594.176     -393790.519                                  
  22629752.151     1691008.778                                  
  38761922.575      483351.2522                                 
  39819038.015      558697.2273                                 
  38742631.638      558611.5892                                 
 18  5  7 14 51 23.0000000  0  8G29G31G26G21G25S20S27S23
  20700762.181     1134647.390                                  
  21689561.458     1231913.401                                  
  21520011.190     -385099.491                                  
  22025178.634     -395973.191                                  
  22630319.239     1693987.575                                  
  38761907.829      483273.3032                                 
  39819043.843      558727.6613                                 
  38742639.229      558649.0692                                 
 18  5  7 14 51 24.0000000  0  8G29G31G26G21G25S20S27S23
  20701067.184     1136248.411                                  
  21689918.062     1233790.432                                  
  21519596.102     -387279.460                                  
  22024761.757     -398163.299                                  
  22630884.626     1696958.820                                  
  38761891.129      483187.5862                                 
  39819047.935      558750.3113                                 
  38742644.595      558678.7402                                 
 18  5  7 14 51 25.0000000  0  8G29G31G26G21G25S20S27S23
  20701369.762     1137839.609                                  
  21690273.322     1235657.824                                  
  21519179.487     -389469.263                                  
  22024342.655     -400363.153                                  
  22631447.850     1699920.157                                  
  38761872.798      483091.7932                                 
  39819050.631      558762.7432                                 
  38742648.364      558698.1812                                 
 18  5  7 14 51 26.0000000  0  8G29G31G26G21G25S20S27S23
  20701671.773     1139426.944                                  
  21690628.234     1237521.536                                  
  21518762.296     -391662.937                                  
  22023923.440     -402566.825                                  
  22632010.933     1702877.563                                  
  38761854.056      482991.8542                                 
  39819052.507      558770.9563                                 
  38742651.182      558713.4062                                 
 18  5  7 14 51 27.0000000  0  8G29G31G26G21G25S20S27S23
  20701973.706     1141013.574                                  
  21690982.700     1239384.728                                  
  21518344.537     -393857.325                                  
  22023503.893     -404771.108                                  
  22632573.755     1705834.174                                  
  38761834.896      482890.7092                                 
  39819053.467      558777.9923                                 
  38742654.096      558727.5672                                 
 18  5  7 14 51 28.0000000  0  8G29G31G26G21G25S20S27S23
  20702274.076     1142593.662                                  
  21691336.137     1241241.541                                  
  21517925.619     -396058.294                                  
  22023083.334     -406981.913                                  
  22633135.242     1708784.164                                  
  38761814.165      482782.5262                                 
  39819053.389      558778.0523                                 
  38742654.978      558734.7922                                 
 18  5  7 14 51 29.0000000  0  8G29G31G26G21G25S20S27S23
  20702572.998     1144163.803                                  
  21691686.642     1243088.595                                  
  21517505.321     -398269.231                                  
  22022660.533     -409202.596                                  
  22633694.548     1711724.140                                  
  38761791.646      482663.9622                                 
  39819051.853      558767.8763                                 
  38742654.585      558731.7112                                 
 18  5  7 14 51 30.0000000  0  8G29G31G26G21G25S20S27S23
  20702870.280     1145728.646                                  
  21692037.068     1244930.532                                  
  21517083.462     -400485.459                                  
  22022237.129     -411428.488                                  
  22634253.557     1714658.734                                  
  38761768.114      482539.8622                                 
  39819048.581      558752.0863                                 
  38742653.041      558722.9782                                 
 18  5  7 14 51 31.0000000  0  8G29G31G26G21G25S20S27S23
  20703168.077     1147292.545                                  
  21692387.695     1246771.708                                  
  21516661.403     -402702.689                                  
  22021813.421     -413655.271                                  
  22634811.466     1717592.300                                  
  38761744.713      482414.6712                                 
  39819045.030      558735.0433                                 
  38742651.557      558712.9202                                 
 18  5  7 14 51 32.0000000  0  8G29G31G26G21G25S20S27S23
  20703464.609     1148851.780                                  
  21692737.031     1248608.388                                  
  21516238.689     -404924.571                                  
  22021388.272     -415886.671                                  
  22635368.460     1720521.124                                  
  38761719.916      482284.4612                                 
  39819040.982      558712.9512                                 
  38742649.210      558697.7952                                 
 18  5  7 14 51 33.0000000  0  8G29G31G26G21G25S20S27S23
  20703759.465     1150401.098                                  
  21693085.460     1250435.344                                  
  21515813.950     -407156.404                                  
  22020961.789     -418127.904                                  
  22635924.284     1723439.935                                  
  38761693.305      482143.9182                                 
  39819034.516      558680.6363                                 
  38742644.141      558672.3802                                 
 18  5  7 14 51 34.0000000  0  8G29G31G26G21G25S20S27S23
  20704053.222     1151944.741                                  
  21693432.135     1252256.800                                  
  21515388.313     -409393.919                                  
  22020534.346     -420374.720                                  
  22636479.035     1726353.033                                  
  38761665.568      481997.0872                                 
  39819027.449      558642.2303                                 
  38742638.112      558640.9192                                 
 18  5  7 14 51 35.0000000  0  8G29G31G26G21G25S20S27S23
  20704347.101     1153488.336                                  
  21693778.949     1254078.390                                  
  21514962.833     -411631.500                                  
  22020107.348     -422621.562                                  
  22637032.888     1729265.984                                  
  38761637.194      481849.8262                                 
  39819020.521      558603.3383                                 
  38742631.725      558609.0862                                 
 18  5  7 14 51 36.0000000  0  8G29G31G26G21G25S20S27S23
  20704640.221     1155028.465                                  
  21694124.734     1255896.698                                  
  21514535.914     -413872.546                                  
  22019679.338     -424871.798                                  
  22637586.365     1732175.386                                  
  38761608.279      481698.6092                                 
  39819011.892      558560.5833                                 
  38742624.614      558573.3842                                 
 18  5  7 14 51 37.0000000  0  8G29G31G26G21G25S20S27S23
  20704931.727     1156558.728                                  
  21694468.843     1257705.297                                  
  21514107.389     -416123.494                                  
  22019248.858     -427131.852                                  
  22638138.385     1735074.853                                  
  38761577.715      481537.3842                                 
  39819001.640      558507.6312                                 
  38742615.811      558527.4822                                 
 18  5  7 14 51 38.0000000  0  8G29G31G26G21G25S20S27S23
  20705221.182     1158081.929                                  
  21694812.124     1259507.038                                  
  21513678.079     -418381.533                                  
  22018817.201     -429398.849                                  
  22638689.105     1737967.176                                  
  38761546.008      481368.7042                                 
  39818990.210      558447.1253                                 
  38742605.960      558474.1212                                 
 18  5  7 14 51 39.0000000  0  8G29G31G26G21G25S20S27S23
  20705510.586     1159604.329                                  
  21695154.785     1261308.148                                  
  21513248.140     -420640.351                                  
  22018385.753     -431666.638                                  
  22639239.677     1740858.629                                  
  38761513.978      481199.1702                                 
  39818978.440      558385.6792                                 
  38742595.848      558419.6062                                 
 18  5  7 14 51 40.0000000  0  8G29G31G26G21G25S20S27S23
  20705799.788     1161124.702                                  
  21695496.818     1263107.427                                  
  21512817.617     -422901.229                                  
  22017953.441     -433936.342                                  
  22639788.853     1743747.973                                  
  38761481.171      481027.1222                                 
  39818966.321      558321.9252                                 
  38742584.470      558362.6802                                 
 18  5  7 14 51 41.0000000  0  8G29G31G26G21G25S20S27S23
  20706087.577     1162635.896                                  
  21695837.324     1264897.682                                  
  21512385.620     -425171.317                                  
  22017520.022     -436215.185                                  
  22640336.973     1746628.066                                  
  38761446.908      480845.3622                                 
  39818952.587      558248.4672                                 
  38742571.592      558296.1912                                 
 18  5  7 14 51 42.0000000  0  8G29G31G26G21G25S20S27S23
  20706373.726     1164138.469                                  
  21696176.557     1266679.519                                  
  21511952.872     -427450.009                                  
  22017084.996     -438502.538                                  
  22640883.366     1749499.470                                  
  38761410.402      480654.6302                                 
  39818936.882      558166.0893                                 
  38742556.812      558220.7462                                 
 18  5  7 14 51 43.0000000  0  8G29G31G26G21G25S20S27S23
  20706659.185     1165639.726                                  
  21696515.326     1268460.211                                  
  21511518.667     -429730.044                                  
  22016649.273     -440791.194                                  
  22641429.139     1752369.480                                  
  38761373.661      480462.1772                                 
  39818920.994      558081.9572                                 
  38742541.403      558143.6242                                 
 18  5  7 14 51 44.0000000  0  8G29G31G26G21G25S20S27S23
  20706943.964     1167138.751                                  
  21696853.826     1270238.849                                  
  21511084.374     -432012.344                                  
  22016213.454     -443081.958                                  
  22641974.912     1755237.168                                  
  38761336.326      480267.1272                                 
  39818904.678      557995.1542                                 
  38742526.623      558063.9422                                 
 18  5  7 14 51 45.0000000  0  8G29G31G26G21G25S20S27S23
  20707227.984     1168629.508                                  
  21697191.112     1272009.406                                  
  21510648.599     -434302.906                                  
  22015775.680     -445380.988                                  
  22642518.678     1758096.529                                  
  38761297.525      480063.4422                                 
  39818886.416      557899.7293                                 
  38742510.089      557975.5822                                 
 18  5  7 14 51 46.0000000  0  8G29G31G26G21G25S20S27S23
  20707510.572     1170111.401                                  
  21697526.479     1273771.276                                  
  21510210.843     -436602.349                                  
  22015336.493     -447688.791                                  
  22643061.223     1760946.945                                  
  38761256.936      479850.5172                                 
  39818866.252      557795.0103                                 
  38742491.408      557877.9802                                 
 18  5  7 14 51 47.0000000  0  8G29G31G26G21G25S20S27S23
  20707792.001     1171591.906                                  
  21697861.410     1275531.954                                  
  21509772.903     -438903.185                                  
  22014896.896     -449997.909                                  
  22643602.921     1763795.893                                  
  38761216.547      479635.7282                                 
  39818846.499      557688.5503                                 
  38742472.518      557778.6512                                 
 18  5  7 14 51 48.0000000  0  8G29G31G26G21G25S20S27S23
  20708073.167     1173071.314                                  
  21698195.931     1277291.688                                  
  21509334.676     -441205.163                                  
  22014456.383     -452308.060                                  
  22644144.829     1766643.668                                  
  38761175.182      479419.7862                                 
  39818826.239      557580.6392                                 
  38742453.663      557677.8842                                 
 18  5  7 14 51 49.0000000  0  8G29G31G26G21G25S20S27S23
  20708353.575     1174541.958                                  
  21698529.090     1279042.862                                  
  21508894.346     -443515.880                                  
  22014015.861     -454626.901                                  
  22644685.018     1769482.613                                  
  38761132.516      479194.6312                                 
  39818804.313      557463.7182                                 
  38742432.191      557567.9562                                 
 18  5  7 14 51 50.0000000  0  8G29G31G26G21G25S20S27S23
  20708632.089     1176003.094                                  
  21698860.697     1280784.689                                  
  21508453.196     -445836.142                                  
  22013572.739     -456955.193                                  
  22645223.427     1772311.956                                  
  38761087.861      478959.7762                                 
  39818779.830      557336.7202                                 
  38742409.506      557448.1582                                 
 18  5  7 14 51 51.0000000  0  8G29G31G26G21G25S20S27S23
  20708909.748     1177462.103                                  
  21699191.849     1282524.578                                  
  21508011.007     -448158.540                                  
  22013129.041     -459285.533                                  
  22645761.469     1775139.127                                  
  38761042.717      478722.4412                                 
  39818755.417      557207.1872                                 
  38742386.148      557325.8922                                 
 18  5  7 14 51 52.0000000  0  8G29G31G26G21G25S20S27S23
  20709186.814     1178920.373                                  
  21699522.767     1284263.906                                  
  21507568.705     -450481.713                                  
  22012685.805     -461616.557                                  
  22646299.189     1777965.438                                  
  38760997.739      478483.5442                                 
  39818730.638      557076.6743                                 
  38742362.634      557202.4962                                 
 18  5  7 14 51 53.0000000  0  8G29G31G26G21G25S20S27S23
  20709463.557     1180371.043                                  
  21699852.052     1285995.810                                  
  21507125.269     -452812.501                                  
  22012240.589     -463955.105                                  
  22646835.879     1780784.083                                  
  38760950.824      478236.6642                                 
  39818704.332      556938.2313                                 
  38742337.628      557071.1732                                 
 18  5  7 14 51 54.0000000  0  8G29G31G26G21G25S20S27S23
  20709737.438     1181812.490                                  
  21700179.541     1287718.680                                  
  21506679.520     -455152.487                                  
  22011794.335     -466302.841                                  
  22647370.362     1783593.428                                  
  38760902.051      477980.4922                                 
  39818676.263      556790.3873                                 
  38742311.086      556930.2452                                 
 18  5  7 14 51 55.0000000  0  8G29G31G26G21G25S20S27S23
  20710011.511     1183251.210                                  
  21700507.046     1289439.002                                  
  21506233.720     -457495.220                                  
  22011347.086     -468653.207                                  
  22647904.068     1786399.987                                  
  38760852.370      477721.3642                                 
  39818647.706      556639.4932                                 
  38742283.942      556786.2202                                 
 18  5  7 14 51 56.0000000  0  8G29G31G26G21G25S20S27S23
  20710285.471     1184689.186                                  
  21700834.971     1291158.754                                  
  21505787.640     -459838.738                                  
  22010899.950     -471004.230                                  
  22648437.478     1789205.717                                  
  38760802.550      477461.0492                                 
  39818619.027      556487.5142                                 
  38742256.266      556641.0702                                 
 18  5  7 14 51 57.0000000  0  8G29G31G26G21G25S20S27S23
  20710558.131     1186120.357                                  
  21701161.220     1292871.868                                  
  21505340.940     -462189.050                                  
  22010451.383     -473362.034                                  
  22648969.648     1792004.567                                  
  38760751.438      477193.5822                                 
  39818588.785      556328.1603                                 
  38742226.994      556488.7312                                 
 18  5  7 14 51 58.0000000  0  8G29G31G26G21G25S20S27S23
  20710828.854     1187542.101                                  
  21701485.637     1294575.746                                  
  21504891.903     -464548.842                                  
  22010000.644     -475729.187                                  
  22649501.461     1794793.890                                  
  38760698.747      476916.4002                                 
  39818556.380      556158.9043                                 
  38742196.116      556326.5562                                 
 18  5  7 14 51 59.0000000  0  8G29G31G26G21G25S20S27S23
  20711098.137     1188960.365                                  
  21701809.871     1296276.337                                  
  21504442.080     -466912.096                                  
  22009550.184     -478099.718                                  
  22650031.162     1797579.671                                  
  38760645.437      476634.9622                                 
  39818523.460      555985.9073                                 
  38742164.792      556160.6242                                 
 18  5  7 14 52  0.0000000  0  8G29G31G26G21G25S20S27S23
  20711367.821     1190377.846                                  
  21702133.171     1297976.299                                  
  21503992.370     -469276.148                                  
  22009099.157     -480471.026                                  
  22650560.899     1800364.598                                  
  38760591.175      476352.2192                                 
  39818490.497      555811.7492                                 
  38742132.946      555993.4322                                 
 18  5  7 14 52  1.0000000  0  8G29G31G26G21G25S20S27S23
  20711636.249     1191789.324                                  
  21702455.590     1299670.455                                  
  21503541.334     -471646.216                                  
  22008646.760     -482848.259                                  
  22651089.649     1803143.440                                  
  38760536.041      476063.4252                                 
  39818456.015      555631.3742                                 
  38742100.183      555819.9092                                 
 18  5  7 14 52  2.0000000  0  8G29G31G26G21G25S20S27S23
  20711902.443     1193191.327                                  
  21702775.793     1301355.327                                  
  21503089.112     -474025.752                                  
  22008192.583     -485234.863                                  
  22651617.378     1805912.755                                  
  38760479.206      475765.1632                                 
  39818420.111      555441.1502                                 
  38742066.242      555636.5892                                 
 18  5  7 14 52  3.0000000  0  8G29G31G26G21G25S20S27S23
  20712168.786     1194589.387                                  
  21703095.524     1303036.427                                  
  21502635.616     -476409.287                                  
  22007737.499     -487625.349                                  
  22652143.598     1808678.015                                  
  38760421.655      475462.4912                                 
  39818383.248      555246.6253                                 
  38742031.019      555448.9532                                 
 18  5  7 14 52  4.0000000  0  8G29G31G26G21G25S20S27S23
  20712434.710     1195987.013                                  
  21703415.343     1304717.269                                  
  21502181.448     -478793.235                                  
  22007283.349     -490016.222                                  
  22652670.133     1811442.786                                  
  38760364.331      475159.0602                                 
  39818346.332      555051.2632                                 
  38741995.063      555260.5112                                 
 18  5  7 14 52  5.0000000  0  8G29G31G26G21G25S20S27S23
  20712699.630     1197379.160                                  
  21703734.080     1306392.818                                  
  21501726.634     -481182.692                                  
  22006827.409     -492412.479                                  
  22653194.712     1814201.987                                  
  38760305.498      474849.5062                                 
  39818307.915      554849.9412                                 
  38741958.330      555066.2322                                 
 18  5  7 14 52  6.0000000  0  8G29G31G26G21G25S20S27S23
  20712962.666     1198762.863                                  
  21704051.037     1308060.096                                  
  21501270.904     -483580.602                                  
  22006369.716     -494817.110                                  
  22653718.489     1816952.681                                  
  38760244.675      474530.9352                                 
  39818268.094      554639.7923                                 
  38741919.346      554863.2082                                 
 18  5  7 14 52  7.0000000  0  8G29G31G26G21G25S20S27S23
  20713225.318     1200141.534                                  
  21704367.540     1309722.533                                  
  21500814.319     -485983.565                                  
  22005911.194     -497226.767                                  
  22654240.783     1819698.243                                  
  38760183.093      474207.2082                                 
  39818226.894      554424.0982                                 
  38741878.984      554654.7082                                 
 18  5  7 14 52  8.0000000  0  8G29G31G26G21G25S20S27S23
  20713487.185     1201519.071                                  
  21704683.773     1311384.010                                  
  21500356.844     -488387.645                                  
  22005452.350     -499637.418                                  
  22654762.894     1822442.625                                  
  38760121.677      473882.1132                                 
  39818185.546      554207.0412                                 
  38741838.979      554444.7422                                 
 18  5  7 14 52  9.0000000  0  8G29G31G26G21G25S20S27S23
  20713747.987     1202891.882                                  
  21704998.854     1313040.942                                  
  21499897.930     -490796.497                                  
  22004993.261     -502052.759                                  
  22655284.699     1825182.187                                  
  38760058.507      473551.7342                                 
  39818143.238      553984.7803                                 
  38741797.343      554229.6272                                 
 18  5  7 14 52 10.0000000  0  8G29G31G26G21G25S20S27S23
  20714007.568     1204255.872                                  
  21705312.234     1314689.235                                  
  21499438.247     -493214.170                                  
  22004531.728     -504476.854                                  
  22655804.471     1827912.845                                  
  38759993.828      473212.0302                                 
  39818099.115      553753.4232                                 
  38741754.939      554005.3192                                 
 18  5  7 14 52 11.0000000  0  9G29G31G26G21G25G 5S20S27S23
  20714266.529     1205614.736                                  
  21705625.780     1316332.590                                  
  21498977.064     -495636.988                                  
  22004069.289     -506905.965                                  
  22656323.144     1830638.317                                  
  23951869.783      -33211.8963                                 
  38759927.919      472867.1352                                 
  39818053.500      553516.6253                                 
  38741711.636      553775.5722                                 
 18  5  7 14 52 12.0000000  0  8G29G31G26G21G25S20S27S23
  20714524.443     1206972.975                                  
  21705937.877     1317975.480                                  
  21498515.663     -498060.441                                  
  22003606.980     -509335.698                                  
  22656841.921     1833363.077                                  
  38759861.826      472521.5122                                 
  39818008.260      553278.8112                                 
  38741667.409      553544.7622                                 
 18  5  7 14 52 13.0000000  0  8G29G31G26G21G25S20S27S23
  20714782.157     1208327.114                                  
  21706249.538     1319614.459                                  
  21498053.337     -500488.000                                  
  22003144.270     -511769.412                                  
  22657359.521     1836083.661                                  
  38759795.009      472171.2702                                 
  39817962.052      553036.3282                                 
  38741623.120      553309.5762                                 
 18  5  7 14 52 14.0000000  0  8G29G31G26G21G25S20S27S23
  20715038.753     1209673.880                                  
  21706560.405     1321246.246                                  
  21497590.042     -502922.947                                  
  22002680.095     -514210.459                                  
  22657876.187     1838796.802                                  
  38759726.814      471812.9492                                 
  39817914.518      552786.1823                                 
  38741576.642      553066.6622                                 
 18  5  7 14 52 15.0000000  0  9G29G31G26G21G25G 5S20S27S23
  20715293.876     1211014.777                                  
  21706870.120     1322872.340                                  
  21497126.006     -505363.761                                  
  22002214.558     -516657.310                                  
  22658391.823     1841503.987                                  
  23951368.141      -35728.6593                                 
  38759657.501      471448.4112                                 
  39817865.552      552529.9163                                 
  38741529.456      552817.4972                                 
 18  5  7 14 52 16.0000000  0  9G29G31G26G21G25G 5S20S27S23
  20715548.335     1212354.662                                  
  21707178.849     1324497.612                                  
  21496661.333     -507805.615                                  
  22001749.413     -519105.089                                  
  22658907.233     1844210.083                                  
  23951244.236      -36367.3763                                 
  38759587.692      471082.4212                                 
  39817816.386      552272.2933                                 
  38741481.887      552566.9602                                 
 18  5  7 14 52 17.0000000  0  9G29G31G26G21G25G 5S20S27S23
  20715803.021     1213691.840                                  
  21707487.133     1326120.352                                  
  21496195.718     -510250.169                                  
  22001283.327     -521555.511                                  
  22659421.674     1846913.404                                  
  23951122.756      -37008.2763                                 
  38759517.411      470713.4782                                 
  39817766.548      552012.0733                                 
  38741433.689      552313.3502                                 
 18  5  7 14 52 18.0000000  0  8G29G31G26G21G25S20S27S23
  20716056.337     1215021.273                                  
  21707795.130     1327735.525                                  
  21495729.404     -512702.510                                  
  22000815.076     -524013.587                                  
  22659934.946     1849608.886                                  
  38759445.822      470336.5312                                 
  39817715.856      551743.4983                                 
  38741383.886      552051.5952                                 
 18  5  7 14 52 19.0000000  0  8G29G31G26G21G25S20S27S23
  20716308.597     1216343.974                                  
  21708101.503     1329344.139                                  
  21495261.337     -515161.559                                  
  22000345.788     -526478.367                                  
  22660446.901     1852297.570                                  
  38759373.072      469952.4242                                 
  39817663.339      551467.7673                                 
  38741332.740      551782.7472                                 
 18  5  7 14 52 20.0000000  0  8G29G31G26G21G25S20S27S23
  20716559.898     1217664.719                                  
  21708407.685     1330950.983                                  
  21494793.069     -517622.599                                  
  21999875.784     -528944.987                                  
  22660957.651     1854984.224                                  
  38759300.138      469566.0702                                 
  39817610.482      551189.6222                                 
  38741280.991      551511.5682                                 
 18  5  7 14 52 21.0000000  0  9G29G31G26G21G25G 5S20S27S23
  20716810.945     1218984.105                                  
  21708713.107     1332556.637                                  
  21494324.539     -520085.009                                  
  21999406.251     -531412.934                                  
  22661467.948     1857669.449                                  
  23950657.856      -39590.5523                                 
  38759226.211      469178.2202                                 
  39817557.268      550909.7633                                 
  38741228.833      551238.6692                                 
 18  5  7 14 52 22.0000000  0  9G29G31G26G21G25G 5S20S27S23
  20717059.995     1220295.376                                  
  21709016.436     1334154.365                                  
  21493854.256     -522555.515                                  
  21998935.400     -533888.941                                  
  22661977.599     1860346.483                                  
  23950523.018      -40256.2273                                 
  38759150.677      468781.7442                                 
  39817502.317      550621.4093                                 
  38741175.147      550957.3212                                 
 18  5  7 14 52 23.0000000  0  9G29G31G26G21G25G 5S20S27S23
  20717308.556     1221598.574                                  
  21709318.316     1335744.198                                  
  21493382.996     -525034.147                                  
  21998463.293     -536372.900                                  
  22662486.351     1863015.362                                  
  23950386.654      -40929.7572                                 
  38759073.373      468376.6772                                 
  39817445.892      550324.5253                                 
  38741120.048      550667.5522                                 
 18  5  7 14 52 24.0000000  0  9G29G31G26G21G25G 5S20S27S23
  20717555.886     1222899.316                                  
  21709620.187     1337331.759                                  
  21492911.019     -527515.215                                  
  21997990.401     -538859.264                                  
  22662993.891     1865681.710                                  
  23950257.662      -41605.3243                                 
  38758995.702      467968.8082                                 
  39817388.533      550024.9273                                 
  38741064.146      550374.9482                                 
 18  5  7 14 52 25.0000000  0  8G29G31G26G21G25S20S27S23
  20717802.999     1224198.695                                  
  21709922.337     1338918.118                                  
  21492438.441     -529997.679                                  
  21997516.950     -541346.921                                  
  22663500.383     1868346.612                                  
  38758917.411      467558.9762                                 
  39817330.921      549723.5492                                 
  38741008.192      550080.6022                                 
 18  5  7 14 52 26.0000000  0  9G29G31G26G21G25G 5S20S27S23
  20718049.972     1225491.607                                  
  21710222.891     1340498.190                                  
  21491964.886     -532486.628                                  
  21997042.557     -543840.976                                  
  22664007.077     1871004.944                                  
  23949987.977      -42965.0743                                 
  38758838.092      467142.3072                                 
  39817271.748      549415.2933                                 
  38740950.283      549779.4122                                 
 18  5  7 14 52 27.0000000  0  8G29G31G26G21G25S20S27S23
  20718294.231     1226776.523                                  
  21710522.276     1342070.464                                  
  21491489.708     -534983.548                                  
  21996565.905     -546342.941                                  
  22664510.987     1873655.249                                  
  38758757.027      466717.6382                                 
  39817211.379      549098.7953                                 
  38740891.755      549469.8912                                 
 18  5  7 14 52 28.0000000  0  8G29G31G26G21G25S20S27S23
  20718538.630     1228057.114                                  
  21710820.666     1343638.564                                  
  21491013.605     -537484.835                                  
  21996088.912     -548849.186                                  
  22665013.911     1876301.114                                  
  38758675.534      466288.4262                                 
  39817150.058      548777.4582                                 
  38740832.590      549155.6782                                 
 18  5  7 14 52 29.0000000  0  8G29G31G26G21G25S20S27S23
  20718782.000     1229336.561                                  
  21711118.044     1345205.726                                  
  21490537.450     -539987.255                                  
  21995611.718     -551356.518                                  
  22665517.725     1878945.794                                  
  38758593.579      465857.6792                                 
  39817088.991      548454.6672                                 
  38740772.815      548839.9392                                 
 18  5  7 14 52 30.0000000  0  8G29G31G26G21G25S20S27S23
  20719024.322     1230609.403                                  
  21711415.378     1346766.452                                  
  21490060.396     -542496.275                                  
  21995133.207     -553870.392                                  
  22666019.445     1881583.752                                  
  38758509.984      465419.5202                                 
  39817026.118      548124.8953                                 
  38740711.434      548517.2522                                 
 18  5  7 14 52 31.0000000  0  8G29G31G26G21G25S20S27S23
  20719264.646     1231873.338                                  
  21711710.322     1348318.453                                  
  21489580.480     -545014.251                                  
  21994653.047     -556393.089                                  
  22666518.974     1884212.750                                  
  38758424.233      464972.0752                                 
  39816961.387      547785.8893                                 
  38740648.621      548185.2982                                 
 18  5  7 14 52 32.0000000  0  8G29G31G26G21G25S20S27S23
  20719504.351     1233133.344                                  
  21712004.925     1349866.710                                  
  21489100.520     -547536.174                                  
  21994171.866     -558919.584                                  
  22667018.653     1886837.750                                  
  38758338.160      464520.7032                                 
  39816895.887      547442.6213                                 
  38740584.823      547849.0912                                 
 18  5  7 14 52 33.0000000  0  8G29G31G26G21G25S20S27S23
  20719743.829     1234393.870                                  
  21712300.183     1351415.643                                  
  21488620.883     -550057.538                                  
  21993690.650     -561445.589                                  
  22667517.921     1889463.175                                  
  38758252.401      464069.3082                                 
  39816830.693      547099.4602                                 
  38740520.781      547513.0172                                 
 18  5  7 14 52 34.0000000  0  8G29G31G26G21G25S20S27S23
  20719982.644     1235650.652                                  
  21712594.472     1352961.050                                  
  21488140.235     -552582.695                                  
  21993209.059     -563975.160                                  
  22668015.366     1892084.793                                  
  38758165.831      463613.7492                                 
  39816764.531      546752.1663                                 
  38740455.936      547172.8472                                 
 18  5  7 14 52 35.0000000  0  8G29G31G26G21G25S20S27S23
  20720220.561     1236900.659                                  
  21712886.632     1354499.833                                  
  21487658.836     -555114.631                                  
  21992726.709     -566511.488                                  
  22668513.168     1894699.549                                  
  38758078.335      463151.1442                                 
  39816696.946      546397.6003                                 
  38740389.721      546825.5342                                 
 18  5  7 14 52 36.0000000  0  8G29G31G26G21G25S20S27S23
  20720457.456     1238146.083                                  
  21713178.513     1356034.223                                  
  21487175.866     -557651.130                                  
  21992243.364     -569052.352                                  
  22669010.569     1897309.656                                  
  38757989.575      462683.6502                                 
  39816628.358      546038.0672                                 
  38740322.346      546473.2242                                 
 18  5  7 14 52 37.0000000  0  8G29G31G26G21G25S20S27S23
  20720694.613     1239390.482                                  
  21713470.665     1357567.776                                  
  21486692.879     -560188.693                                  
  21991760.403     -571594.119                                  
  22669507.141     1899918.681                                  
  38757900.587      462214.7992                                 
  39816560.006      545677.1772                                 
  38740254.665      546119.5692                                 
 18  5  7 14 52 38.0000000  0  8G29G31G26G21G25S20S27S23
  20720931.343     1240631.329                                  
  21713762.144     1359097.935                                  
  21486209.028     -562729.784                                  
  21991276.430     -574139.418                                  
  22670002.282     1902524.048                                  
  38757810.797      461742.0132                                 
  39816491.025      545312.4112                                 
  38740186.522      545762.0082                                 
 18  5  7 14 52 39.0000000  0  8G29G31G26G21G25S20S27S23
  20721165.019     1241864.689                                  
  21714051.225     1360620.798                                  
  21485723.877     -565278.377                                  
  21990791.104     -576692.098                                  
  22670496.551     1905121.850                                  
  38757719.280      461261.5952                                 
  39816419.828      544939.8283                                 
  38740117.131      545396.5602                                 
 18  5  7 14 52 40.0000000  0  8G29G31G26G21G25S20S27S23
  20721398.529     1243092.132                                  
  21714340.593     1362137.915                                  
  21485238.098     -567832.912                                  
  21990304.549     -579250.630                                  
  22670990.383     1907713.659                                  
  38757627.038      460774.7322                                 
  39816347.767      544561.0623                                 
  38740046.266      545024.8692                                 
 18  5  7 14 52 41.0000000  0  8G29G31G26G21G25S20S27S23
  20721632.039     1244318.769                                  
  21714629.010     1363654.413                                  
  21484751.507     -570388.259                                  
  21989817.173     -581809.899                                  
  22671482.479     1910304.609                                  
  38757534.037      460286.6542                                 
  39816275.488      544181.1173                                 
  38739975.514      544651.9872                                 
 18  5  7 14 52 42.0000000  0  8G29G31G26G21G25S20S27S23
  20721864.310     1245543.417                                  
  21714917.733     1365169.102                                  
  21484264.707     -572945.602                                  
  21989329.369     -584371.084                                  
  22671974.366     1912893.462                                  
  38757441.263      459796.0072                                 
  39816202.686      543798.8413                                 
  38739904.099      544276.7432                                 
 18  5  7 14 52 43.0000000  0  8G29G31G26G21G25S20S27S23
  20722096.398     1246760.827                                  
  21715204.754     1366676.726                                  
  21483776.371     -575510.222                                  
  21988840.519     -586939.434                                  
  22672465.930     1915475.024                                  
  38757346.176      459297.8852                                 
  39816128.549      543408.8303                                 
  38739831.096      543893.9642                                 
 18  5  7 14 52 44.0000000  0  8G29G31G26G21G25S20S27S23
  20722327.334     1247970.889                                  
  21715490.423     1368177.182                                  
  21483286.989     -578082.135                                  
  21988350.918     -589515.091                                  
  22672955.924     1918049.132                                  
  38757249.930      458792.2462                                 
  39816053.051      543011.1253                                 
  38739756.776      543503.4022                                 
 18  5  7 14 52 45.0000000  0  8G29G31G26G21G25S20S27S23
  20722557.215     1249179.292                                  
  21715775.376     1369676.153                                  
  21482797.013     -580655.758                                  
  21987859.869     -592092.294                                  
  22673445.175     1920621.520                                  
  38757152.880      458284.3662                                 
  39815977.002      542611.5123                                 
  38739681.504      543110.8012                                 
 18  5  7 14 52 46.0000000  0  8G29G31G26G21G25S20S27S23
  20722786.894     1250385.950                                  
  21716059.954     1371173.565                                  
  21482306.924     -583231.126                                  
  21987368.776     -594671.186                                  
  22673934.689     1923192.103                                  
  38757055.465      457774.2962                                 
  39815900.064      542209.7673                                 
  38739606.564      542716.0792                                 
 18  5  7 14 52 47.0000000  0  8G29G31G26G21G25S20S27S23
  20723014.611     1251585.693                                  
  21716343.459     1372664.248                                  
  21481815.063     -585813.413                                  
  21986876.602     -597256.933                                  
  22674421.890     1925755.652                                  
  38756956.888      457257.0942                                 
  39815822.289      541800.6542                                 
  38739530.656      542314.1162                                 
 18  5  7 14 52 48.0000000  0  8G29G31G26G21G25S20S27S23
  20723241.569     1252777.850                                  
  21716625.673     1374147.506                                  
  21481322.714     -588403.311                                  
  21986383.458     -599850.156                                  
  22674908.350     1928311.572                                  
  38756857.422      456732.1692                                 
  39815743.100      541383.5692                                 
  38739452.627      541904.1942                                 
 18  5  7 14 52 49.0000000  0  8G29G31G26G21G25S20S27S23
  20723467.627     1253967.489                                  
  21716907.241     1375628.443                                  
  21480829.544     -590995.727                                  
  21985890.158     -602445.858                                  
  22675394.225     1930864.883                                  
  38756756.403      456204.2352                                 
  39815663.248      540963.5593                                 
  38739373.735      541491.3882                                 
 18  5  7 14 52 50.0000000  0  8G29G31G26G21G25S20S27S23
  20723693.311     1255155.511                                  
  21717188.983     1377107.929                                  
  21480335.389     -593589.778                                  
  21985395.689     -605043.084                                  
  22675879.891     1933416.517                                  
  38756655.724      455674.1342                                 
  39815582.628      540541.5763                                 
  38739294.764      541076.6082                                 
 18  5  7 14 52 51.0000000  0  8G29G31G26G21G25S20S27S23
  20723918.201     1256337.120                                  
  21717468.658     1378581.180                                  
  21479840.998     -596190.225                                  
  21984900.172     -607646.671                                  
  22676364.160     1935961.647                                  
  38756552.933      455137.0752                                 
  39815500.943      540112.8752                                 
  38739214.528      540655.0522                                 
 18  5  7 14 52 52.0000000  0  8G29G31G26G21G25S20S27S23
  20724141.459     1257511.529                                  
  21717748.158     1380047.416                                  
  21479344.854     -598797.874                                  
  21984403.600     -610257.369                                  
  22676847.348     1938499.508                                  
  38756449.488      454592.5962                                 
  39815417.461      539676.6483                                 
  38739132.416      540225.9192                                 
 18  5  7 14 52 53.0000000  0  8G29G31G26G21G25S20S27S23
  20724364.481     1258682.014                                  
  21718026.733     1381509.901                                  
  21478847.383     -601409.482                                  
  21983906.208     -612871.929                                  
  22677329.445     1941033.367                                  
  38756344.918      454043.9852                                 
  39815333.142      539236.2602                                 
  38739049.649      539792.5042                                 
 18  5  7 14 52 54.0000000  0  8G29G31G26G21G25S20S27S23
  20724586.753     1259851.235                                  
  21718305.239     1382971.300                                  
  21478350.095     -604022.327                                  
  21983408.100     -615487.701                                  
  22677811.263     1943565.878                                  
  38756240.278      453493.5752                                 
  39815248.866      538793.9943                                 
  38738966.639      539357.4852                                 
 18  5  7 14 52 55.0000000  0  8G29G31G26G21G25S20S27S23
  20724808.118     1261015.082                                  
  21718582.182     1384427.514                                  
  21477851.935     -606640.586                                  
  21982908.946     -618108.726                                  
  22678292.174     1946092.957                                  
  38756134.320      452937.5892                                 
  39815163.438      538346.1103                                 
  38738882.947      538916.7102                                 
 18  5  7 14 52 56.0000000  0  8G29G31G26G21G25S20S27S23
  20725028.419     1262171.509                                  
  21718857.669     1385876.480                                  
  21477352.309     -609266.243                                  
  21982408.840     -620737.142                                  
  22678771.191     1948612.545                                  
  38756027.315      452373.9542                                 
  39815076.711      537889.5513                                 
  38738797.223      538468.1382                                 
 18  5  7 14 52 57.0000000  0  8G29G31G26G21G25S20S27S23
  20725247.497     1263323.054                                  
  21719132.606     1387320.745                                  
  21476851.698     -611896.807                                  
  21981907.469     -623370.321                                  
  22679250.296     1951127.145                                  
  38755919.202      451805.0172                                 
  39814988.997      537428.5813                                 
  38738710.818      538014.3202                                 
 18  5  7 14 52 58.0000000  0  8G29G31G26G21G25S20S27S23
  20725466.332     1264473.063                                  
  21719407.333     1388763.644                                  
  21476350.876     -614528.909                                  
  21981406.299     -626004.995                                  
  22679728.824     1953640.166                                  
  38755810.618      451233.8872                                 
  39814900.839      536965.8113                                 
  38738624.100      537558.6302                                 
 18  5  7 14 52 59.0000000  0  8G29G31G26G21G25S20S27S23
  20725684.337     1265618.733                                  
  21719681.110     1390202.390                                  
  21475849.087     -617165.352                                  
  21980903.636     -628643.921                                  
  22680206.402     1956148.755                                  
  38755700.874      450657.9292                                 
  39814812.026      536498.4633                                 
  38738536.665      537098.2082                                 
 18  5  7 14 53  0.0000000  0  8G29G31G26G21G25S20S27S23
  20725900.685     1266756.678                                  
  21719953.682     1391633.594                                  
  21475346.546     -619809.525                                  
  21980400.058     -631290.507                                  
  22680682.121     1958649.545                                  
  38755590.091      450073.9982                                 
  39814721.834      536022.7682                                 
  38738447.730      536629.7202                                 
 18  5  7 14 53  1.0000000  0  8G29G31G26G21G25S20S27S23
  20726115.881     1267888.844                                  
  21720225.679     1393059.201                                  
  21474841.729     -622459.485                                  
  21979895.450     -633942.770                                  
  22681157.491     1961144.480                                  
  38755477.529      449484.1392                                 
  39814630.849      535541.1593                                 
  38738357.556      536155.0932                                 
 18  5  7 14 53  2.0000000  0  8G29G31G26G21G25S20S27S23
  20726331.234     1269019.451                                  
  21720496.471     1394483.425                                  
  21474337.296     -625110.995                                  
  21979390.301     -636596.546                                  
  22681632.119     1963637.786                                  
  38755364.687      448892.4502                                 
  39814538.668      535057.5522                                 
  38738267.051      535678.5252                                 
 18  5  7 14 53  3.0000000  0  8G29G31G26G21G25S20S27S23
  20726545.680     1270147.411                                  
  21720766.609     1395905.170                                  
  21473831.806     -627765.178                                  
  21978884.917     -639252.907                                  
  22682105.797     1966128.353                                  
  38755251.269      448297.8312                                 
  39814445.868      534570.9063                                 
  38738175.856      535198.9632                                 
 18  5  7 14 53  4.0000000  0  8G29G31G26G21G25S20S27S23
  20726758.983     1271268.042                                  
  21721035.796     1397319.774                                  
  21473325.340     -630426.708                                  
  21978377.857     -641916.506                                  
  22682578.637     1968611.522                                  
  38755136.726      447695.2332                                 
  39814351.846      534076.6393                                 
  38738082.899      534711.7222                                 
 18  5  7 14 53  5.0000000  0  8G29G31G26G21G25S20S27S23
  20726971.177     1272381.478                                  
  21721303.980     1398727.365                                  
  21472817.748     -633095.435                                  
  21977869.820     -644587.182                                  
  22683049.670     1971087.431                                  
  38755020.577      447085.0402                                 
  39814256.673      533574.7553                                 
  38737989.069      534216.9232                                 
 18  5  7 14 53  6.0000000  0  8G29G31G26G21G25S20S27S23
  20727182.613     1273493.464                                  
  21721571.736     1400133.683                                  
  21472309.694     -635765.598                                  
  21977361.548     -647259.298                                  
  22683519.936     1973561.805                                  
  38754904.062      446472.9292                                 
  39814160.950      533070.8853                                 
  38737894.593      533720.2892                                 
 18  5  7 14 53  7.0000000  0  8G29G31G26G21G25S20S27S23
  20727394.432     1274603.176                                  
  21721839.266     1401537.892                                  
  21471801.386     -638438.033                                  
  21976852.717     -649933.595                                  
  22683990.150     1976033.836                                  
  38754786.901      445858.3592                                 
  39814064.738      532564.7653                                 
  38737799.507      533221.0012                                 
 18  5  7 14 53  8.0000000  0  8G29G31G26G21G25S20S27S23
  20727604.088     1275704.852                                  
  21722104.806     1402934.269                                  
  21471291.063     -641118.509                                  
  21976341.844     -652615.861                                  
  22684459.709     1978497.751                                  
  38754668.423      445235.2952                                 
  39813966.842      532050.0143                                 
  38737702.981      532713.3172                                 
 18  5  7 14 53  9.0000000  0  8G29G31G26G21G25S20S27S23
  20727812.566     1276798.852                                  
  21722369.115     1404323.120                                  
  21470779.807     -643806.698                                  
  21975829.846     -655305.704                                  
  22684927.619     1980953.900                                  
  38754548.601      444604.1062                                 
  39813867.498      531527.2193                                 
  38737604.911      532197.6342                                 
 18  5  7 14 53 10.0000000  0  8G29G31G26G21G25S20S27S23
  20728019.936     1277890.559                                  
  21722633.024     1405709.878                                  
  21470267.695     -646497.165                                  
  21975317.604     -657997.768                                  
  22685394.666     1983407.692                                  
  38754427.889      443970.4362                                 
  39813767.395      531001.8412                                 
  38737506.439      531679.3262                                 
 18  5  7 14 53 11.0000000  0  9G29G31G26G21G 5G25S20S27S23
  20728227.497     1278981.101                                  
  21722896.548     1407095.640                                  
  21469755.366     -649188.799                                  
  21974805.195     -660690.949                                  
  23943415.580       -5919.6793                                 
  22685861.363     1985860.241                                  
  38754307.221      443335.2132                                 
  39813667.318      530474.9182                                 
  38737407.156      531159.4622                                 
 18  5  7 14 53 12.0000000  0  9G29G31G26G21G 5G25S20S27S23
  20728434.186     1280065.183                                  
  21723159.226     1408475.131                                  
  21469242.059     -651886.907                                  
  21974291.016     -663390.487                                  
  23943251.836       -6798.5823                                 
  22686327.371     1988306.252                                  
  38754185.288      442693.2152                                 
  39813565.513      529941.1203                                 
  38737306.922      530632.7702                                 
 18  5  7 14 53 13.0000000  0  9G29G31G26G21G 5G25S20S27S23
  20728639.104     1281141.693                                  
  21723420.386     1409847.223                                  
  21468727.539     -654592.573                                  
  21973776.173     -666097.550                                  
  23943070.964       -7685.2163                                 
  22686791.224     1990744.637                                  
  38754061.662      442043.1892                                 
  39813462.452      529399.5553                                 
  38737205.144      530098.2082                                 
 18  5  7 14 53 14.0000000  0  9G29G31G26G21G 5G25S20S27S23
  20728843.141     1282214.497                                  
  21723680.595     1411215.782                                  
  21468212.051     -657301.985                                  
  21973260.476     -668808.207                                  
  23942894.071       -8575.2453                                 
  22687255.121     1993179.210                                  
  38753936.840      441389.1512                                 
  39813358.458      528853.6903                                 
  38737102.345      529559.5132                                 
 18  5  7 14 53 15.0000000  0  9G29G31G26G21G 5G25S20S27S23
  20729046.872     1283286.143                                  
  21723940.865     1412583.355                                  
  21467696.092     -660012.537                                  
  21972744.150     -671519.986                                  
  23942711.786       -9466.1562                                 
  22687718.441     1995612.556                                  
  38753811.993      440733.4732                                 
  39813254.376      528306.3693                                 
  38736999.388      529019.2942                                 
 18  5  7 14 53 16.0000000  0  9G29G31G26G21G 5G25S20S27S23
  20729250.071     1284353.306                                  
  21724200.158     1413946.648                                  
  21467179.967     -662727.563                                  
  21972227.248     -674236.157                                  
  23942533.872      -10361.3013                                 
  22688180.296     1998041.360                                  
  38753685.897      440072.8132                                 
  39813149.867      527754.6153                                 
  38736895.987      528474.2492                                 
 18  5  7 14 53 17.0000000  0  8G29G31G26G21G25S20S27S23
  20729451.316     1285413.060                                  
  21724458.377     1415302.704                                  
  21466661.739     -665450.014                                  
  21971709.064     -676959.650                                  
  22688640.999     2000462.661                                  
  38753558.729      439404.5402                                 
  39813042.897      527194.6663                                 
  38736791.007      527921.4492                                 
 18  5  7 14 53 18.0000000  0  8G29G31G26G21G25S20S27S23
  20729652.412     1286467.077                                  
  21724715.419     1416653.181                                  
  21466142.490     -668178.208                                  
  21971189.650     -679688.827                                  
  22689101.197     2002878.142                                  
  38753429.964      438730.2622                                 
  39812934.958      526628.2823                                 
  38736684.665      527362.5282                                 
 18  5  7 14 53 19.0000000  0  8G29G31G26G21G25S20S27S23
  20729852.269     1287519.101                                  
  21724972.164     1418001.864                                  
  21465622.762     -670908.396                                  
  21970669.755     -682419.923                                  
  22689560.530     2005291.568                                  
  38753301.085      438053.5002                                 
  39812826.723      526059.7703                                 
  38736577.817      526801.3122                                 
 18  5  7 14 53 20.0000000  0  8G29G31G26G21G25S20S27S23
  20730051.874     1288568.735                                  
  21725227.880     1419348.320                                  
  21465102.989     -673640.997                                  
  21970149.861     -685153.316                                  
  22690019.008     2007702.531                                  
  38753171.194      437373.9342                                 
  39812717.799      525488.6303                                 
  38736470.804      526237.3182                                 
 18  5  7 14 53 21.0000000  0  9G29G31G26G21G 5G25S20S27S23
  20730249.969     1289611.199                                  
  21725483.237     1420687.788                                  
  21464581.839     -676380.761                                  
  21969628.388     -687893.812                                  
  23941662.557      -14910.7193                                 
  22690476.143     2010106.229                                  
  38753040.117      436686.9912                                 
  39812607.697      524909.9803                                 
  38736362.028      525665.7932                                 
 18  5  7 14 53 22.0000000  0  9G29G31G26G21G 5G25S20S27S23
  20730447.304     1290646.762                                  
  21725736.466     1422020.540                                  
  21464059.397     -679127.404                                  
  21969105.518     -690641.139                                  
  23941485.289      -15835.7863                                 
  22690932.204     2012502.965                                  
  38752908.761      435993.0502                                 
  39812496.478      524324.0493                                 
  38736251.612      525087.0092                                 
 18  5  7 14 53 23.0000000  0  9G29G31G26G21G 5G25S20S27S23
  20730644.178     1291680.285                                  
  21725989.861     1423351.430                                  
  21463536.021     -681876.143                                  
  21968582.326     -693390.394                                  
  23941309.129      -16762.6262                                 
  22691388.065     2014897.586                                  
  38752776.401      435296.6652                                 
  39812384.613      523735.7023                                 
  38736141.291      524505.7992                                 
 18  5  7 14 53 24.0000000  0  9G29G31G26G21G 5G25S20S27S23
  20730840.353     1292712.406                                  
  21726243.194     1424681.090                                  
  21463012.654     -684626.248                                  
  21968059.273     -696141.037                                  
  23941131.931      -17690.6162                                 
  22691842.835     2017290.723                                  
  38752643.177      434598.2372                                 
  39812272.409      523145.7003                                 
  38736030.875      523922.8822                                 
 18  5  7 14 53 25.0000000  0  9G29G31G26G21G 5G25S20S27S23
  20731035.874     1293738.318                                  
  21726494.984     1426004.728                                  
  21462488.319     -687382.576                                  
  21967534.963     -698897.753                                  
  23940954.602      -18624.4813                                 
  22692297.178     2019677.584                                  
  38752508.959      433893.0422                                 
  39812158.755      522549.0453                                 
  38735918.670      523333.2612                                 
 18  5  7 14 53 26.0000000  0  9G29G31G26G21G 5G25S20S27S23
  20731230.200     1294756.620                                  
  21726745.865     1427320.931                                  
  21461962.072     -690146.512                                  
  21967008.996     -701662.053                                  
  23940775.440      -19565.7032                                 
  22692750.534     2022056.753                                  
  38752373.083      433179.9162                                 
  39812043.514      521944.3393                                 
  38735804.973      522735.7122                                 
 18  5  7 14 53 27.0000000  0  9G29G31G26G21G 5G25S20S27S23
  20731423.557     1295771.760                                  
  21726996.032     1428634.151                                  
  21461435.975     -692913.603                                  
  21966482.436     -704429.430                                  
  23940595.092      -20509.8293                                 
  22693202.608     2024432.685                                  
  38752237.137      432463.5282                                 
  39811927.531      521336.1213                                 
  38735690.770      522134.6782                                 
