     2.11           OBSERVATION DATA    M (MIXED)           RINEX VERSION / TYPE
CONVBIN 2.4.2                           20180601 072813 UTC PGM / RUN BY / DATE 
log: 150159.ubx                                             COMMENT             
format: u-blox                                              COMMENT             
                                                            MARKER NAME         
                                                            MARKER NUMBER       
                                                            OBSERVER / AGENCY   
                                                            REC # / TYPE / VERS 
                                                            ANT # / TYPE        
  4146310.1951   613393.9283  4791669.3206                  APPROX POSITION XYZ 
        0.0000        0.0000        0.0000                  ANTENNA: DELTA H/E/N
     1     1                                                WAVELENGTH FACT L1/2
     4    C1    L1    C2    L2                              # / TYPES OF OBSERV 
  2018     5    14    15     2   18.0010000     GPS         TIME OF FIRST OBS   
  2018     5    14    15    12   22.0010000     GPS         TIME OF LAST OBS    
                                                            END OF HEADER       
 18  5 14 15  2 18.0010000  0  6G26G21G29G16G25G20
  20871863.306       62079.5032                                 
  21409164.410       62773.5632                                 
  21718667.518      107516.6962                                 
  22280546.739       40740.2792                                 
  24241240.099      123049.0362                                 
  24134163.661       42882.9162                                 
 18  5 14 15  2 19.0010000  0  6G26G21G29G16G25G20
  20872710.008       66530.2812                                 
  21410029.348       67320.1232                                 
  21720183.663      115458.3382                                 
  22281095.740       43625.3662                                 
  24242978.595      132189.2432                                 
  24134605.422       45226.5352                                 
 18  5 14 15  2 20.0010000  0  8G26G21G29G16G25G 5G20G 4
  20873552.566       70959.0662                                 
  21410890.149       71844.7082                                 
  21721688.395      123377.7242                                 
  22281639.987       46488.2952                                 
  24244713.495      141307.1062                                 
  24250444.452      105038.6213                                 
  24135047.270       47547.7902                                 
  20320725.733       79306.2202                                 
 18  5 14 15  2 21.0010000  0  8G26G21G29G16G25G 5G20G 4
  20874391.625       75367.6112                                 
  21411747.182       76349.0272                                 
  21723191.138      131276.6062                                 
  22282180.629       49330.6992                                 
  24246444.382      150404.3932                                 
  24251721.075      111741.1903                                 
  24135483.282       49848.4262                                 
  20321776.245       84829.5182                                 
 18  5 14 15  2 22.0010000  0  8G26G21G29G16G31G25G20G 4
  20875227.106       79761.0472                                 
  21412600.820       80838.2602                                 
  21724689.074      139160.1542                                 
  22282718.183       52157.8782                                 
  22932890.480      149601.6973                                 
  24248172.486      159486.2552                                 
  24135918.848       52133.6272                                 
  20322824.095       90337.7792                                 
 18  5 14 15  2 23.0010000  0  8G26G21G29G16S36G31G25G20
  20876060.677       84141.6272                                 
  21413452.190       85314.6292                                 
  21726188.074      147030.6202                                 
  22283253.713       54971.9562                                 
  38523384.376      105062.0812                                 
  22934506.623      158092.0583                                 
  24249898.007      168554.9172                                 
  24136350.889       54405.5962                                 
 18  5 14 15  2 24.0010000  0  8G26G21G29G16S36G31G25G20
  20876892.241       88510.4712                                 
  21414301.859       89779.2842                                 
  21727684.098      154889.0632                                 
  22283787.096       57774.1092                                 
  38524440.533      110613.8312                                 
  22936119.303      166570.5433                                 
  24251621.705      177611.5492                                 
  24136781.046       56665.4482                                 
 18  5 14 15  2 25.0010000  0  8G26G21G29G16S36G31G25G20
  20877720.690       92867.4502                                 
  21415149.189       94232.0512                                 
  21729177.462      162735.4162                                 
  22284318.106       60564.1532                                 
  38525494.613      116153.1362                                 
  22937729.452      175037.5033                                 
  24253342.785      186655.9412                                 
  24137207.721       58913.0652                                 
 18  5 14 15  2 26.0010000  0  8G26G21G29G16S36G31G25G20
  20878547.150       97213.3162                                 
  21415994.425       98673.7302                                 
  21730668.557      170570.4002                                 
  22284848.113       63342.9602                                 
  38526547.018      121680.7532                                 
  22939339.173      183492.5883                                 
  24255061.422      195688.9272                                 
  24137632.712       61149.2382                                 
 18  5 14 15  2 27.0010000  0  8G26G21G29G16S36G31G25G20
  20879372.048      101549.0832                                 
  21416838.274      103105.2852                                 
  21732157.793      178395.0192                                 
  22285376.026       66111.4022                                 
  38527596.169      127197.7232                                 
  22940946.120      191937.4473                                 
  24256778.183      204711.4942                                 
  24138055.810       63374.8912                                 
 18  5 14 15  2 28.0010000  0  9G26G21G29G16S36G31G25G 5G20
  20880194.782      105875.1802                                 
  21417679.113      107527.1842                                 
  21733645.590      186209.7542                                 
  22285901.068       68869.9252                                 
  38528643.880      132704.5272                                 
  22942550.851      200372.4273                                 
  24258493.391      213724.0132                                 
  24260580.001      158311.4373                                 
  24138477.146       65590.5312                                 
 18  5 14 15  2 29.0010000  0  8G26G21G29G16S36G31G25G 5
  20881016.146      110191.5312                                 
  21418518.722      111939.3562                                 
  21735130.900      194014.5012                                 
  22286424.740       71618.5832                                 
  38529689.654      138201.0642                                 
  22944153.854      208797.6312                                 
  24260206.409      222726.4912                                 
  24261838.869      164923.0153                                 
 18  5 14 15  2 30.0010000  0  8G26G21G29G16S36G31G25G 5
  20881835.382      114497.0332                                 
  21419356.594      116340.6852                                 
  21736614.143      201808.1052                                 
  22286946.153       74356.1362                                 
  38530733.692      143686.3482                                 
  22945755.226      217211.7473                                 
  24261916.819      231717.7732                                 
  24263096.305      171523.9172                                 
 18  5 14 15  2 31.0010000  0  9G26G21G29G16S36G31G25G 5G20
  20882652.750      118791.917                                  
  21420191.770      120731.424                                  
  21738095.579      209590.903                                  
  22287465.253       77082.918                                  
  38531774.903      149161.0702                                 
  22947354.852      225615.5602                                 
  24263625.588      240698.611                                  
  24264352.703      178114.7622                                 
  24139728.867       72174.2093                                 
 18  5 14 15  2 32.0010000  0  9G26G21G29G16S36G31G25G 5G20
  20883468.390      123077.793                                  
  21421025.332      125113.124                                  
  21739574.965      217364.414                                  
  22287982.556       79800.449                                  
  38532815.032      154625.7542                                 
  22948952.428      234009.7652                                 
  24265332.114      249669.618                                  
  24265605.603      184696.3043                                 
  24140142.306       74348.1302                                 
 18  5 14 15  2 33.0010000  0  9G26G21G29G16S36G31G25G 5G20
  20884282.146      127355.379                                  
  21421857.952      129486.546                                  
  21741053.574      225129.387                                  
  22288497.556       82509.495                                  
  38533854.123      160081.6982                                 
  22950548.207      242395.5212                                 
  24267036.835      258632.008                                  
  24266855.352      191269.6582                                 
  24140554.568       76513.3733                                 
 18  5 14 15  2 34.0010000  0  8G26G21G29G16S36G31G25G 5
  20885094.690      131625.599                                  
  21422688.687      133852.629                                  
  21742530.272      232886.790                                  
  22289011.151       85210.913                                  
  38534891.058      165529.6982                                 
  22952142.991      250773.7722                                 
  24268741.285      267586.706                                  
  24268105.556      197835.7563                                 
 18  5 14 15  2 35.0010000  0  9G26G21G29G16S36G31G25G 5G20
  20885905.593      135888.198                                  
  21423518.357      138211.049                                  
  21744005.043      240636.271                                  
  22289523.646       87905.1073                                 
  38535926.188      170969.4822                                 
  22953735.062      259144.0543                                 
  24270443.667      276533.413                                  
  24269352.967      204394.3292                                 
  24141373.978       80820.5422                                 
 18  5 14 15  2 36.0010000  0  9G26G21G29G16S36G31G25G 5G20
  20886715.283      140142.293                                  
  21424346.265      142561.021                                  
  21745477.047      248376.992                                  
  22290035.583       90590.1112                                 
  38536959.249      176400.3492                                 
  22955326.365      267505.8333                                 
  24272144.348      285471.322                                  
  24270600.222      210944.5712                                 
  24141781.702       82961.2523                                 
 18  5 14 15  2 37.0010000  0  9G26G21G29G16S36G31G25G 5G20
  20887522.905      144388.084                                  
  21425172.516      146902.637                                  
  21746947.559      256109.195                                  
  22290545.313       93266.5762                                 
  38537990.609      181822.4712                                 
  22956916.202      275859.1472                                 
  24273843.510      294400.610                                  
  24271845.085      217486.5782                                 
  24142187.934       85093.2362                                 
 18  5 14 15  2 38.0010000  0  9G26G21G29G16S36G31G25G 5G20
  20888329.332      148627.352                                  
  21425997.056      151237.741                                  
  21748416.815      263834.595                                  
  22291054.414       95936.2832                                 
  38539021.490      187237.6032                                 
  22958504.765      284205.7412                                 
  24275541.033      303323.012                                  
  24273089.286      224022.2392                                 
  24142592.169       87218.4012                                 
 18  5 14 15  2 39.0010000  0  9G26G21G29G16S36G31G25G 5G20
  20889135.061      152860.203                                  
  21426820.776      155566.451                                  
  21749884.754      271553.344                                  
  22291561.823       98599.3572                                 
  38540051.236      192645.6922                                 
  22960092.159      292545.7582                                 
  24277237.752      312238.691                                  
  24274331.654      230551.6152                                 
  24142995.347       89336.7282                                 
 18  5 14 15  2 40.0010000  0  9G26G21G29G16S36G31G25G 5G20
  20889939.001      157085.427                                  
  21427643.362      159887.508                                  
  21751351.471      279264.199                                  
  22292067.294      101254.5962                                 
  38541078.234      198045.6022                                 
  22961677.842      300877.9612                                 
  24278932.290      321146.393                                  
  24275572.757      237073.4142                                 
  24143398.107       91447.1062                                 
 18  5 14 15  2 41.0010000  0  9G26G21G29G16S36G31G25G 5G20
  20890741.772      161302.679                                  
  21428463.400      164200.638                                  
  21752816.905      286966.875                                  
  22292571.405      103901.7312                                 
  38542103.931      203437.0452                                 
  22963262.584      309202.0033                                 
  24280625.084      330045.802                                  
  24276812.429      243587.4502                                 
  24143798.441       93549.0782                                 
 18  5 14 15  2 42.0010000  0  9G26G21G29G16S36G31G25G 5G20
  20891542.824      165513.184                                  
  21429283.141      168506.992                                  
  21754281.249      294662.531                                  
  22293074.120      106541.8602                                 
  38543128.372      208821.2532                                 
  22964846.034      317519.1702                                 
  24282316.385      338938.121                                  
  24278050.906      250094.8062                                 
  24144197.432       95643.9642                                 
 18  5 14 15  2 43.0010000  0  9G26G21G29G16S36G31G25G 5G20
  20892342.672      169717.521                                  
  21430101.984      172807.188                                  
  21755743.708      302351.764                                  
  22293574.993      109175.184                                  
  38544150.990      214198.8822                                 
  22966428.184      325830.0172                                 
  24284007.259      347823.947                                  
  24279288.371      256596.120                                  
  24144594.887       97731.803                                  
 18  5 14 15  2 44.0010000  0  9G26G21G29G16S36G31G25G 5G20
  20893141.561      173916.714                                  
  21430919.239      177102.220                                  
  21757205.321      310035.589                                  
  22294074.890      111803.520                                  
  38545173.145      219570.8642                                 
  22968008.581      334135.5052                                 
  24285696.606      356704.312                                  
  24280524.640      263092.404                                  
  24144991.451       99814.644                                  
 18  5 14 15  2 45.0010000  0  9G26G21G29G16S36G31G25G 5G20
  20893940.362      178111.924                                  
  21431736.075      181393.288                                  
  21758666.445      317715.199                                  
  22294574.175      114427.791                                  
  38546194.603      224938.3272                                 
  22969588.340      342436.8712                                 
  24287385.115      365580.341                                  
  24281759.304      269584.844                                  
  24145387.929      101893.155                                  
 18  5 14 15  2 46.0010000  0  9G26G21G29G16S36G31G25G 5G20
  20894737.383      182302.766                                  
  21432550.956      185679.999                                  
  21760127.465      325390.224                                  
  22295073.199      117047.476                                  
  38547214.454      230300.8062                                 
  22971166.285      350733.7172                                 
  24289072.638      374451.690                                  
  24282993.235      276073.026                                  
  24145782.522      103966.917                                  
 18  5 14 15  2 47.0010000  0  9G26G21G29G16S36G31G25G 5G20
  20895533.759      186487.987                                  
  21433365.978      189961.078                                  
  21761587.036      333059.342                                  
  22295570.949      119661.320                                  
  38548233.861      235657.1722                                 
  22972743.540      359024.7633                                 
  24290760.004      383317.062                                  
  24284226.922      282555.753                                  
  24146175.920      106034.699                                  
 18  5 14 15  2 48.0010000  0  9G26G21G29G16S36G31G25G 5G20
  20896329.149      190668.253                                  
  21434179.524      194237.209                                  
  21763045.630      340723.263                                  
  22296067.076      122270.007                                  
  38549252.448      241008.1072                                 
  22974319.635      367310.6782                                 
  24292445.905      392177.191                                  
  24285459.754      289033.560                                  
  24146567.669      108097.127                                  
 18  5 14 15  2 49.0010000  0  9G26G21G29G16S36G31G25G 5G20
  20897123.273      194843.440                                  
  21434992.224      198508.246                                  
  21764502.225      348381.854                                  
  22296561.999      124873.415                                  
  38550269.918      246353.4822                                 
  22975894.928      375591.3672                                 
  24294130.950      401031.845                                  
  24286691.591      295506.511                                  
  24146958.868      110154.133                                  
 18  5 14 15  2 50.0010000  0  9G26G21G29G16S36G31G25G 5G20
  20897917.118      199015.007                                  
  21435804.471      202775.675                                  
  21765959.275      356037.0443                                 
  22297055.710      127472.978                                  
  38551285.695      251694.7232                                 
  22977469.583      383868.2903                                 
  24295815.149      409882.600                                  
  24287923.489      301975.932                                  
  24147349.177      112207.6903                                 
 18  5 14 15  2 51.0010000  0  9G26G21G29G16S36G31G25G 5G20
  20898710.370      203183.650                                  
  21436615.836      207040.169                                  
  21767415.251      363688.6202                                 
  22297549.141      130069.433                                  
  38552301.245      257032.5302                                 
  22979043.558      392142.0632                                 
  24297499.113      418730.071                                  
  24289154.279      308442.520                                  
  24147738.543      114257.4152                                 
 18  5 14 15  2 52.0010000  0  9G26G21G29G16S36G31G25G 5G20
  20899502.724      207348.520                                  
  21437426.224      211300.919                                  
  21768869.963      371336.1052                                 
  22298042.615      132661.892                                  
  38553315.801      262366.0422                                 
  22980616.433      400411.9403                                 
  24299181.541      427573.461                                  
  24290383.786      314905.530                                  
  24148126.645      116303.0152                                 
 18  5 14 15  2 53.0010000  0  8G26G21G29G16S36G31G25G 5
  20900294.588      211509.551                                  
  21438235.757      215557.818                                  
  21770323.688      378979.5562                                 
  22298534.965      135250.373                                  
  38554329.850      267695.1662                                 
  22982189.683      408677.7822                                 
  24300863.724      436412.678                                  
  24291612.945      321364.757                                  
 18  5 14 15  2 54.0010000  0  8G26G21G29G16S36G31G25G 5
  20901085.659      215667.011                                  
  21439045.456      219811.154                                  
  21771776.549      386619.1212                                 
  22299027.401      137834.970                                  
  38555342.836      273020.1762                                 
  22983761.747      416939.9292                                 
  24302544.747      445247.982                                  
  24292841.501      327820.556                                  
 18  5 14 15  2 55.0010000  0  8G26G21G29G16S36G31G25G 5
  20901876.250      219820.567                                  
  21439853.820      224060.585                                  
  21773228.067      394254.5922                                 
  22299517.979      140415.566                                  
  38556355.812      278340.7842                                 
  22985332.520      425198.0192                                 
  24304224.767      454079.064                                  
  24294069.403      334272.626                                  
 18  5 14 15  2 56.0010000  0  8G26G21G29G16S36G31G25G 5
  20902666.047      223971.473                                  
  21440662.193      228307.405                                  
  21774679.829      401887.1102                                 
  22300009.307      142993.292                                  
  38557367.497      283658.2162                                 
  22986903.328      433453.1842                                 
  24305904.734      462907.127                                  
  24295297.375      340722.043                                  
 18  5 14 15  2 57.0010000  0  8G26G21G29G16S36G31G25G 5
  20903455.791      228120.156                                  
  21441470.574      232551.975                                  
  21776130.370      409517.2152                                 
  22300499.196      145568.589                                  
  38558378.240      288972.8882                                 
  22988473.280      441706.0242                                 
  24307583.977      471732.656                                  
  24296525.312      347169.471                                  
 18  5 14 15  2 58.0010000  0  8G26G21G29G16S36G31G25G 5
  20904244.244      232265.732                                  
  21442277.106      236793.434                                  
  21777580.911      417143.9162                                 
  22300988.840      148140.528                                  
  38559389.070      294283.9112                                 
  22990041.645      449955.6212                                 
  24309263.177      480554.734                                  
  24297753.319      353613.862                                  
 18  5 14 15  2 59.0010000  0  8G26G21G29G16S36G31G25G 5
  20905032.532      236407.453                                  
  21443083.157      241031.044                                  
  21779030.282      424766.5602                                 
  22301476.897      150708.393                                  
  38560399.272      299590.6242                                 
  22991610.332      458201.2013                                 
  24310940.963      489372.654                                  
  24298979.781      360054.573                                  
 18  5 14 15  3  0.0010000  0  9G26G21G29G16S36G31G25G 5G20
  20905819.746      240546.050                                  
  21443888.607      245265.556                                  
  21780479.130      432385.7192                                 
  22301964.290      153272.997                                  
  38561408.339      304893.8282                                 
  22993179.115      466443.4262                                 
  24312617.850      498187.080                                  
  24300205.886      366492.246                                  
  24151210.090      132533.0413                                 
 18  5 14 15  3  1.0010000  0  9G26G21G29G16S36G31G25G 5G20
  20906606.428      244681.662                                  
  21444694.066      249497.049                                  
  21781927.559      440001.8183                                 
  22302450.724      155834.396                                  
  38562416.892      310193.5462                                 
  22994747.794      474682.5442                                 
  24314295.192      506998.235                                  
  24301431.502      372927.082                                  
  24151593.070      134546.1163                                 
 18  5 14 15  3  2.0010000  0  7G26G21G16S36G31G25G 5
  20907392.970      248815.451                                  
  21445498.695      253726.735                                  
  22302936.450      158394.2603                                 
  38563424.503      315491.0182                                 
  22996315.050      482919.6243                                 
  24315971.154      515807.200                                  
  24302656.629      379360.209                                  
 18  5 14 15  3  3.0010000  0  7G26G21G16S36G31G25G 5
  20908179.522      252947.789                                  
  21446303.377      257954.944                                  
  22303422.570      160951.9532                                 
  38564432.645      320786.5922                                 
  22997881.731      491155.1492                                 
  24317646.698      524614.391                                  
  24303881.521      385791.974                                  
 18  5 14 15  3  4.0010000  0  6G26G21S36G31G25G 5
  20908965.715      257077.531                                  
  21447107.213      262180.580                                  
  38565439.453      326079.1812                                 
  22999447.783      499387.8683                                 
  24319322.163      533418.622                                  
  24305105.907      392221.256                                  
 18  5 14 15  3  5.0010000  0  6G26G21S36G31G25G 5
  20909751.053      261204.605                                  
  21447911.153      266403.544                                  
  38566445.449      331368.6572                                 
  23001013.731      507617.7252                                 
  24320997.340      542219.891                                  
  24306330.040      398648.042                                  
 18  5 14 15  3  6.0010000  0  6G26G21S36G31G25G 5
  20910536.051      265329.020                                  
  21448714.386      270623.849                                  
  38567451.446      336654.9852                                 
  23002578.771      515844.7882                                 
  24322671.340      551018.167                                  
  24307553.579      405072.283                                  
 18  5 14 15  3  7.0010000  0  6G26G21S36G31G25G 5
  20911320.081      269450.356                                  
  21449517.882      274841.078                                  
  38568456.709      341937.6852                                 
  23004143.689      524068.5773                                 
  24324344.493      559813.032                                  
  24308776.551      411493.586                                  
 18  5 14 15  3  8.0010000  0  7G26G21G16S36G31G25G 5
  20912103.988      273570.521                                  
  21450320.286      279057.122                                  
  22305843.212      173698.6253                                 
  38569461.658      347218.6302                                 
  23005708.284      532291.1253                                 
  24326017.986      568606.371                                  
  24309999.585      417913.787                                  
 18  5 14 15  3  9.0010000  0  7G26G21S36G31G25G 5G20
  20912888.306      277689.962                                  
  21451122.019      283272.470                                  
  38570465.857      352498.2962                                 
  23007272.024      540512.6752                                 
  24327690.729      577398.649                                  
  24311221.589      424333.418                                  
  24154640.218      150560.6933                                 
 18  5 14 15  3 10.0010000  0  7G26G21S36G31G25G 5G20
  20913671.384      281807.416                                  
  21451924.555      287485.790                                  
  38571470.126      357775.4462                                 
  23008836.812      548732.1052                                 
  24329363.132      586188.618                                  
  24312443.200      430751.152                                  
  24155019.586      152552.2622                                 
 18  5 14 15  3 11.0010000  0  7G26G21S36G31G25G 5G20
  20914454.594      285922.492                                  
  21452725.589      291696.784                                  
  38572474.316      363049.7772                                 
  23010401.101      556948.9872                                 
  24331035.081      594975.877                                  
  24313664.000      437166.669                                  
  24155398.683      154541.0573                                 
 18  5 14 15  3 12.0010000  0  7G26G21S36G31G25G 5G20
  20915237.367      290035.727                                  
  21453526.284      295905.897                                  
  38573477.695      368321.8192                                 
  23011964.248      565163.8692                                 
  24332706.838      603760.963                                  
  24314883.386      443580.400                                  
  24155777.911      156527.7432                                 
 18  5 14 15  3 13.0010000  0  7G26G21S36G31G25G 5G20
  20916019.416      294147.146                                  
  21454327.092      300113.235                                  
  38574480.734      373591.4482                                 
  23013526.182      573376.7523                                 
  24334377.879      612543.911                                  
  24316102.537      449992.467                                  
  24156155.848      158512.2032                                 
 18  5 14 15  3 14.0010000  0  7G26G21S36G31G25G 5G20
  20916801.412      298257.442                                  
  21455127.926      304319.423                                  
  38575482.900      378859.4712                                 
  23015088.265      581588.3653                                 
  24336049.008      621325.385                                  
  24317322.045      456403.543                                  
  24156533.872      160495.2373                                 
 18  5 14 15  3 15.0010000  0  7G26G21S36G31G25G 5G20
  20917583.444      302367.417                                  
  21455928.175      308525.286                                  
  38576485.537      384126.6452                                 
  23016651.194      589799.4603                                 
  24337720.756      630106.191                                  
  24318541.336      462814.393                                  
  24156911.224      162477.4702                                 
 18  5 14 15  3 16.0010000  0  7G26G21S36G31G25G 5G20
  20918364.725      306476.141                                  
  21456727.692      312729.921                                  
  38577487.999      389392.2352                                 
  23018213.756      598009.1093                                 
  24339391.990      638885.417                                  
  24319760.835      469224.090                                  
  24157288.323      164458.1303                                 
 18  5 14 15  3 17.0010000  0  6G26G21S36G31G25G 5
  20919146.355      310582.233                                  
  21457527.636      316931.906                                  
  38578489.275      394654.6742                                 
  23019775.908      606215.9832                                 
  24341062.334      647661.691                                  
  24320980.126      475631.341                                  
 18  5 14 15  3 18.0010000  0  6G26G21S36G31G25G 5
  20919927.235      314686.982                                  
  21458326.333      321132.566                                  
  38579489.662      399915.1342                                 
  23021337.458      614421.3322                                 
  24342731.587      656436.298                                  
  24322198.256      482037.351                                  
 18  5 14 15  3 19.0010000  0  8G26G21G29G16S36G31G25G 5
  20920708.193      318790.630                                  
  21459125.378      325332.103                                  
  21807956.941      576715.0873                                 
  22311149.334      201573.4732                                 
  38580490.580      405174.0162                                 
  23022897.874      622625.4542                                 
  24344401.188      665209.437                                  
  24323416.970      488442.343                                  
 18  5 14 15  3 20.0010000  0  8G26G21G29G16S36G31G25G 5
  20921488.183      322893.166                                  
  21459923.699      329530.532                                  
  21809400.510      584293.2422                                 
  22311631.719      204097.9732                                 
  38581491.036      410431.2522                                 
  23024459.294      630828.2052                                 
  24346070.529      673981.131                                  
  24324635.309      494846.354                                  
 18  5 14 15  3 21.0010000  0  9G26G21G29G16S36G31G25G 5G20
  20922268.321      326995.685                                  
  21460722.518      333728.957                                  
  21810840.424      591871.1032                                 
  22312113.084      206622.2382                                 
  38582491.151      415687.9592                                 
  23026020.250      639030.8963                                 
  24347740.323      682752.482                                  
  24325853.622      501250.489                                  
  24159167.773      174331.9253                                 
 18  5 14 15  3 22.0010000  0  9G26G21G29G16S36G31G25G 5G20
  20923049.262      331098.163                                  
  21461521.293      337927.349                                  
  21812286.384      599448.6602                                 
  22312593.846      209146.2482                                 
  38583491.459      420944.1562                                 
  23027580.719      647233.2672                                 
  24349409.104      691523.480                                  
  24327072.101      507654.683                                  
  24159543.267      176304.1162                                 
 18  5 14 15  3 23.0010000  0  9G26G21G29G16S36G31G25G 5G20
  20923829.714      335198.919                                  
  21462319.693      342123.988                                  
  21813724.770      607024.2432                                 
  22313074.765      211668.3892                                 
  38584491.156      426198.0882                                 
  23029140.890      655433.8002                                 
  24351078.244      700292.386                                  
  24328290.319      514057.260                                  
  24159918.359      178274.2093                                 
 18  5 14 15  3 24.0010000  0  9G26G21G29G16S36G31G25G 5G20
  20924609.800      339298.600                                  
  21463118.093      346319.570                                  
  21815162.302      614598.5052                                 
  22313554.768      214189.1822                                 
  38585490.399      431450.4042                                 
  23030700.713      663633.1212                                 
  24352746.869      709059.922                                  
  24329508.318      520458.900                                  
  24160292.928      180242.9333                                 
 18  5 14 15  3 25.0010000  0  9G26G21G29G16S36G31G25G 5G20
  20925390.113      343397.169                                  
  21463916.449      350514.052                                  
  21816603.201      622171.4822                                 
  22314035.025      216708.157                                  
  38586489.895      436701.0792                                 
  23032260.876      671831.0472                                 
  24354414.882      717825.985                                  
  24330726.954      526859.555                                  
  24160667.305      182210.1602                                 
 18  5 14 15  3 26.0010000  0  8G26G21G16S36G31G25G 5G20
  20926169.885      347494.627                                  
  21464714.151      354707.445                                  
  22314514.940      219226.380                                  
  38587489.217      441950.1282                                 
  23033820.349      680027.7362                                 
  24356082.146      726590.607                                  
  24331944.822      533259.251                                  
  24161041.176      184175.9282                                 
 18  5 14 15  3 27.0010000  0  8G26G21G16S36G31G25G 5G20
  20926949.168      351592.062                                  
  21465512.175      358900.787                                  
  22314994.603      221744.331                                  
  38588487.683      447198.6672                                 
  23035379.369      688224.2402                                 
  24357749.000      735354.815                                  
  24333163.048      539658.971                                  
  24161415.509      186141.2292                                 
 18  5 14 15  3 28.0010000  0  7G26G21S36G31G25G 5G20
  20927729.088      355690.146                                  
  21466309.938      363094.810                                  
  38589486.455      452447.3642                                 
  23036938.878      696421.1793                                 
  24359416.918      744119.409                                  
  24334381.212      546059.515                                  
  24161789.179      188106.8963                                 
 18  5 14 15  3 29.0010000  0  7G26G21S36G31G25G 5G20
  20928508.606      359786.959                                  
  21467107.544      367287.547                                  
  38590485.279      457694.3382                                 
  23038498.430      704616.7632                                 
  24361084.556      752882.377                                  
  24335599.211      552458.907                                  
  24162162.972      190070.8712                                 
 18  5 14 15  3 30.0010000  0  7G26G21S36G31G25G 5G20
  20929288.431      363882.600                                  
  21467905.542      371479.107                                  
  38591482.917      462939.6252                                 
  23040057.904      712810.9572                                 
  24362752.239      761643.844                                  
  24336816.861      558857.225                                  
  24162535.961      192033.3392                                 
 18  5 14 15  3 31.0010000  0  6G26G21S36G31G25G 5
  20930067.129      367976.777                                  
  21468703.393      375669.192                                  
  38592480.433      468182.9572                                 
  23041616.985      721003.4852                                 
  24364419.441      770403.504                                  
  24338033.874      565254.209                                  
 18  5 14 15  3 32.0010000  0  7G26G21S36G31G25G 5G20
  20930845.522      372070.526                                  
  21469500.859      379858.852                                  
  38593478.105      473425.3592                                 
  23043175.603      729195.4793                                 
  24366085.797      779162.371                                  
  24339251.053      571650.871                                  
  24163281.644      195953.8362                                 
 18  5 14 15  3 33.0010000  0  7G26G21S36G31G25G 5G20
  20931624.858      376164.833                                  
  21470298.334      384049.066                                  
  38594476.231      478667.8002                                 
  23044734.187      737387.6913                                 
  24367752.346      787921.494                                  
  24340468.285      578048.201                                  
  24163655.297      197913.8922                                 
 18  5 14 15  3 34.0010000  0  7G26G21S36G31G25G 5G20
  20932404.237      380259.656                                  
  21471095.940      388239.788                                  
  38595473.189      483910.2492                                 
  23046293.067      745580.3792                                 
  24369418.920      796680.770                                  
  24341686.336      584446.188                                  
  24164028.819      199874.0712                                 
 18  5 14 15  3 35.0010000  0  7G26G21S36G31G25G 5G20
  20933183.310      384354.258                                  
  21471892.874      392430.279                                  
  38596470.861      489152.0172                                 
  23047852.558      753772.7223                                 
  24371085.922      805439.514                                  
  24342904.099      590844.067                                  
  24164402.637      201833.6642                                 
 18  5 14 15  3 36.0010000  0  7G26G21S36G31G25G 5G20
  20933962.393      388447.711                                  
  21472689.659      396619.643                                  
  38597467.809      494392.1022                                 
  23049411.648      761963.6162                                 
  24372752.322      814196.759                                  
  24344121.069      597240.902                                  
  24164775.400      203791.7792                                 
 18  5 14 15  3 37.0010000  0  7G26G21S36G31G25G 5G20
  20934741.536      392541.359                                  
  21473487.195      400809.185                                  
  38598464.409      499631.8152                                 
  23050971.305      770154.5342                                 
  24374417.875      822953.862                                  
  24345338.317      603638.053                                  
  24165147.483      205749.7172                                 
 18  5 14 15  3 38.0010000  0  7G26G21S36G31G25G 5G20
  20935520.287      396635.028                                  
  21474284.295      404998.769                                  
  38599460.790      504871.0842                                 
  23052530.255      778345.4163                                 
  24376084.214      831710.673                                  
  24346556.282      610035.358                                  
  24165519.033      207707.2503                                 
 18  5 14 15  3 39.0010000  0  7G26G21S36G31G25G 5G20
  20936299.562      400729.474                                  
  21475081.430      409189.104                                  
  38600457.861      510110.5962                                 
  23054089.022      786536.8253                                 
  24377750.535      840467.889                                  
  24347773.836      616433.554                                  
  24165890.644      209665.2642                                 
 18  5 14 15  3 40.0010000  0  7G26G21S36G31G25G 5G20
  20937078.958      404824.774                                  
  21475879.001      413380.322                                  
  38601455.062      515350.5862                                 
  23055647.893      794728.8653                                 
  24379416.490      849225.644                                  
  24348991.730      622832.700                                  
  24166262.752      211623.7172                                 
 18  5 14 15  3 41.0010000  0  7G26G21S36G31G25G 5G20
  20937858.485      408921.227                                  
  21476677.121      417572.662                                  
  38602452.264      520591.2332                                 
  23057207.733      802921.9883                                 
  24381083.082      857984.181                                  
  24350209.328      629233.115                                  
  24166634.852      213583.0342                                 
 18  5 14 15  3 42.0010000  0  7G26G21S36G31G25G 5G20
  20938638.205      413017.317                                  
  21477474.745      421764.668                                  
  38603449.116      525830.9552                                 
  23058766.823      811114.5622                                 
  24382748.722      866742.051                                  
  24351427.711      635633.349                                  
  24167006.882      215541.4822                                 
 18  5 14 15  3 43.0010000  0  7G26G21S36G31G25G 5G20
  20939417.034      417112.955                                  
  21478272.359      425956.198                                  
  38604446.405      531069.6572                                 
  23060325.468      819306.4743                                 
  24384414.669      875499.129                                  
  24352645.814      642033.188                                  
  24167378.728      217499.2152                                 
 18  5 14 15  3 44.0010000  0  7G26G21S36G31G25G 5G20
  20940196.483      421208.304                                  
  21479069.162      430147.428                                  
  38605443.458      536307.6102                                 
  23061883.798      827497.9813                                 
  24386080.397      884255.561                                  
  24353863.787      648432.876                                  
  24167751.090      219456.3472                                 
 18  5 14 15  3 45.0010000  0  7G26G21S36G31G25G 5G20
  20940975.583      425303.151                                  
  21479866.402      434338.178                                  
  38606440.005      541544.5192                                 
  23063441.824      835688.7843                                 
  24387746.046      893011.184                                  
  24355081.603      654832.183                                  
  24168123.146      221412.4932                                 
 18  5 14 15  3 46.0010000  0  6G26G21S36G25G 5G20
  20941754.814      429399.233                                  
  21480663.868      438530.156                                  
  38607436.360      546782.1862                                 
  24389411.643      901767.660                                  
  24356299.593      661232.850                                  
  24168495.429      223369.6062                                 
 18  5 14 15  3 47.0010000  0  6G26G21S36G25G 5G20
  20942534.393      433496.598                                  
  21481461.639      442723.419                                  
  38608433.177      552020.5882                                 
  24391078.697      910525.118                                  
  24357517.557      667634.922                                  
  24168868.672      225327.5732                                 
 18  5 14 15  3 48.0010000  0  6G26G21S36G25G 5G20
  20943314.593      437594.219                                  
  21482259.193      446916.926                                  
  38609429.960      557258.7362                                 
  24392744.923      919282.483                                  
  24358735.870      674037.351                                  
  24169241.688      227285.4443                                 
 18  5 14 15  3 49.0010000  0  6G26G21S36G25G 5G20
  20944094.207      441691.270                                  
  21483057.113      451109.874                                  
  38610426.760      562495.8122                                 
  24394411.567      928038.916                                  
  24359954.271      680439.331                                  
  24169614.032      229242.3762                                 
 18  5 14 15  3 50.0010000  0  6G26G21S36G25G 5G20
  20944873.700      445787.051                                  
  21483855.277      455301.533                                  
  38611423.351      567731.1432                                 
  24396076.780      936793.791                                  
  24361172.383      686840.152                                  
  24169985.555      231197.7252                                 
 18  5 14 15  3 51.0010000  0  6G26G21S36G25G 5G20
  20945653.419      449883.716                                  
  21484653.171      459494.108                                  
  38612419.575      572966.7932                                 
  24397743.703      945549.170                                  
  24362390.941      693241.972                                  
  24170357.341      233153.5802                                 
 18  5 14 15  3 52.0010000  0  6G26G21S36G25G 5G20
  20946433.112      453982.315                                  
  21485451.658      463688.631                                  
  38613415.398      578203.9452                                 
  24399410.060      954306.171                                  
  24363609.245      699645.834                                  
  24170729.231      235110.9743                                 
 18  5 14 15  3 53.0010000  0  6G26G21S36G25G 5G20
  20947213.495      458082.912                                  
  21486250.197      467885.133                                  
  38614412.302      583442.5472                                 
  24401077.122      963064.837                                  
  24364828.727      706051.846                                  
  24171101.741      237070.0092                                 
 18  5 14 15  3 54.0010000  0  6G26G21S36G25G 5G20
  20947993.668      462183.743                                  
  21487048.841      472081.854                                  
  38615409.181      588680.8622                                 
  24402744.456      971823.369                                  
  24366048.690      712458.146                                  
  24171473.998      239028.9343                                 
 18  5 14 15  3 55.0010000  0  6G26G21S36G25G 5G20
  20948773.876      466285.169                                  
  21487846.945      476279.163                                  
  38616406.129      593919.2642                                 
  24404410.114      980582.145                                  
  24367267.910      718865.199                                  
  24171846.368      240988.1412                                 
 18  5 14 15  3 56.0010000  0  6G26G21S36G25G 5G20
  20949554.869      470386.478                                  
  21488645.763      480476.371                                  
  38617402.502      599157.0552                                 
  24406076.200      989340.509                                  
  24368487.209      725272.280                                  
  24172218.581      242946.8333                                 
 18  5 14 15  3 57.0010000  0  6G26G21S36G25G 5G20
  20950335.269      474488.185                                  
  21489444.311      484673.964                                  
  38618398.927      604394.7312                                 
  24407742.957      998098.919                                  
  24369706.569      731679.855                                  
  24172591.440      244905.5773                                 
 18  5 14 15  3 58.0010000  0  6G26G21S36G25G 5G20
  20951116.376      478592.031                                  
  21490243.732      488873.684                                  
  38619396.015      609634.0052                                 
  24409409.514     1006859.127                                  
  24370926.645      738089.630                                  
  24172964.482      246866.0562                                 
 18  5 14 15  3 59.0010000  0  6G26G21S36G25G 5G20
  20951897.264      482698.438                                  
  21491043.851      493075.978                                  
  38620393.748      614875.3062                                 
  24411076.952     1015621.544                                  
  24372147.349      744502.153                                  
  24173338.388      248828.7582                                 
 18  5 14 15  4  0.0010000  0  7G26G21G29S36G25G 5G20
  20952678.737      486805.886                                  
  21491843.428      497279.309                                  
  21867033.763      886985.7393                                 
  38621390.985      620117.1792                                 
  24412744.268     1024384.674                                  
  24373367.590      750915.826                                  
  24173712.582      250792.1133                                 
 18  5 14 15  4  1.0010000  0  7G26G21G29S36G25G 5G20
  20953460.324      490913.317                                  
  21492643.146      501482.633                                  
  21868478.816      894558.3312                                 
  38622389.233      625358.3982                                 
  24414413.329     1033147.450                                  
  24374588.146      757329.577                                  
  24174086.191      252755.1152                                 
 18  5 14 15  4  2.0010000  0  7G26G21G29S36G25G 5G20
  20954242.146      495021.257                                  
  21493443.840      505686.436                                  
  21869919.671      902131.1542                                 
  38623386.862      630599.5752                                 
  24416081.701     1041910.387                                  
  24375808.361      763743.987                                  
  24174460.428      254718.1843                                 
 18  5 14 15  4  3.0010000  0  8G26G21G29S36G31G25G 5G20
  20955023.968      499129.665                                  
  21494244.168      509890.715                                  
  21871359.471      909704.1822                                 
  38624384.657      635840.7472                                 
  23091518.700      983217.1563                                 
  24417749.828     1050673.454                                  
  24377029.187      770158.930                                  
  24174834.290      256681.4113                                 
 18  5 14 15  4  4.0010000  0  8G26G21G29S36G31G25G 5G20
  20955805.694      503239.251                                  
  21495044.287      514096.163                                  
  21872796.916      917278.1292                                 
  38625382.338      641082.6722                                 
  23093081.577      991419.3243                                 
  24419418.436     1059437.374                                  
  24378250.240      776575.162                                  
  24175208.467      258645.5192                                 
 18  5 14 15  4  5.0010000  0  7G26G21G29S36G25G 5G20
  20956587.403      507350.540                                  
  21495844.685      518303.326                                  
  21874243.329      924853.5592                                 
  38626379.836      646325.6792                                 
  24421085.743     1068202.649                                  
  24379471.729      782993.250                                  
  24175582.852      260610.9252                                 
 18  5 14 15  4  6.0010000  0  8G26G21G29S36G31G25G 5G20
  20957370.263      511462.493                                  
  21496645.458      522511.130                                  
  21875686.724      932429.3102                                 
  38627376.628      651568.8732                                 
  23096205.951     1007827.2633                                 
  24422753.757     1076968.229                                  
  24380693.881      789412.092                                  
  24175956.880      262576.6112                                 
 18  5 14 15  4  7.0010000  0  7G26G21G29S36G25G 5G20
  20958152.792      515574.568                                  
  21497446.135      526719.066                                  
  21877129.970      940005.0042                                 
  38628374.082      656811.6282                                 
  24424422.469     1085733.605                                  
  24381916.321      795831.165                                  
  24176330.743      264542.0032                                 
 18  5 14 15  4  8.0010000  0  7G26G21G29S36G25G 5G20
  20958935.330      519687.497                                  
  21498247.388      530927.852                                  
  21878571.585      947581.1792                                 
  38629371.667      662054.7362                                 
  24426089.697     1094499.483                                  
  24383138.578      802251.190                                  
  24176703.924      266507.9563                                 
 18  5 14 15  4  9.0010000  0  6G26G21G29S36G25G 5
  20959718.059      523800.783                                  
  21499048.763      535136.994                                  
  21880012.188      955157.5872                                 
  38630369.863      667297.6582                                 
  24427757.694     1103265.392                                  
  24384361.376      808671.733                                  
 18  5 14 15  4 10.0010000  0  7G26G21G29S36G25G 5G20
  20960501.783      527915.396                                  
  21499849.422      539347.452                                  
  21881453.288      962734.9912                                 
  38631368.051      672541.2802                                 
  24429425.673     1112032.277                                  
  24385584.139      815093.699                                  
  24177451.579      270440.8233                                 
 18  5 14 15  4 11.0010000  0  6G26G21G29S36G25G 5
  20961285.106      532032.159                                  
  21500650.771      543560.060                                  
  21882896.063      970314.3313                                 
  38632366.195      677786.5342                                 
  24431094.280     1120800.984                                  
  24386807.870      821517.936                                  
 18  5 14 15  4 12.0010000  0  7G26G21G29S36G25G 5G20
  20962068.787      536150.799                                  
  21501452.670      547774.543                                  
  21884338.106      977895.2472                                 
  38633364.905      683033.1232                                 
  24432763.394     1129571.222                                  
  24388030.773      827944.157                                  
  24178201.031      274379.7683                                 
 18  5 14 15  4 13.0010000  0  6G26G21G29S36G25G 5
  20962852.267      540269.601                                  
  21502254.516      551989.199                                  
  21885779.773      985476.1152                                 
  38634363.564      688279.3632                                 
  24434432.437     1138341.276                                  
  24389253.736      834370.685                                  
 18  5 14 15  4 14.0010000  0  6G26G21G29S36G25G 5
  20963635.912      544388.637                                  
  21503056.738      556204.089                                  
  21887221.318      993056.9212                                 
  38635361.332      693525.3702                                 
  24436102.257     1147111.233                                  
  24390475.914      840797.535                                  
 18  5 14 15  4 15.0010000  0  6G26G21G29S36G25G 5
  20964419.270      548506.914                                  
  21503858.531      560418.187                                  
  21888663.081     1000636.7002                                 
  38636358.988      698770.0752                                 
  24437770.987     1155880.062                                  
  24391699.000      847223.720                                  
 18  5 14 15  4 16.0010000  0  6G26G21G29S36G25G 5
  20965203.352      552625.851                                  
  21504660.613      564632.962                                  
  21890105.595     1008216.9182                                 
  38637357.419      704014.9432                                 
  24439440.344     1164649.237                                  
  24392921.580      853650.694                                  
 18  5 14 15  4 17.0010000  0  7G26G21G29S36G25G 5G20
  20965987.713      556745.694                                  
  21505462.966      568848.640                                  
  21891548.483     1015797.8052                                 
  38638355.528      709260.1532                                 
  24441109.396     1173418.969                                  
  24394144.099      860078.659                                  
  24180074.381      284227.0563                                 
 18  5 14 15  4 18.0010000  0  7G26G21G29S36G25G 5G20
  20966772.423      560868.757                                  
  21506265.894      573067.519                                  
  21892991.250     1023381.6372                                 
  38639354.222      714508.0772                                 
  24442779.330     1182191.584                                  
  24395367.088      866510.003                                  
  24180450.713      286199.4763                                 
 18  5 14 15  4 19.0010000  0  7G26G21G29S36G25G 5G20
  20967556.915      564992.304                                  
  21507068.412      577286.890                                  
  21894433.545     1030965.640                                  
  38640353.255      719756.0012                                 
  24444448.609     1190964.336                                  
  24396590.663      872941.909                                  
  24180825.988      288172.0493                                 
 18  5 14 15  4 20.0010000  0  7G26G21G29S36G25G 5G20
  20968341.948      569116.996                                  
  21507871.235      581507.396                                  
  21895876.940     1038550.538                                  
  38641352.123      725004.5542                                 
  24446118.516     1199737.874                                  
  24397813.661      879375.137                                  
  24181202.189      290145.4173                                 
 18  5 14 15  4 21.0010000  0  7G26G21G29S36G25G 5G20
  20969127.016      573241.843                                  
  21508674.251      585728.080                                  
  21897320.221     1046135.380                                  
  38642350.433      730252.7882                                 
  24447787.953     1208511.253                                  
  24399037.323      885808.571                                  
  24181578.293      292118.5023                                 
 18  5 14 15  4 22.0010000  0  7G26G21G29S36G25G 5G20
  20969912.232      577366.698                                  
  21509477.092      589948.758                                  
  21898763.398     1053719.910                                  
  38643348.978      735500.4982                                 
  24449456.891     1217284.289                                  
  24400261.482      892242.174                                  
  24181954.267      294091.2462                                 
 18  5 14 15  4 23.0010000  0  6G26G21G29S36G25G 5
  20970697.221      581492.892                                  
  21510280.055      594170.755                                  
  21900206.400     1061305.504                                  
  38644347.470      740749.0512                                 
  24451126.109     1226058.323                                  
  24401485.894      898677.182                                  
 18  5 14 15  4 24.0010000  0  6G26G21G29S36G25G 5
  20971483.136      585621.052                                  
  21511083.148      598394.736                                  
  21901649.655     1068892.908                                  
  38645347.071      745999.1012                                 
  24452796.898     1234833.982                                  
  24402711.152      905114.311                                  
 18  5 14 15  4 25.0010000  0  6G26G21G29S36G25G 5
  20972267.575      589750.444                                  
  21511886.810      602619.935                                  
  21903093.190     1076481.2093                                 
  38646346.210      751249.8052                                 
  24454466.570     1243610.539                                  
  24403935.861      911552.765                                  
 18  5 14 15  4 26.0010000  0  6G26G21G29S36G25G 5
  20973054.126      593880.539                                  
  21512690.488      606845.842                                  
  21904537.117     1084069.9672                                 
  38647345.653      756500.9242                                 
  24456137.236     1252387.461                                  
  24405160.779      917992.036                                  
 18  5 14 15  4 27.0010000  0  6G26G21G29S36G25G 5
  20973841.079      598011.607                                  
  21513494.175      611072.733                                  
  21905980.599     1091659.4572                                 
  38648345.219      761752.4432                                 
  24457806.768     1261165.000                                  
  24406386.691      924432.442                                  
 18  5 14 15  4 28.0010000  0  6G26G21G29S36G25G 5
  20974626.880      602142.320                                  
  21514299.721      615299.248                                  
  21907424.273     1099248.3612                                 
  38649344.270      767003.2332                                 
  24459476.859     1269941.840                                  
  24407611.889      930872.564                                  
 18  5 14 15  4 29.0010000  0  6G26G21G29S36G25G 5
  20975413.195      606273.297                                  
  21515103.679      619526.018                                  
  21908867.484     1106837.2112                                 
  38650343.644      772253.8742                                 
  24461147.621     1278718.596                                  
  24408837.409      937313.042                                  
 18  5 14 15  4 30.0010000  0  6G26G21G29S36G25G 5
  20976199.441      610406.578                                  
  21515907.785      623755.088                                  
  21910311.507     1114428.1112                                 
  38651343.490      777506.2232                                 
  24462818.349     1287497.311                                  
  24410064.019      943755.922                                  
 18  5 14 15  4 31.0010000  0  6G26G21G29S36G25G 5
  20976986.707      614542.176                                  
  21516713.269      627986.474                                  
  21911756.211     1122021.0692                                 
  38652343.186      782760.4272                                 
  24464489.495     1296277.996                                  
  24411290.691      950201.264                                  
 18  5 14 15  4 32.0010000  0  6G26G21G29S36G25G 5
  20977774.340      618679.146                                  
  21517518.798      632219.249                                  
  21913200.591     1129615.1882                                 
  38653342.499      788015.5322                                 
  24466160.676     1305059.740                                  
  24412518.968      956648.073                                  
 18  5 14 15  4 33.0010000  0  6G26G21G29S36G25G 5
  20978561.590      622816.932                                  
  21518324.727      636452.825                                  
  21914646.167     1137209.8612                                 
  38654342.362      793270.9712                                 
  24467831.499     1313841.942                                  
  24413745.736      963095.825                                  
 18  5 14 15  4 34.0010000  0  6G26G21G29S36G25G 5
  20979349.170      626955.940                                  
  21519129.758      640687.625                                  
  21916091.019     1144805.4032                                 
  38655342.434      798527.1632                                 
  24469502.812     1322624.998                                  
  24414973.089      969544.941                                  
 18  5 14 15  4 35.0010000  0  6G26G21G29S36G25G 5
  20980137.362      631097.018                                  
  21519935.949      644924.503                                  
  21917536.081     1152402.8662                                 
  38656342.829      803784.9622                                 
  24471175.014     1331409.820                                  
  24416201.252      975996.218                                  
 18  5 14 15  4 36.0010000  0  6G26G21G29S36G25G 5
  20980925.283      635240.090                                  
  21520742.804      649163.356                                  
  21918981.892     1160001.9103                                 
  38657343.852      809044.2782                                 
  24472846.701     1340196.254                                  
  24417430.611      982449.582                                  
 18  5 14 15  4 37.0010000  0  7G26G21G29S36G31G25G 5
  20981714.347      639382.983                                  
  21521549.606      653402.037                                  
  21920428.253     1167600.7142                                 
  38658344.639      814302.9352                                 
  23144661.454     1262504.0413                                 
  24474518.580     1348982.204                                  
  24418659.430      988902.906                                  
 18  5 14 15  4 38.0010000  0  6G26G21G29S36G25G 5
  20982502.486      643526.911                                  
  21522356.434      657641.740                                  
  21921873.768     1175200.1982                                 
  38659345.409      819562.0932                                 
  24476191.044     1357768.835                                  
  24419887.777      995357.327                                  
 18  5 14 15  4 39.0010000  0  7G26G21G29S36G31G25G 5
  20983291.148      647671.859                                  
  21523162.643      661882.454                                  
  21923318.865     1182800.4552                                 
  38660346.511      824821.7762                                 
  23147798.017     1278965.5843                                 
  24477863.752     1366556.124                                  
  24421116.368     1001812.930                                  
 18  5 14 15  4 40.0010000  0  7G26G21G29S36G31G25G 5
  20984080.465      651817.943                                  
  21523969.934      666124.307                                  
  21924764.667     1190401.5052                                 
  38661347.726      830082.0982                                 
  23149364.331     1287197.7723                                 
  24479535.675     1375344.192                                  
  24422345.361     1008269.759                                  
 18  5 14 15  4 41.0010000  0  7G26G21G29S36G31G25G 5
  20984870.253      655966.822                                  
  21524777.922      670368.963                                  
  21926211.238     1198005.2092                                 
  38662349.037      835344.6222                                 
  23150930.750     1295432.4403                                 
  24481208.103     1384134.750                                  
  24423574.606     1014729.527                                  
 18  5 14 15  4 42.0010000  0  7G26G21G29S36G31G25G 5
  20985659.998      660120.088                                  
  21525586.644      674618.000                                  
  21927657.931     1205613.1122                                 
  38663350.984      840610.9812                                 
  23152498.687     1303671.3663                                 
  24482880.559     1392929.305                                  
  24424804.279     1021193.793                                  
 18  5 14 15  4 43.0010000  0  8G26G21G29S36G31G25G 5G20
  20986451.051      664275.373                                  
  21526395.078      678869.046                                  
  21929106.037     1213222.6263                                 
  38664352.906      845878.8032                                 
  23154068.823     1311912.2273                                 
  24484554.165     1401725.592                                  
  24426034.616     1027660.168                                  
  24189876.849      335722.4513                                 
 18  5 14 15  4 44.0010000  0  7G26G21G29S36G31G25G 5
  20987242.375      668432.775                                  
  21527204.785      683122.212                                  
  21930554.170     1220833.9932                                 
  38665355.299      851148.2132                                 
  23155641.244     1320154.8523                                 
  24486228.514     1410523.607                                  
  24427265.964     1034128.728                                  
 18  5 14 15  4 45.0010000  0  7G26G21G29S36G31G25G 5
  20988034.501      672594.436                                  
  21528014.929      687379.636                                  
  21932003.096     1228449.3102                                 
  38666359.166      856421.4002                                 
  23157210.063     1328401.5542                                 
  24487904.040     1419325.571                                  
  24428497.470     1040601.704                                  
 18  5 14 15  4 46.0010000  0  7G26G21G29S36G31G25G 5
  20988827.343      676760.621                                  
  21528826.382      691641.589                                  
  21933453.270     1236068.9722                                 
  38667363.679      861698.6012                                 
  23158772.564     1336652.7742                                 
  24489579.793     1428131.697                                  
  24429729.691     1047079.319                                  
 18  5 14 15  4 47.0010000  0  7G26G21G29S36G31G25G 5
  20989621.284      680929.639                                  
  21529638.436      695906.358                                  
  21934903.794     1243691.2142                                 
  38668368.131      866978.0162                                 
  23160342.158     1344906.6423                                 
  24491256.201     1436940.310                                  
  24430963.561     1053559.897                                  
 18  5 14 15  4 48.0010000  0  7G26G21G29S36G31G25G 5
  20990415.016      685101.332                                  
  21530449.784      700173.797                                  
  21936354.081     1251315.8482                                 
  38669373.299      872259.5902                                 
  23161913.751     1353162.8412                                 
  24492931.997     1445751.273                                  
  24432198.399     1060043.194                                  
 18  5 14 15  4 49.0010000  0  7G26G21G29S36G31G25G 5
  20991209.280      689276.963                                  
  21531262.484      704445.187                                  
  21937805.407     1258944.1862                                 
  38670378.772      877544.5642                                 
  23163489.384     1361422.9462                                 
  24494609.216     1454565.816                                  
  24433433.526     1066530.571                                  
 18  5 14 15  4 50.0010000  0  7G26G21G29S36G31G25G 5
  20992004.557      693456.982                                  
  21532075.830      708720.931                                  
  21939258.051     1266576.5922                                 
  38671384.960      882833.4392                                 
  23165064.048     1369687.1863                                 
  24496287.142     1463384.396                                  
  24434669.734     1073022.459                                  
 18  5 14 15  4 51.0010000  0  7G26G21G29S36G31G25G 5
  20992800.801      697640.195                                  
  21532890.494      712999.892                                  
  21940711.209     1274211.9802                                 
  38672392.291      888124.9642                                 
  23166635.963     1377954.4792                                 
  24497965.888     1472205.852                                  
  24435906.283     1079517.658                                  
 18  5 14 15  4 52.0010000  0  7G26G21G29S36G31G25G 5
  20993597.203      701825.826                                  
  21533704.965      717281.254                                  
  21942164.541     1281849.4832                                 
  38673399.230      893418.3792                                 
  23168209.109     1386223.9573                                 
  24499645.297     1481029.341                                  
  24437143.302     1086015.345                                  
 18  5 14 15  4 53.0010000  0  8G26G21G29S36G31G25G 5G20
  20994393.910      706015.228                                  
  21534520.265      721566.377                                  
  21943618.171     1289490.5212                                 
  38674406.648      898714.9592                                 
  23169782.866     1394497.0783                                 
  24501325.343     1489856.280                                  
  24438380.331     1092516.950                                  
  24193702.155      355845.9333                                 
 18  5 14 15  4 54.0010000  0  8G26G21G29S36G31G25G 5G20
  20995192.031      710208.875                                  
  21535336.264      725855.759                                  
  21945073.240     1297135.5192                                 
  38675415.053      904015.2942                                 
  23171356.814     1402774.0642                                 
  24503005.502     1498687.117                                  
  24439617.987     1099022.890                                  
  24194091.103      357875.7713                                 
 18  5 14 15  4 55.0010000  0  8G26G21G29S36G31G25G 5G20
  20995990.736      714405.926                                  
  21536153.274      730148.510                                  
  21946528.771     1304783.659                                  
  38676424.871      909318.5342                                 
  23172932.613     1411054.4623                                 
  24504686.132     1507520.985                                  
  24440856.473     1105532.348                                  
  24194470.785      359908.9363                                 
 18  5 14 15  4 56.0010000  0  8G26G21G29S36G31G25G 5G20
  20996789.686      718604.646                                  
  21536970.852      734442.949                                  
  21947984.276     1312433.264                                  
  38677434.444      914622.9962                                 
  23174508.873     1419336.3452                                 
  24506367.513     1516356.201                                  
  24442095.901     1112043.615                                  
  24194863.816      361943.3352                                 
 18  5 14 15  4 57.0010000  0  8G26G21G29S36G31G25G 5G20
  20997588.365      722805.688                                  
  21537788.936      738739.707                                  
  21949440.375     1320084.870                                  
  38678444.166      919929.3002                                 
  23176085.448     1427620.2863                                 
  24508048.772     1525193.379                                  
  24443335.399     1118557.295                                  
  24195254.483      363979.7082                                 
 18  5 14 15  4 58.0010000  0  8G26G21G29S36G31G25G 5G20
  20998388.518      727010.545                                  
  21538607.639      743040.301                                  
  21950896.316     1327740.029                                  
  38679455.328      925238.9192                                 
  23177662.294     1435907.9513                                 
  24509731.497     1534034.053                                  
  24444576.118     1125074.937                                  
  24195640.691      366019.5382                                 
 18  5 14 15  4 59.0010000  0  8G26G21G29S36G31G25G 5G20
  20999189.378      731219.221                                  
  21539426.630      747344.661                                  
  21952354.299     1335398.774                                  
  38680466.210      930551.8432                                 
  23179241.163     1444199.1042                                 
  24511415.067     1542878.190                                  
  24445817.020     1131596.476                                  
  24196029.325      368062.8682                                 
 18  5 14 15  5  0.0010000  0  8G26G21G29S36G31G25G 5G20
  20999990.378      735429.595                                  
  21540245.952      751650.734                                  
  21953813.635     1343058.946                                  
  38681477.590      935865.8642                                 
  23180820.050     1452491.8853                                 
  24513098.586     1551723.691                                  
  24447059.231     1138119.818                                  
  24196415.097      370107.5432                                 
 18  5 14 15  5  1.0010000  0  8G26G21G29S36G31G25G 5G20
  21000791.535      739641.361                                  
  21541066.427      755958.202                                  
  21955272.089     1350720.241                                  
  38682488.935      941180.7342                                 
  23182398.806     1460785.8472                                 
  24514782.305     1560570.212                                  
  24448301.512     1144644.690                                  
  24196803.748      372153.2102                                 
 18  5 14 15  5  2.0010000  0  8G26G21G29S36G31G25G 5G20
  21001593.539      743857.018                                  
  21541886.779      760269.558                                  
  21956730.788     1358385.152                                  
  38683500.864      946498.9742                                 
  23183977.257     1469083.5202                                 
  24516466.120     1569420.312                                  
  24449544.160     1151173.531                                  
  24197193.996      374202.3482                                 
 18  5 14 15  5  3.0010000  0  8G26G21G29S36G31G25G 5G20
  21002395.620      748076.772                                  
  21542708.824      764584.994                                  
  21958190.472     1366053.883                                  
  38684513.300      951820.8322                                 
  23185556.283     1477385.0523                                 
  24518151.157     1578274.100                                  
  24450788.142     1157706.591                                  
  24197584.506      376255.2622                                 
 18  5 14 15  5  4.0010000  0  9G26G21G29G16S36G31G25G 5G20
  21003199.439      752297.560                                  
  21543530.275      768901.463                                  
  21959650.070     1373723.444                                  
  22361917.951      468305.6583                                 
  38685526.093      957143.2762                                 
  23187134.403     1485687.4943                                 
  24519836.202     1587128.633                                  
  24452031.592     1164240.787                                  
  24197976.115      378308.8782                                 
 18  5 14 15  5  5.0010000  0  9G26G21G29G16S36G31G25G 5G20
  21004002.628      756518.710                                  
  21544352.023      773218.286                                  
  21961109.606     1381393.076                                  
  22362418.571      470927.7143                                 
  38686538.764      962465.5962                                 
  23188713.900     1493990.1573                                 
  24521521.614     1595983.172                                  
  24453275.016     1170775.436                                  
  24198367.698      380362.4652                                 
 18  5 14 15  5  6.0010000  0  9G26G21G29G16S36G31G25G 5G20
  21004806.447      760742.459                                  
  21545174.042      777537.729                                  
  21962568.767     1389065.001                                  
  22362919.209      473552.0293                                 
  38687551.714      967790.0602                                 
  23190293.756     1502295.0563                                 
  24523207.148     1604839.950                                  
  24454519.592     1177312.839                                  
  24198758.687      382418.2262                                 
 18  5 14 15  5  7.0010000  0  8G26G21G29S36G31G25G 5G20
  21005610.675      764969.952                                  
  21545996.951      781860.875                                  
  21964028.704     1396740.466                                  
  38688565.031      973117.7312                                 
  23191874.536     1510603.6183                                 
  24524893.476     1613700.116                                  
  24455765.110     1183854.136                                  
  24199151.012      384476.973                                  
 18  5 14 15  5  8.0010000  0  8G26G21G29S36G31G25G 5G20
  21006416.229      769199.704                                  
  21546819.798      786186.295                                  
  21965489.340     1404417.907                                  
  38689578.705      978447.1322                                 
  23193457.157     1518914.3143                                 
  24526578.844     1622562.204                                  
  24457010.166     1190397.712                                  
  24199544.767      386538.128                                  
 18  5 14 15  5  9.0010000  0  8G26G21G29S36G31G25G 5G20
  21007221.557      773430.415                                  
  21547643.100      790512.678                                  
  21966950.045     1412096.058                                  
  38690593.095      983776.9722                                 
  23195039.473     1527225.7042                                 
  24528265.024     1631424.915                                  
  24458255.570     1196942.368                                  
  24199938.226      388599.826                                  
 18  5 14 15  5 10.0010000  0  8G26G21G29S36G31G25G 5G20
  21008026.640      777663.334                                  
  21548466.951      794841.252                                  
  21968410.533     1419776.113                                  
  38691608.174      989108.4922                                 
  23196621.327     1535539.1582                                 
  24529951.692     1640289.477                                  
  24459501.917     1203489.361                                  
  24200331.659      390663.374                                  
 18  5 14 15  5 11.0010000  0  8G26G21G29S36G31G25G 5G20
  21008833.041      781898.341                                  
  21549290.924      799171.906                                  
  21969871.788     1427458.043                                  
  38692623.402      994441.5482                                 
  23198204.472     1543854.4843                                 
  24531638.055     1649155.779                                  
  24460748.395     1210038.572                                  
  24200725.772      392728.691                                  
 18  5 14 15  5 12.0010000  0  8G26G21G29S36G31G25G 5G20
  21009639.276      786134.803                                  
  21550115.281      803504.019                                  
  21971332.327     1435141.185                                  
  38693638.237      999775.4932                                 
  23199788.158     1552171.0902                                 
  24533325.953     1658023.192                                  
  24461994.567     1216589.318                                  
  24201119.798      394795.052                                  
 18  5 14 15  5 13.0010000  0  8G26G21G29S36G31G25G 5G20
  21010445.729      790372.056                                  
  21550938.748      807836.921                                  
  21972793.294     1442824.763                                  
  38694653.037     1005109.6352                                 
  23201370.840     1560488.2782                                 
  24535014.227     1666891.039                                  
  24463240.565     1223140.971                                  
  24201514.269      396861.852                                  
 18  5 14 15  5 14.0010000  0  8G26G21G29S36G31G25G 5G20
  21011252.391      794607.535                                  
  21551762.433      812168.036                                  
  21974254.244     1450506.370                                  
  38695667.348     1010441.5692                                 
  23202954.796     1568803.5163                                 
  24536701.532     1675756.787                                  
  24464486.301     1229690.958                                  
  24201907.893      398926.554                                  
 18  5 14 15  5 15.0010000  0  8G26G21G29S36G31G25G 5G20
  21012058.434      798844.507                                  
  21552587.043      816500.651                                  
  21975716.380     1458189.181                                  
  38696682.253     1015774.4632                                 
  23204537.967     1577120.0802                                 
  24538389.195     1684623.659                                  
  24465732.727     1236242.523                                  
  24202302.059      400992.348                                  
 18  5 14 15  5 16.0010000  0  8G26G21G29S36G31G25G 5G20
  21012865.742      803086.018                                  
  21553412.342      820837.792                                  
  21977178.159     1465876.281                                  
  38697697.829     1021111.3622                                 
  23206122.089     1585440.9172                                 
  24540077.486     1693494.740                                  
  24466980.636     1242798.776                                  
  24202696.407      403062.353                                  
 18  5 14 15  5 17.0010000  0  8G26G21G29S36G31G25G 5G20
  21013673.513      807331.349                                  
  21554238.584      825178.735                                  
  21978641.107     1473566.932                                  
  38698713.790     1026451.3272                                 
  23207705.313     1593765.4793                                 
  24541767.060     1702369.275                                  
  24468229.775     1249358.946                                  
  24203090.817      405135.833                                  
 18  5 14 15  5 18.0010000  0  8G26G21G29S36G31G25G 5G20
  21014481.432      811578.392                                  
  21555065.192      829521.391                                  
  21980104.918     1481259.002                                  
  38699730.178     1031792.6192                                 
  23209289.592     1602091.4562                                 
  24543455.848     1711245.195                                  
  24469478.817     1255920.927                                  
  24203485.000      407210.673                                  
 18  5 14 15  5 19.0010000  0  8G26G21G29S36G31G25G 5G20
  21015290.066      815826.689                                  
  21555891.844      833865.297                                  
  21981569.297     1488952.076                                  
  38700747.019     1037134.7892                                 
  23210874.037     1610418.5913                                 
  24545144.750     1720121.995                                  
  24470728.811     1262484.275                                  
  24203879.707      409286.376                                  
 18  5 14 15  5 20.0010000  0  8G26G21G29S36G31G25G 5G20
  21016098.954      820078.938                                  
  21556719.673      838213.147                                  
  21983034.347     1496648.856                                  
  38701764.227     1042480.4982                                 
  23212459.528     1618749.4783                                 
  24546834.612     1729002.421                                  
  24471979.024     1269051.708                                  
  24204275.129      411365.659                                  
 18  5 14 15  5 21.0010000  0  8G26G21G29S36G31G25G 5G20
  21016908.993      824334.922                                  
  21557547.817      842564.744                                  
  21984499.703     1504349.089                                  
  38702782.535     1047829.3462                                 
  23214046.320     1627083.8233                                 
  24548525.294     1737886.241                                  
  24473229.602     1275622.986                                  
  24204670.969      413448.367                                  
 18  5 14 15  5 22.0010000  0  8G26G21G29S36G31G25G 5G20
  21017718.866      828592.502                                  
  21558375.978      846917.928                                  
  21985964.588     1512050.679                                  
  38703800.624     1053179.2122                                 
  23215632.659     1635419.6903                                 
  24550216.281     1746771.296                                  
  24474480.312     1282195.952                                  
  24205067.255      415532.271                                  
 18  5 14 15  5 23.0010000  0  8G26G21G29S36G31G25G 5G20
  21018529.228      832851.428                                  
  21559204.750      851272.430                                  
  21987429.848     1519753.337                                  
  38704818.792     1058529.9082                                 
  23217219.023     1643756.6793                                 
  24551906.675     1755657.329                                  
  24475731.580     1288770.379                                  
  24205464.152      417617.172                                  
 18  5 14 15  5 24.0010000  0  7G26G21G29S36G25G 5G20
  21019340.349      837113.768                                  
  21560033.801      855630.371                                  
  21988895.605     1527459.152                                  
  38705837.649     1063883.5472                                 
  24553597.322     1764546.458                                  
  24476983.223     1295348.311                                  
  24205860.926      419705.144                                  
 18  5 14 15  5 25.0010000  0  7G26G21G29S36G25G 5G20
  21020152.438      841380.127                                  
  21560864.013      859992.270                                  
  21990362.601     1535168.698                                  
  38706856.925     1069240.7302                                 
  24555289.923     1773439.240                                  
  24478235.799     1301930.364                                  
  24206258.930      421796.730                                  
 18  5 14 15  5 26.0010000  0  8G26G21G29S36G31G25G 5G20
  21020964.720      845648.918                                  
  21561695.175      864356.656                                  
  21991830.505     1542880.422                                  
  38707876.498     1074599.7852                                 
  23221983.927     1668787.2603                                 
  24556982.481     1782334.090                                  
  24479489.222     1308514.980                                  
  24206657.136      423890.457                                  
 18  5 14 15  5 27.0010000  0  8G26G21G29S36G31G25G 5G20
  21021777.298      849919.397                                  
  21562526.033      868722.701                                  
  21993297.981     1550593.573                                  
  38708896.838     1079959.9982                                 
  23223573.249     1677135.0203                                 
  24558675.126     1791230.299                                  
  24480743.457     1315101.369                                  
  24207056.414      425985.438                                  
 18  5 14 15  5 28.0010000  0  8G26G21G29S36G31G25G 5G20
  21022590.880      854193.090                                  
  21563357.352      873091.958                                  
  21994766.268     1558309.671                                  
  38709917.536     1085322.8842                                 
  23225163.968     1685485.7893                                 
  24560368.565     1800129.379                                  
  24481997.560     1321691.075                                  
  24207455.666      428083.337                                  
 18  5 14 15  5 29.0010000  0  8G26G21G29S36G31G25G 5G20
  21023404.522      858470.312                                  
  21564189.684      877464.725                                  
  21996234.887     1566028.988                                  
  38710938.897     1090688.7402                                 
  23226753.831     1693839.6213                                 
  24562062.989     1809031.608                                  
  24483252.999     1328284.406                                  
  24207854.727      430184.355                                  
 18  5 14 15  5 30.0010000  0  8G26G21G29S36G31G25G 5G20
  21024218.575      862750.337                                  
  21565022.374      881840.303                                  
  21997704.431     1573750.900                                  
  38711960.520     1096056.8942                                 
  23228343.676     1702196.4653                                 
  24563757.048     1817936.319                                  
  24484508.315     1334880.643                                  
  24208255.087      432287.877                                  
 18  5 14 15  5 31.0010000  0  8G26G21G29S36G31G25G 5G20
  21025032.523      867031.560                                  
  21565855.019      886217.068                                  
  21999174.045     1581473.741                                  
  38712981.925     1101425.6712                                 
  23229934.002     1710554.2193                                 
  24565451.455     1826841.875                                  
  24485763.736     1341478.191                                  
  24208655.090      434392.175                                  
 18  5 14 15  5 32.0010000  0  7G26G21G29S36G25G 5G20
  21025847.631      871314.484                                  
  21566688.459      890595.533                                  
  22000644.051     1589198.025                                  
  38714003.950     1106795.6342                                 
  24567146.133     1835748.796                                  
  24487019.715     1348077.597                                  
  24209055.232      436497.890                                  
 18  5 14 15  5 33.0010000  0  8G26G21G29S36G31G25G 5G20
  21026663.883      875601.019                                  
  21567522.030      894977.618                                  
  22002114.485     1596925.625                                  
  38715026.183     1112168.6252                                 
  23233113.606     1727276.5723                                 
  24568841.483     1844658.950                                  
  24488276.070     1354680.693                                  
  24209456.194      438606.824                                  
 18  5 14 15  5 34.0010000  0  8G26G21G29S36G31G25G 5G20
  21027480.160      879891.153                                  
  21568356.630      899363.274                                  
  22003585.739     1604656.573                                  
  38716049.604     1117544.7172                                 
  23234705.607     1735642.7073                                 
  24570537.836     1853572.343                                  
  24489533.454     1361287.477                                  
  24209857.706      440719.009                                  
 18  5 14 15  5 35.0010000  0  8G26G21G29S36G31G25G 5G20
  21028296.961      884183.004                                  
  21569191.510      903750.644                                  
  22005057.482     1612388.903                                  
  38717072.919     1122921.9562                                 
  23236299.126     1744010.2983                                 
  24572234.215     1862487.143                                  
  24490790.664     1367896.091                                  
  24210259.131      442832.549                                  
 18  5 14 15  5 36.0010000  0  8G26G21G29S36G31G25G 5G20
  21029114.120      888476.934                                  
  21570026.503      908140.086                                  
  22006529.652     1620123.143                                  
  38718096.479     1128300.7652                                 
  23237892.854     1752379.7823                                 
  24573931.293     1871403.654                                  
  24492048.737     1374506.889                                  
  24210660.730      444947.819                                  
 18  5 14 15  5 37.0010000  0  8G26G21G29S36G31G25G 5G20
  21029931.951      892774.388                                  
  21570862.578      912533.069                                  
  22008002.066     1627860.631                                  
  38719120.842     1133682.5822                                 
  23239487.403     1760752.5443                                 
  24575629.007     1880323.330                                  
  24493307.343     1381121.319                                  
  24211063.272      447066.194                                  
 18  5 14 15  5 38.0010000  0  8G26G21G29S36G31G25G 5G20
  21030750.732      897075.681                                  
  21571699.682      916929.859                                  
  22009474.926     1635601.663                                  
  38720145.911     1139067.7402                                 
  23241082.039     1769129.2093                                 
  24577327.175     1889246.511                                  
  24494566.516     1387739.692                                  
  24211467.384      449188.112                                  
 18  5 14 15  5 39.0010000  0  8G26G21G29S36G31G25G 5G20
  21031570.160      901379.176                                  
  21572536.411      921328.854                                  
  22010947.061     1643344.631                                  
  38721171.644     1144454.5892                                 
  23242676.212     1777507.5983                                 
  24579025.805     1898171.539                                  
  24495826.029     1394360.353                                  
  24211871.706      451311.908                                  
 18  5 14 15  5 40.0010000  0  8G26G21G29S36G31G25G 5G20
  21032389.316      905684.154                                  
  21573373.716      925729.346                                  
  22012420.540     1651088.836                                  
  38722196.984     1149842.4022                                 
  23244270.473     1785887.5863                                 
  24580723.921     1907097.702                                  
  24497085.804     1400982.638                                  
  24212275.870      453436.740                                  
 18  5 14 15  5 41.0000000  0  9G26G21G29G16S36G31G25G 5G20
  20733416.236      909991.660                                  
  21274418.907      930132.326                                  
  21714101.678     1658835.276                                  
  22080840.959      566688.8883                                 
  38423430.043     1155232.2212                                 
  22946073.116     1794269.5213                                 
  24282630.576     1916026.034                                  
  24198553.752     1407607.551                                  
  23912887.990      455563.774                                  
 18  5 14 15  5 42.0000000  0  9G26G21G29G16S36G31G25G 5G20
  20734236.370      914302.413                                  
  21275257.110      934538.561                                  
  21715575.959     1666584.733                                  
  22081355.749      569393.0473                                 
  38424456.474     1160624.8182                                 
  22947668.834     1802654.6193                                 
  24284330.803     1924957.271                                  
  24199814.992     1414235.810                                  
  23913293.873      457693.764                                  
 18  5 14 15  5 43.0000000  0  9G26G21G29G16S36G31G25G 5G20
  20735057.386      918616.213                                  
  21276095.811      938947.833                                  
  21717050.232     1674336.919                                  
  22081872.721      572100.2953                                 
  38425482.093     1166019.9552                                 
  22949265.590     1811042.7133                                 
  24286030.288     1933891.201                                  
  24201075.814     1420867.232                                  
  23913699.591      459826.363                                  
 18  5 14 15  5 44.0000000  0  9G26G21G29G16S36G31G25G 5G20
  20735878.680      922931.066                                  
  21276935.001      943358.157                                  
  21718525.473     1682089.885                                  
  22082383.480      574807.8943                                 
  38426509.091     1171415.7032                                 
  22950861.220     1819431.5763                                 
  24287729.844     1942825.832                                  
  24202337.552     1427499.780                                  
  23914106.390      461959.677                                  
 18  5 14 15  5 45.0000000  0  9G26G21G29G16S36G31G25G 5G20
  20736700.062      927248.109                                  
  21277774.819      947770.660                                  
  21720000.706     1689844.805                                  
  22082895.460      577517.8242                                 
  38427536.551     1176813.1362                                 
  22952457.924     1827822.4392                                 
  24289430.097     1951762.293                                  
  24203599.953     1434134.616                                  
  23914512.186      464094.885                                  
 18  5 14 15  5 46.0000000  0  9G26G21G29G16S36G31G25G 5G20
  20737522.246      931568.894                                  
  21278615.300      952186.909                                  
  21721478.225     1697603.201                                  
  22083416.480      580231.2333                                 
  38428563.260     1182213.7892                                 
  22954055.186     1836216.8403                                 
  24291131.633     1960702.149                                  
  24204863.811     1440773.335                                  
  23914919.466      466233.406                                  
 18  5 14 15  5 47.0000000  0  9G26G21G29G16S36G31G25G 5G20
  20738345.242      935892.407                                  
  21279456.252      956605.878                                  
  21722954.723     1705364.075                                  
  22083943.494      582947.2072                                 
  38429591.698     1187616.6922                                 
  22955653.347     1844613.7483                                 
  24292833.177     1969644.397                                  
  24206127.713     1447414.885                                  
  23915327.460      468374.335                                  
 18  5 14 15  5 48.0000000  0  9G26G21G29G16S36G31G25G 5G20
  20739168.046      940216.693                                  
  21280297.867      961025.622                                  
  21724431.604     1713125.400                                  
  22084454.751      585663.7812                                 
  38430620.022     1193019.8372                                 
  22957251.176     1853011.3623                                 
  24294534.635     1978587.056                                  
  24207391.746     1454057.291                                  
  23915735.368      470515.655                                  
 18  5 14 15  5 49.0000000  0  9G26G21G29G16S36G31G25G 5G20
  20739991.225      944542.137                                  
  21281139.727      965446.493                                  
  21725908.504     1720887.615                                  
  22084971.338      588381.3323                                 
  38431648.311     1198423.6702                                 
  22958849.319     1861409.8402                                 
  24296236.101     1987530.511                                  
  24208654.723     1460700.972                                  
  23916143.974      472657.762                                  
 18  5 14 15  5 50.0010000  0  9G26G21G29G16S36G31G25G 5G20
  20740815.705      948874.496                                  
  21281981.875      969874.392                                  
  21727387.898     1728659.972                                  
  22085487.499      591104.0032                                 
  38432677.996     1203834.9792                                 
  22960450.124     1869819.1412                                 
  24297939.949     1996485.171                                  
  24209919.524     1467353.995                                  
  23916553.216      474804.280                                  
 18  5 14 15  5 51.0010000  0  9G26G21G29G16S36G31G25G 5G20
  20741640.184      953205.554                                  
  21282824.310      974300.888                                  
  21728866.333     1736427.299                                  
  22086006.041      593826.7513                                 
  38433707.105     1209243.4022                                 
  22962049.707     1878222.8563                                 
  24299642.968     2005433.536                                  
  24211185.450     1474003.491                                  
  23916961.508      476951.324                                  
 18  5 14 15  5 52.0010000  0  9G26G21G29G16S36G31G25G 5G20
  20742464.489      957538.363                                  
  21283667.068      978729.157                                  
  21730344.288     1744196.142                                  
  22086525.062      596551.0202                                 
  38434736.982     1214653.1262                                 
  22963649.228     1886628.0673                                 
  24301346.519     2014383.359                                  
  24212452.135     1480654.875                                  
  23917369.756      479099.693                                  
 18  5 14 15  5 53.0010000  0  9G26G21G29G16S36G31G25G 5G20
  20743289.247      961872.883                                  
  21284509.303      983159.095                                  
  21731823.220     1751966.346                                  
  22087043.901      599276.7052                                 
  38435766.545     1220064.0812                                 
  22965249.728     1895034.9072                                 
  24303050.280     2023334.4993                                 
  24213717.939     1487308.057                                  
  23917778.771      481249.512                                  
 18  5 14 15  5 54.0010000  0  9G26G21G29G16S36G31G25G 5G20
  20744114.616      966210.752                                  
  21285353.047      987592.391                                  
  21733303.121     1759739.683                                  
  22087564.109      602005.7202                                 
  38436796.919     1225477.9252                                 
  22966850.244     1903444.8142                                 
  24304754.180     2032288.6132                                 
  24214983.969     1493964.667                                  
  23918188.092      483402.286                                  
 18  5 14 15  5 55.0010000  0  9G26G21G29G16S36G31G25G 5G20
  20744940.299      970552.308                                  
  21286197.463      992029.358                                  
  21734783.431     1767516.434                                  
  22088084.318      604738.2682                                 
  38437827.956     1230895.1972                                 
  22968450.734     1911858.2863                                 
  24306458.578     2041246.0542                                 
  24216250.663     1500625.112                                  
  23918598.513      485558.414                                  
 18  5 14 15  5 56.0010000  0  9G26G21G29G16S36G31G25G 5G20
  20745767.649      974895.516                                  
  21287042.080      996467.960                                  
  21736264.274     1775294.578                                  
  22088604.579      607472.1382                                 
  38438859.194     1236313.6622                                 
  22970052.752     1920273.1062                                 
  24308163.141     2050204.8432                                 
  24217519.521     1507287.325                                  
  23919009.867      487715.853                                  
 18  5 14 15  5 57.0010000  0  9G26G21G29G16S36G31G25G 5G20
  20746594.109      979240.523                                  
  21287887.273     1000908.382                                  
  21737745.641     1783074.248                                  
  22089125.982      610207.6572                                 
  38439890.877     1241733.2952                                 
  22971655.066     1928689.5862                                 
  24309868.473     2059165.0522                                 
  24218788.300     1513951.422                                  
  23919420.819      489874.679                                  
 18  5 14 15  5 58.0010000  0  9G26G21G29G16S36G31G25G 5G20
  20747421.790      983588.233                                  
  21288733.120     1005351.483                                  
  21739226.562     1790856.338                                  
  22089646.505      612945.5702                                 
  38440922.761     1247155.0932                                 
  22973257.161     1937108.6753                                 
  24311573.542     2068127.6252                                 
  24220058.458     1520618.332                                  
  23919832.278      492035.906                                  
 18  5 14 15  5 59.0010000  0  9G26G21G29G16S36G31G25G 5G20
  20748249.393      987939.616                                  
  21289579.063     1009798.255                                  
  21740708.583     1798641.820                                  
  22090166.966      615687.0222                                 
  38441954.994     1252580.0572                                 
  22974860.095     1945531.2173                                 
  24313279.615     2077093.4942                                 
  24221327.987     1527288.995                                  
  23920243.833      494200.450                                  
 18  5 14 15  6  0.0010000  0  9G26G21G29G16S36G31G25G 5G20
  20749077.982      992293.577                                  
  21290425.407     1014247.589                                  
  21742191.284     1806429.634                                  
  22090688.902      618430.9062                                 
  38442987.488     1258007.0662                                 
  22976462.531     1953956.0283                                 
  24314985.871     2086061.6032                                 
  24222597.927     1533962.357                                  
  23920655.902      496367.189                                  
 18  5 14 15  6  1.0010000  0  9G26G21G29G16S36G31G25G 5G20
  20749907.338      996649.020                                  
  21291272.484     1018698.392                                  
  21743674.082     1814218.650                                  
  22091211.065      621175.574                                  
  38444019.520     1263435.0582                                 
  22978065.752     1962382.1143                                 
  24316692.450     2095030.868                                  
  24223868.399     1540637.278                                  
  23921068.425      498535.069                                  
 18  5 14 15  6  2.0010000  0  9G26G21G29G16S36G31G25G 5G20
  20750735.918     1001007.025                                  
  21292119.875     1023151.759                                  
  21745156.844     1822009.983                                  
  22091733.464      623923.010                                  
  38445052.739     1268865.0622                                 
  22979668.947     1970810.6413                                 
  24318400.085     2104002.311                                  
  24225138.888     1547314.917                                  
  23921482.004      500705.099                                  
 18  5 14 15  6  3.0010000  0  9G26G21G29G16S36G31G25G 5G20
  20751565.798     1005368.475                                  
  21292968.061     1027608.583                                  
  21746640.453     1829804.449                                  
  22092256.900      626673.789                                  
  38446087.066     1274298.0752                                 
  22981273.887     1979241.9133                                 
  24320107.990     2112976.867                                  
  24226410.381     1553996.094                                  
  23921895.068      502878.264                                  
 18  5 14 15  6  4.0010000  0  9G26G21G29G16S36G31G25G 5G20
  20752396.612     1009732.185                                  
  21293816.543     1032067.623                                  
  21748125.109     1837600.946                                  
  22092781.053      629426.614                                  
  38447121.044     1279732.7952                                 
  22982879.395     1987675.7733                                 
  24321816.087     2121953.300                                  
  24227684.360     1560679.617                                  
  23922308.507      505053.326                                  
 18  5 14 15  6  5.0010000  0  9G26G21G29G16S36G31G25G 5G20
  20753227.024     1014096.049                                  
  21294665.138     1036526.828                                  
  21749607.959     1845397.314                                  
  22093305.353      632179.329                                  
  38448154.908     1285167.2242                                 
  22984484.946     1996109.4573                                 
  24323523.905     2130929.551                                  
  24228956.498     1567363.388                                  
  23922722.339      507228.186                                  
 18  5 14 15  6  6.0010000  0  9G26G21G29G16S36G31G25G 5G20
  20754057.951     1018461.121                                  
  21295513.219     1040987.220                                  
  21751092.152     1853194.647                                  
  22093829.785      634933.070                                  
  38449189.479     1290602.3212                                 
  22986088.961     2004544.2532                                 
  24325232.752     2139906.639                                  
  24230228.183     1574048.504                                  
  23923137.262      509403.889                                  
 18  5 14 15  6  7.0010000  0  9G26G21G29G16S36G31G25G 5G20
  20754889.122     1022829.976                                  
  21296362.992     1045451.409                                  
  21752576.214     1860995.474                                  
  22094354.417      637690.451                                  
  38450224.408     1296040.7602                                 
  22987694.320     2012982.5583                                 
  24326941.469     2148887.164                                  
  24231500.330     1580737.482                                  
  23923551.225      511583.022                                  
 18  5 14 15  6  8.0010000  0  9G26G21G29G16S36G31G25G 5G20
  20755721.087     1027202.200                                  
  21297213.105     1049918.950                                  
  21754061.237     1868799.400                                  
  22094879.947      640451.037                                  
  38451259.328     1301482.0422                                 
  22989300.412     2021424.0893                                 
  24328650.666     2157870.744                                  
  24232773.498     1587429.951                                  
  23923965.580      513765.150                                  
 18  5 14 15  6  9.0010000  0  8G26G21G29G16S36G25G 5G20
  20756553.794     1031574.711                                  
  21298063.132     1054386.768                                  
  21755546.242     1876603.318                                  
  22095404.824      643211.625                                  
  38452294.929     1306923.0422                                 
  24330360.202     2166854.225                                  
  24234048.350     1594122.787                                  
  23924380.625      515947.244                                  
 18  5 14 15  6 10.0010000  0  8G26G21G29G16S36G25G 5G20
  20757385.925     1035947.771                                  
  21298913.298     1058855.114                                  
  21757031.499     1884407.552                                  
  22095930.922      645972.623                                  
  38453330.520     1312364.0322                                 
  24332070.367     2175837.903                                  
  24235323.481     1600816.300                                  
  23924795.591      518129.513                                  
 18  5 14 15  6 11.0010000  0  9G26G21G29G16S36G31G25G 5G20
  20758218.519     1040324.198                                  
  21299764.310     1063326.837                                  
  21758517.534     1892214.882                                  
  22096457.499      648736.797                                  
  38454366.304     1317807.8932                                 
  22994119.499     2046753.7493                                 
  24333780.855     2184824.602                                  
  24236599.397     1607513.289                                  
  23925211.552      520314.797                                  
 18  5 14 15  6 12.0010000  0  8G26G21G29G16S36G25G 5G20
  20759052.447     1044704.587                                  
  21300616.352     1067802.497                                  
  21760003.324     1900025.873                                  
  22096984.793      651504.665                                  
  38455403.074     1323255.2782                                 
  24335491.238     2193814.889                                  
  24237875.723     1614214.326                                  
  23925628.752      522503.680                                  
 18  5 14 15  6 13.0010000  0  8G26G21G29G16S36G25G 5G20
  20759886.847     1049086.505                                  
  21301468.306     1072279.687                                  
  21761489.175     1907838.142                                  
  22097512.252      654273.918                                  
  38456439.626     1328703.6642                                 
  24337202.694     2202806.365                                  
  24239152.844     1620916.994                                  
  23926045.062      524693.730                                  
 18  5 14 15  6 14.0010000  0  8G26G21G29G16S36G25G 5G20
  20760720.522     1053469.127                                  
  21302320.618     1076757.581                                  
  21762975.410     1915650.834                                  
  22098039.466      657043.637                                  
  38457476.457     1334152.1842                                 
  24338913.435     2211798.210                                  
  24240431.212     1627620.4923                                 
  23926461.921      526884.130                                  
 18  5 14 15  6 15.0010000  0  8G26G21G29G16S36G25G 5G20
  20761554.878     1057854.756                                  
  21303173.000     1081238.437                                  
  21764462.666     1923466.246                                  
  22098567.030      659816.104                                  
  38458513.828     1339603.2692                                 
  24340624.377     2220792.669                                  
  24241708.978     1634327.0852                                 
  23926879.287      529077.172                                  
 18  5 14 15  6 16.0010000  0  8G26G21G29G16S36G25G 5G20
  20762390.648     1062243.952                                  
  21304026.517     1085722.912                                  
  21765950.288     1931284.986                                  
  22099095.414      662592.061                                  
  38459551.872     1345057.3632                                 
  24342336.339     2229790.394                                  
  24242985.531     1641037.2542                                 
  23927297.036      531273.470                                  
 18  5 14 15  6 17.0010000  0  9G26G21G29G16S36G31G25G 5G20
  20763226.374     1066636.150                                  
  21304880.225     1090210.342                                  
  21767438.609     1939106.459                                  
  22099624.068      665370.758                                  
  38460590.422     1350513.9602                                 
  23003775.393     2097473.9473                                 
  24344048.886     2238790.720                                  
  24244261.430     1647750.6653                                 
  23927716.051      533472.389                                  
 18  5 14 15  6 18.0010000  0  9G26G21G29G16S36G31G25G 5G20
  20764062.326     1071029.417                                  
  21305734.396     1094698.829                                  
  21768927.243     1946928.742                                  
  22100153.011      668150.8093                                 
  38461628.282     1355971.1352                                 
  23005389.024     2105934.7053                                 
  24345761.424     2247791.771                                  
  24245538.376     1654465.1633                                 
  23928134.786      535672.003                                  
 18  5 14 15  6 19.0010000  0  8G26G21G29G16S36G31G25G20
  20764898.567     1075424.892                                  
  21306588.968     1099189.524                                  
  21770416.226     1954752.910                                  
  22100681.682      670932.4063                                 
  38462666.858     1361430.0162                                 
  23007000.106     2114397.1993                                 
  24347475.062     2256794.685                                  
  23928553.173      537873.478                                  
 18  5 14 15  6 20.0010000  0  8G26G21G29G16S36G31G25G20
  20765735.750     1079823.935                                  
  21307443.889     1103683.778                                  
  21771905.524     1962580.391                                  
  22101211.576      673717.4142                                 
  38463706.184     1366891.8972                                 
  23008608.484     2122863.1493                                 
  24349188.691     2265800.811                                  
  23928971.803      540078.169                                  
 18  5 14 15  6 21.0010000  0  8G26G21G29G16S36G31G25G20
  20766573.675     1084226.248                                  
  21308299.421     1108181.296                                  
  21773395.965     1970410.884                                  
  22101742.743      676505.5142                                 
  38464746.034     1372356.5102                                 
  23010219.619     2131332.2123                                 
  24350903.262     2274809.829                                  
  23929391.403      542285.767                                  
 18  5 14 15  6 22.0010000  0  6G26G21G29S36G25G20
  20767411.390     1088630.868                                  
  21309155.607     1112681.119                                  
  21774885.978     1978243.410                                  
  38465786.364     1377822.9112                                 
  24352617.955     2283820.836                                  
  23929811.246      544495.329                                  
 18  5 14 15  6 23.0010000  0  6G26G21G29S36G25G20
  20768250.693     1093036.901                                  
  21310011.880     1117182.327                                  
  21776376.278     1986077.088                                  
  38466826.222     1383290.1562                                 
  24354333.128     2292832.872                                  
  23930231.927      546705.965                                  
 18  5 14 15  6 24.0010000  0  8G26G21G29G16S36G31G25G20
  20769089.691     1097446.314                                  
  21310869.541     1121686.920                                  
  21777866.859     1993913.885                                  
  22103335.250      684881.5022                                 
  38467867.512     1388760.3002                                 
  23015063.616     2156751.6023                                 
  24356048.537     2301847.953                                  
  23930652.966      548919.609                                  
 18  5 14 15  6 25.0010000  0  8G26G21G29G16S36G31G25G20
  20769929.063     1101859.251                                  
  21311727.821     1126195.033                                  
  21779358.242     2001753.939                                  
  22103867.403      687679.3232                                 
  38468908.827     1394233.3672                                 
  23016676.723     2165230.4453                                 
  24357764.242     2310866.189                                  
  23931075.322      551136.419                                  
 18  5 14 15  6 26.0010000  0  8G26G21G29G16S36G31G25G20
  20770769.073     1106274.061                                  
  21312586.058     1130705.016                                  
  21780850.593     2009595.572                                  
  22104400.219      690478.8462                                 
  38469950.343     1399707.7892                                 
  23018290.144     2173711.0163                                 
  24359481.571     2319885.960                                  
  23931497.635      553354.755                                  
 18  5 14 15  6 27.0010000  0  7G26G21G29S36G31G25G20
  20771610.113     1110690.313                                  
  21313444.050     1135216.415                                  
  21782343.223     2017438.356                                  
  38470992.435     1405183.1642                                 
  23019904.036     2182192.8142                                 
  24361198.367     2328906.798                                  
  23931919.258      555574.170                                  
 18  5 14 15  6 28.0010000  0  7G26G21G29S36G31G25G20
  20772450.245     1115109.841                                  
  21314303.325     1139731.112                                  
  21783835.304     2025284.176                                  
  38472035.182     1410661.2912                                 
  23021514.473     2190677.6932                                 
  24362916.105     2337930.559                                  
  23932342.409      557796.527                                  
 18  5 14 15  6 29.0010000  0  7G26G21G29S36G31G25G20
  20773291.851     1119533.145                                  
  21315163.446     1144249.552                                  
  21785329.278     2033133.540                                  
  38473078.312     1416142.6502                                 
  23023137.405     2199166.1692                                 
  24364634.158     2346957.746                                  
  23932766.257      560022.286                                  
 18  5 14 15  6 30.0010000  0  7G26G21G29S36G31G25G20
  20774133.859     1123958.774                                  
  21316024.231     1148770.332                                  
  21786823.837     2040984.933                                  
  38474121.539     1421625.8312                                 
  23024754.002     2207656.7572                                 
  24366351.948     2355986.907                                  
  23933191.275      562250.005                                  
 18  5 14 15  6 31.0010000  0  7G26G21G29S36G31G25G20
  20774976.059     1128385.957                                  
  21316885.268     1153292.627                                  
  21788317.794     2048837.585                                  
  38475164.922     1427110.0132                                 
  23026370.049     2216148.6482                                 
  24368070.201     2365017.265                                  
  23933615.010      564478.919                                  
 18  5 14 15  6 32.0010000  0  7G26G21G29S36G31G25G20
  20775819.254     1132815.990                                  
  21317746.209     1157817.777                                  
  21789812.990     2056692.794                                  
  38476208.838     1432596.5612                                 
  23027985.764     2224643.2873                                 
  24369788.830     2374050.115                                  
  23934040.786      566710.338                                  
 18  5 14 15  6 33.0010000  0  7G26G21G29S36G31G25G20
  20776662.876     1137249.479                                  
  21318608.355     1162346.378                                  
  21791307.653     2064551.203                                  
  38477253.303     1438086.0362                                 
  23029602.850     2233141.0922                                 
  24371508.723     2383086.048                                  
  23934466.667      568944.883                                  
 18  5 14 15  6 34.0010000  0  7G26G21G29S36G31G25G20
  20777507.012     1141685.971                                  
  21319470.902     1166877.953                                  
  21792803.852     2072412.395                                  
  38478298.397     1443578.0292                                 
  23031219.255     2241641.6913                                 
  24373228.529     2392124.636                                  
  23934892.968      571182.044                                  
 18  5 14 15  6 35.0010000  0  7G26G21G29S36G31G25G20
  20778351.987     1146124.041                                  
  21320333.370     1171411.101                                  
  21794301.064     2080274.866                                  
  38479344.328     1449071.0472                                 
  23032836.812     2250143.7342                                 
  24374948.815     2401164.448                                  
  23935318.831      573420.444                                  
 18  5 14 15  6 36.0010000  0  7G26G21G29S36G31G25G20
  20779197.171     1150563.967                                  
  21321196.510     1175946.107                                  
  21795797.865     2088138.890                                  
  38480389.605     1454565.3812                                 
  23034453.871     2258647.3912                                 
  24376669.459     2410205.767                                  
  23935744.931      575660.343                                  
 18  5 14 15  6 37.0010000  0  7G26G21G29S36G31G25G20
  20780042.538     1155007.280                                  
  21322060.060     1180484.485                                  
  21797295.312     2096006.031                                  
  38481436.216     1460062.5722                                 
  23036071.995     2267154.2702                                 
  24378390.391     2419250.111                                  
  23936171.720      577903.272                                  
 18  5 14 15  6 38.0010000  0  7G26G21G29S36G31G25G20
  20780887.757     1159453.889                                  
  21322924.274     1185026.165                                  
  21798792.889     2103876.197                                  
  38482482.435     1465562.5092                                 
  23037691.052     2275664.2093                                 
  24380111.654     2428297.410                                  
  23936599.302      580149.177                                  
 18  5 14 15  6 39.0010000  0  8G26G21G29G16S36G31G25G20
  20781734.747     1163901.496                                  
  21323789.115     1189568.821                                  
  21800291.374     2111747.138                                  
  22111361.652      727091.4983                                 
  38483529.387     1471062.8992                                 
  23039309.839     2284174.8853                                 
  24381833.720     2437345.344                                  
  23937026.946      582395.684                                  
 18  5 14 15  6 40.0010000  0  8G26G21G29G16S36G31G25G20
  20782581.379     1168350.625                                  
  21324654.480     1194112.993                                  
  21801790.113     2119619.252                                  
  22111901.815      729922.3763                                 
  38484576.069     1476564.2862                                 
  23040927.998     2292686.9203                                 
  24383555.455     2446394.417                                  
  23937454.668      584643.351                                  
 18  5 14 15  6 41.0010000  0  9G26G21G29G16S36G31G25G 5G20
  20783429.041     1172802.893                                  
  21325519.941     1198660.262                                  
  21803289.043     2127494.284                                  
  22112441.375      732756.4612                                 
  38485623.553     1482068.3282                                 
  23042546.872     2301201.9733                                 
  24385277.809     2455446.300                                  
  24275083.837     1809654.5522                                 
  23937882.862      586893.837                                  
 18  5 14 15  6 42.0010000  0  9G26G21G29G16S36G31G25G 5G20
  20784276.798     1177258.376                                  
  21326385.995     1203210.763                                  
  21804788.147     2135372.234                                  
  22112983.152      735593.4332                                 
  38486671.622     1487575.2702                                 
  23044166.680     2309720.0072                                 
  24387000.643     2464501.029                                  
  24276375.301     1816433.7482                                 
  23938312.189      589147.171                                  
 18  5 14 15  6 43.0010000  0  9G26G21G29G16S36G31G25G 5G20
  20785124.870     1181714.972                                  
  21327251.797     1207762.364                                  
  21806288.054     2143251.058                                  
  22113526.604      738431.3902                                 
  38487719.124     1493082.8032                                 
  23045787.796     2318238.9262                                 
  24388723.782     2473556.501                                  
  24277669.217     1823214.1642                                 
  23938740.688      591401.227                                  
 18  5 14 15  6 44.0010000  0  9G26G21G29G16S36G31G25G 5G20
  20785972.942     1186172.391                                  
  21328117.807     1212314.777                                  
  21807787.255     2151130.366                                  
  22114065.711      741269.9582                                 
  38488767.297     1498590.5562                                 
  23047407.813     2326758.4132                                 
  24390446.214     2482612.456                                  
  24278962.593     1829995.4342                                 
  23939169.798      593655.816                                  
 18  5 14 15  6 45.0010000  0  9G26G21G29G16S36G31G25G 5G20
  20786822.419     1190632.684                                  
  21328984.848     1216870.053                                  
  21809286.421     2159012.346                                  
  22114606.563      744111.2342                                 
  38489815.252     1504100.4972                                 
  23049028.659     2335280.6302                                 
  24392170.051     2491670.938                                  
  24280242.837     1836779.7612                                 
  23939599.981      595912.897                                  
 18  5 14 15  6 46.0010000  0  9G26G21G29G16S36G31G25G 5G20
  20787671.328     1195096.281                                  
  21329852.577     1221428.629                                  
  21810785.996     2166897.318                                  
  22115149.806      746955.6262                                 
  38490864.298     1509613.2652                                 
  23050650.046     2343805.9552                                 
  24393894.613     2500732.355                                  
  24281532.582     1843567.4822                                 
  23940030.172      598172.938                                  
 18  5 14 15  6 47.0010000  0  9G26G21G29G16S36G31G25G 5G20
  20788521.965     1199561.964                                  
  21330720.708     1225989.272                                  
  21812286.741     2174784.144                                  
  22115691.766      749801.8672                                 
  38491913.885     1515127.6222                                 
  23052270.962     2352333.1902                                 
  24395618.563     2509795.514                                  
  24282823.366     1850357.3883                                 
  23940461.000      600434.685                                  
 18  5 14 15  6 48.0010000  0  9G26G21G29G16S36G31G25G 5G20
  20789371.346     1204029.220                                  
  21331588.525     1230551.488                                  
  21813787.792     2182672.190                                  
  22116233.063      752649.5462                                 
  38492963.656     1520643.1422                                 
  23053892.445     2360861.7163                                 
  24397343.840     2518859.861                                  
  24284114.342     1857148.9482                                 
  23940891.497      602697.689                                  
 18  5 14 15  6 49.0010000  0  9G26G21G29G16S36G31G25G 5G20
  20790221.660     1208498.974                                  
  21332457.083     1235116.182                                  
  21815289.173     2190562.650                                  
  22116775.041      755499.521                                  
  38494013.775     1526160.7032                                 
  23055513.736     2369392.5963                                 
  24399069.859     2527926.350                                  
  24285406.138     1863943.1122                                 
  23941322.710      604962.819                                  
 18  5 14 15  6 50.0010000  0  9G26G21G29G16S36G31G25G 5G20
  20791072.978     1212972.375                                  
  21333326.750     1239684.524                                  
  21816791.402     2198456.2463                                 
  22117317.184      758352.890                                  
  38495064.531     1531681.3542                                 
  23057135.402     2377926.8652                                 
  24400796.296     2536996.164                                  
  24286698.327     1870741.0122                                 
  23941754.105      607231.224                                  
 18  5 14 15  6 51.0010000  0  8G26G21G16S36G31G25G 5G20
  20791924.400     1217448.372                                  
  21334196.408     1244255.447                                  
  22117859.589      761208.653                                  
  38496115.252     1537204.1032                                 
  23058758.203     2386463.5633                                 
  24402522.541     2546068.198                                  
  24287991.222     1877541.6442                                 
  23942186.269      609501.897                                  
 18  5 14 15  6 52.0010000  0  9G26G21G29G16S36G31G25G 5G20
  20792776.485     1221925.800                                  
  21335066.283     1248827.796                                  
  21819796.669     2214249.5572                                 
  22118402.457      764065.739                                  
  38497166.349     1542727.7862                                 
  23060383.176     2395001.4162                                 
  24404249.136     2555141.293                                  
  24289283.917     1884343.7682                                 
  23942618.737      611773.625                                  
 18  5 14 15  6 53.0010000  0  9G26G21G29G16S36G31G25G 5G20
  20793629.077     1226405.609                                  
  21335936.718     1253402.514                                  
  21821300.206     2222148.8182                                 
  22118945.761      766924.974                                  
  38498218.073     1548253.3392                                 
  23062008.323     2403541.8353                                 
  24405976.044     2564216.419                                  
  24290576.568     1891148.3862                                 
  23943051.494      614047.402                                  
 18  5 14 15  6 54.0010000  0  8G26G21G29S36G31G25G 5G20
  20794481.895     1230889.004                                  
  21336807.693     1257980.807                                  
  21822804.947     2230051.3292                                 
  38499270.208     1553781.9482                                 
  23063632.624     2412084.9183                                 
  24407703.162     2573294.757                                  
  24291869.289     1897956.6712                                 
  23943483.893      616324.394                                  
 18  5 14 15  6 55.0010000  0  8G26G21G29S36G31G25G 5G20
  20795335.595     1235375.240                                  
  21337679.139     1262561.925                                  
  21824310.002     2237956.5042                                 
  38500322.290     1559312.9612                                 
  23065258.225     2420631.0723                                 
  24409430.524     2582375.593                                  
  24293163.196     1904767.422                                  
  23943917.383      618603.857                                  
 18  5 14 15  6 56.0010000  0  8G26G21G29S36G31G25G 5G20
  20796189.774     1239863.087                                  
  21338551.013     1267144.658                                  
  21825814.892     2245863.0532                                 
  38501375.044     1564845.0992                                 
  23066883.303     2429178.5863                                 
  24411159.309     2591457.682                                  
  24294457.348     1911580.352                                  
  23944351.047      620884.587                                  
 18  5 14 15  6 57.0010000  0  8G26G21G29S36G31G25G 5G20
  20797043.587     1244352.409                                  
  21339423.324     1271728.866                                  
  21827318.926     2253770.7612                                 
  38502428.113     1570378.2332                                 
  23068509.471     2437727.3402                                 
  24412888.564     2600540.890                                  
  24295752.939     1918394.819                                  
  23944785.121      623166.462                                  
 18  5 14 15  6 58.0010000  0  8G26G21G29S36G31G25G 5G20
  20797899.363     1248844.997                                  
  21340296.253     1276316.314                                  
  21828824.252     2261681.4542                                 
  38503481.268     1575914.1142                                 
  23070135.753     2446279.2772                                 
  24414617.654     2609627.011                                  
  24297049.665     1925212.718                                  
  23945218.968      625451.251                                  
 18  5 14 15  6 59.0010000  0  8G26G21G29S36G31G25G 5G20
  20798754.502     1253341.229                                  
  21341169.785     1280907.414                                  
  21830330.581     2269595.5142                                 
  38504535.689     1581453.1282                                 
  23071764.208     2454834.5083                                 
  24416346.682     2618716.408                                  
  24298347.228     1932034.386                                  
  23945654.299      627739.340                                  
 18  5 14 15  7  0.0010000  0  8G26G21G29S36G31G25G 5G20
  20799610.270     1257839.333                                  
  21342043.605     1285500.358                                  
  21831837.346     2277511.1542                                 
  38505590.398     1586993.4342                                 
  23073394.032     2463391.4492                                 
  24418076.505     2627807.314                                  
  24299645.140     1938857.964                                  
  23946090.458      630028.911                                  
 18  5 14 15  7  1.0010000  0  8G26G21G29S36G31G25G 5G20
  20800466.726     1262338.863                                  
  21342917.791     1290094.714                                  
  21833344.146     2285427.999                                  
  38506644.626     1592534.6082                                 
  23075024.432     2471949.6202                                 
  24419806.921     2636899.289                                  
  24300942.887     1945683.061                                  
  23946525.518      632319.569                                  
 18  5 14 15  7  2.0010000  0  8G26G21G29S36G31G25G 5G20
  20801323.384     1266841.011                                  
  21343792.509     1294691.681                                  
  21834851.461     2293347.142                                  
  38507699.239     1598077.8232                                 
  23076654.535     2480510.2733                                 
  24421537.372     2645993.512                                  
  24302240.677     1952510.923                                  
  23946962.175      634612.511                                  
 18  5 14 15  7  3.0010000  0  8G26G21G29S36G31G25G 5G20
  20802180.521     1271346.617                                  
  21344667.140     1299292.104                                  
  21836359.849     2301269.469                                  
  38508754.646     1603623.9902                                 
  23078285.153     2489074.0962                                 
  24423268.791     2655090.849                                  
  24303539.793     1959342.311                                  
  23947399.120      636908.549                                  
 18  5 14 15  7  4.0010000  0  8G26G21G29S36G31G25G 5G20
  20803038.784     1275855.546                                  
  21345542.818     1303895.841                                  
  21837868.507     2309194.845                                  
  38509810.392     1609172.9552                                 
  23079916.277     2497640.9992                                 
  24425000.594     2664191.128                                  
  24304839.049     1966177.094                                  
  23947835.777      639207.524                                  
 18  5 14 15  7  5.0010000  0  8G26G21G29S36G31G25G 5G20
  20803896.785     1280366.592                                  
  21346420.093     1308501.697                                  
  21839377.489     2317122.111                                  
  38510867.003     1614723.5082                                 
  23081546.320     2506209.9093                                 
  24426732.782     2673293.219                                  
  24306139.544     1973014.128                                  
  23948273.515      641508.289                                  
 18  5 14 15  7  6.0010000  0  8G26G21G29S36G31G25G 5G20
  20804755.711     1284879.388                                  
  21347296.391     1313109.298                                  
  21840885.764     2325050.762                                  
  38511923.265     1620275.1152                                 
  23083177.095     2514780.3312                                 
  24428465.274     2682396.638                                  
  24307440.746     1979852.967                                  
  23948711.141      643810.450                                  
 18  5 14 15  7  7.0010000  0  8G26G21G29S36G31G25G 5G20
  20805615.465     1289395.656                                  
  21348174.084     1317720.363                                  
  21842395.356     2332982.669                                  
  38512979.579     1625829.6552                                 
  23084808.638     2523354.0203                                 
  24430198.334     2691503.187                                  
  24308742.969     1986695.408                                  
  23949149.987      646115.742                                  
 18  5 14 15  7  8.0010000  0  8G26G21G29S36G31G25G 5G20
  20806475.072     1293914.597                                  
  21349051.673     1322334.107                                  
  21843906.065     2340916.955                                  
  38514037.202     1631386.3932                                 
  23086440.835     2531930.1822                                 
  24431931.123     2700612.055                                  
  24310046.910     1993540.625                                  
  23949588.808      648423.375                                  
 18  5 14 15  7  9.0010000  0  8G26G21G29S36G31G25G 5G20
  20807335.219     1298434.869                                  
  21349929.951     1326949.153                                  
  21845416.686     2348852.298                                  
  38515095.208     1636943.8752                                 
  23088073.364     2540507.4812                                 
  24433664.654     2709721.887                                  
  24311350.694     2000387.288                                  
  23950027.411      650731.951                                  
 18  5 14 15  7 10.0010000  0  8G26G21G29S36G31G25G 5G20
  20808195.899     1302957.632                                  
  21350808.867     1331566.675                                  
  21846927.186     2356789.896                                  
  38516153.328     1642503.2542                                 
  23089706.181     2549087.0092                                 
  24435398.158     2718833.857                                  
  24312655.019     2007236.459                                  
  23950467.060      653042.675                                  
 18  5 14 15  7 11.0010000  0  8G26G21G29S36G31G25G 5G20
  20809057.224     1307484.147                                  
  21351688.209     1336187.946                                  
  21848438.096     2364730.955                                  
  38517211.946     1648065.9862                                 
  23091339.853     2557670.0902                                 
  24437133.591     2727949.233                                  
  24313960.078     2014089.515                                  
  23950907.399      655356.790                                  
 18  5 14 15  7 12.0010000  0  8G26G21G29S36G31G25G 5G20
  20809920.059     1312013.958                                  
  21352568.145     1340812.492                                  
  21849949.834     2372675.057                                  
  38518270.991     1653631.4982                                 
  23092973.307     2566256.2502                                 
  24438868.754     2737067.531                                  
  24315265.485     2020945.970                                  
  23951348.060      657673.857                                  
 18  5 14 15  7 13.0010000  0  8G26G21G29S36G31G25G 5G20
  20810782.170     1316545.732                                  
  21353447.837     1345438.995                                  
  21851461.861     2380620.803                                  
  38519329.347     1659198.4832                                 
  23094608.802     2574844.2522                                 
  24440604.230     2746187.413                                  
  24316571.590     2027804.493                                  
  23951788.844      659992.543                                  
 18  5 14 15  7 14.0010000  0  8G26G21G29S36G31G25G 5G20
  20811645.074     1321079.027                                  
  21354329.160     1350067.000                                  
  21852974.716     2388567.808                                  
  38520388.732     1664766.5082                                 
  23096243.931     2583433.5092                                 
  24442339.707     2755308.451                                  
  24317876.953     2034664.663                                  
  23952229.549      662312.389                                  
 18  5 14 15  7 15.0010000  0  8G26G21G29S36G31G25G 5G20
  20812507.935     1325615.384                                  
  21355210.614     1354698.064                                  
  21854487.903     2396517.635                                  
  38521449.129     1670337.0452                                 
  23097879.305     2592025.6422                                 
  24444075.340     2764432.237                                  
  24319183.303     2041527.956                                  
  23952671.939      664634.929                                  
 18  5 14 15  7 16.0010000  0  8G26G21G29S36G31G25G 5G20
  20813371.695     1330155.634                                  
  21356092.766     1359333.010                                  
  21856001.901     2404471.003                                  
  38522510.338     1675910.9542                                 
  23099514.713     2600621.4192                                 
  24445812.082     2773559.532                                  
  24320490.769     2048395.262                                  
  23953114.581      666961.024                                  
 18  5 14 15  7 17.0010000  0  8G26G21G29S36G31G25G 5G20
  20814235.821     1334697.958                                  
  21356975.512     1363970.001                                  
  21857515.699     2412426.263                                  
  38523571.512     1681486.2602                                 
  23101149.912     2609219.0282                                 
  24447549.949     2782688.525                                  
  24321798.916     2055264.694                                  
  23953557.424      669288.844                                  
 18  5 14 15  7 18.0010000  0  8G26G21G29S36G31G25G 5G20
  20815100.976     1339241.733                                  
  21357857.699     1368608.439                                  
  21859029.540     2420382.645                                  
  38524632.110     1687062.5292                                 
  23102784.701     2617817.9812                                 
  24449287.380     2791818.627                                  
  24323107.229     2062135.708                                  
  23954000.886      671617.781                                  
 18  5 14 15  7 19.0010000  0  8G26G21G29S36G31G25G 5G20
  20815966.306     1343788.571                                  
  21358741.395     1373249.932                                  
  21860543.678     2428341.835                                  
  38525694.226     1692641.4062                                 
  23104421.278     2626419.180                                  
  24451025.544     2800951.416                                  
  24324415.890     2069009.924                                  
  23954444.401      673949.406                                  
 18  5 14 15  7 20.0010000  0  8G26G21G29S36G31G25G 5G20
  20816831.837     1348339.126                                  
  21359624.856     1377895.125                                  
  21862057.999     2436304.480                                  
  38526755.671     1698223.5222                                 
  23106058.702     2635024.396                                  
  24452764.153     2810087.580                                  
  24325724.212     2075887.931                                  
  23954888.570      676284.422                                  
 18  5 14 15  7 21.0010000  0  8G26G21G29S36G31G25G 5G20
  20817698.389     1352892.924                                  
  21360509.530     1382543.552                                  
  21863572.809     2444270.048                                  
  38527817.927     1703808.3642                                 
  23107695.899     2643632.732                                  
  24454502.988     2819226.617                                  
  24327032.969     2082769.230                                  
  23955333.681      678622.291                                  
 18  5 14 15  7 22.0010000  0  8G26G21G29S36G31G25G 5G20
  20818564.958     1357447.919                                  
  21361394.518     1387193.160                                  
  21865088.273     2452236.477                                  
  38528880.392     1709393.8752                                 
  23109333.401     2652242.032                                  
  24456241.868     2828366.491                                  
  24328342.826     2089651.902                                  
  23955778.278      680961.027                                  
 18  5 14 15  7 23.0010000  0  8G26G21G29S36G31G25G 5G20
  20819431.475     1362005.539                                  
  21362279.732     1391845.395                                  
  21866604.540     2460205.304                                  
  38529943.738     1714981.4922                                 
  23110971.008     2660854.1813                                 
  24457981.768     2837508.616                                  
  24329653.669     2096537.262                                  
  23956223.826      683302.055                                  
 18  5 14 15  7 24.0010000  0  8G26G21G29S36G31G25G 5G20
  20820299.815     1366566.515                                  
  21363165.715     1396500.975                                  
  21868121.810     2468177.225                                  
  38531007.861     1720571.9242                                 
  23112610.211     2669469.0342                                 
  24459722.052     2846653.747                                  
  24330964.303     2103426.046                                  
  23956669.880      685646.071                                  
 18  5 14 15  7 25.0010000  0  8G26G21G29S36G31G25G 5G20
  20821168.766     1371130.915                                  
  21364052.509     1401159.954                                  
  21869639.098     2476152.258                                  
  38532072.281     1726165.2402                                 
  23114251.448     2678087.1122                                 
  24461462.720     2855801.962                                  
  24332276.681     2110318.416                                  
  23957117.382      687993.173                                  
 18  5 14 15  7 26.0010000  0  8G26G21G29S36G31G25G 5G20
  20822036.967     1375696.934                                  
  21364939.163     1405820.552                                  
  21871156.203     2484128.7243                                 
  38533137.102     1731759.6382                                 
  23115892.807     2686706.5532                                 
  24463203.388     2864951.420                                  
  24333589.173     2117212.399                                  
  23957564.194      690341.546                                  
 18  5 14 15  7 27.0010000  0  8G26G21G29S36G31G25G 5G20
  20822906.014     1380264.252                                  
  21365826.515     1410482.431                                  
  21872674.328     2492106.2103                                 
  38534202.307     1737354.8192                                 
  23117532.569     2695327.1172                                 
  24464945.644     2874101.805                                  
  24334900.461     2124107.864                                  
  23958011.679      692690.865                                  
 18  5 14 15  7 28.0010000  0  8G26G21G29S36G31G25G 5G20
  20823775.776     1384835.428                                  
  21366714.749     1415148.170                                  
  21874193.151     2500087.2452                                 
  38535267.582     1742953.3902                                 
  23119174.024     2703951.3092                                 
  24466687.987     2883255.688                                  
  24336212.778     2131007.296                                  
  23958459.399      695043.672                                  
 18  5 14 15  7 29.0010000  0  8G26G21G29S36G31G25G 5G20
  20824646.132     1389410.361                                  
  21367603.846     1419817.621                                  
  21875712.908     2508071.6682                                 
  38536333.772     1748555.2172                                 
  23120816.264     2712579.0332                                 
  24468429.798     2892412.955                                  
  24337526.518     2137910.500                                  
  23958908.306      697399.866                                  
 18  5 14 15  7 30.0010000  0  8G26G21G29S36G31G25G 5G20
  20825516.776     1393986.862                                  
  21368492.359     1424488.647                                  
  21877232.360     2516057.4012                                 
  38537400.112     1754158.0752                                 
  23122458.294     2721208.1312                                 
  24470173.066     2901571.443                                  
  24338840.816     2144815.416                                  
  23959356.986      699757.305                                  
 18  5 14 15  7 31.0010000  0  8G26G21G29S36G31G25G 5G20
  20826388.301     1398565.128                                  
  21369381.587     1429161.412                                  
  21878752.291     2524044.6972                                 
  38538466.617     1759762.1202                                 
  23124101.180     2729838.355                                  
  24471916.002     2910731.303                                  
  24340156.292     2151722.135                                  
  23959805.335      702116.127                                  
 18  5 14 15  7 32.0010000  0  9G26G21G29G16S36G31G25G 5G20
  20827261.021     1403146.465                                  
  21370271.443     1433837.252                                  
  21880273.008     2532034.7862                                 
  22140503.071      880319.0083                                 
  38539534.055     1765368.7162                                 
  23125743.987     2738471.851                                  
  24473659.096     2919893.904                                  
  24341470.416     2158632.085                                  
  23960255.053      704477.706                                  
 18  5 14 15  7 33.0010000  0  8G26G21G29S36G31G25G 5G20
  20828133.392     1407731.269                                  
  21371161.815     1438516.549                                  
  21881794.161     2540028.0602                                 
  38540601.136     1770978.2392                                 
  23127387.038     2747108.667                                  
  24475403.664     2929059.615                                  
  24342784.286     2165545.575                                  
  23960706.429      706842.408                                  
 18  5 14 15  7 34.0010000  0  8G26G21G29S36G31G25G 5G20
  20829006.121     1412318.480                                  
  21372052.805     1443198.237                                  
  21883315.506     2548023.4302                                 
  38541668.662     1776589.5802                                 
  23129030.884     2755747.632                                  
  24477148.528     2938227.359                                  
  24344099.361     2172461.530                                  
  23961156.845      709209.106                                  
 18  5 14 15  7 35.0010000  0  8G26G21G29S36G31G25G 5G20
  20829879.513     1416907.211                                  
  21372944.206     1447881.431                                  
  21884838.098     2556020.0372                                 
  38542736.929     1782201.8412                                 
  23130676.239     2764387.878                                  
  24478894.248     2947396.288                                  
  24345415.927     2179379.177                                  
  23961607.392      711577.026                                  
 18  5 14 15  7 36.0010000  0  8G26G21G29S36G31G25G 5G20
  20830752.984     1421499.282                                  
  21373836.261     1452567.952                                  
  21886362.532     2564019.6173                                 
  38543806.113     1787816.9772                                 
  23132320.599     2773031.331                                  
  24480639.366     2956568.107                                  
  24346732.476     2186300.153                                  
  23962058.446      713947.899                                  
 18  5 14 15  7 37.0010000  0  8G26G21G29S36G31G25G 5G20
  20831627.624     1426095.188                                  
  21374728.308     1457258.272                                  
  21887886.285     2572022.9782                                 
  38544875.008     1793435.3992                                 
  23133965.866     2781678.373                                  
  24482385.339     2965743.388                                  
  24348049.750     2193225.109                                  
  23962510.354      716322.329                                  
 18  5 14 15  7 38.0010000  0  8G26G21G29S36G31G25G 5G20
  20832502.656     1430693.986                                  
  21375621.828     1461951.508                                  
  21889410.963     2580028.8872                                 
  38545944.183     1799056.2042                                 
  23135612.329     2790328.074                                  
  24484131.757     2974921.278                                  
  24349367.198     2200153.029                                  
  23962962.280      718699.166                                  
 18  5 14 15  7 39.0010000  0  8G26G21G29S36G31G25G 5G20
  20833378.614     1435294.462                                  
  21376514.747     1466646.410                                  
  21890934.148     2588036.2193                                 
  38547014.693     1804678.1452                                 
  23137259.639     2798979.347                                  
  24485879.623     2984100.550                                  
  24350683.633     2207082.803                                  
  23963414.389      721077.481                                  
 18  5 14 15  7 40.0010000  0  8G26G21G29S36G31G25G 5G20
  20834254.388     1439897.553                                  
  21377409.088     1471343.931                                  
  21892457.727     2596045.5992                                 
  38548085.107     1810302.1932                                 
  23138906.171     2807632.886                                  
  24487626.355     2993281.972                                  
  24352003.201     2214015.236                                  
  23963867.702      723458.013                                  
 18  5 14 15  7 41.0010000  0  7G26G21S36G31G25G 5G20
  20835131.357     1444504.277                                  
  21378303.412     1476045.014                                  
  38549156.262     1815929.3312                                 
  23140554.022     2816290.5703                                 
  24489373.427     3002466.694                                  
  24353324.418     2220951.356                                  
  23964321.181      725841.752                                  
 18  5 14 15  7 42.0010000  0  7G26G21S36G31G25G 5G20
  20836008.396     1449114.748                                  
  21379198.233     1480749.862                                  
  38550227.287     1821559.6832                                 
  23142203.451     2824951.0222                                 
  24491121.136     3011654.806                                  
  24354643.437     2227891.443                                  
  23964775.296      728228.912                                  
 18  5 14 15  7 43.0010000  0  8G26G21G29S36G31G25G 5G20
  20836886.107     1453726.912                                  
  21380093.272     1485456.383                                  
  21897035.992     2620092.8933                                 
  38551298.303     1827191.0752                                 
  23143850.211     2833613.0302                                 
  24492870.067     3020844.274                                  
  24355965.116     2234833.205                                  
  23965229.377      730617.484                                  
 18  5 14 15  7 44.0010000  0  8G26G21G29S36G31G25G 5G20
  20837764.132     1458340.373                                  
  21380989.542     1490164.195                                  
  21898562.398     2628111.8413                                 
  38552370.287     1832823.2532                                 
  23145497.223     2842276.1962                                 
  24494618.535     3030034.614                                  
  24357286.202     2241776.374                                  
  23965684.200      733006.942                                  
 18  5 14 15  7 45.0010000  0  8G26G21G29S36G31G25G 5G20
  20838642.210     1462957.503                                  
  21381886.169     1494875.659                                  
  21900089.545     2636134.0713                                 
  38553442.934     1838458.6502                                 
  23147145.780     2850942.6992                                 
  24496368.085     3039228.258                                  
  24358607.428     2248723.298                                  
  23966139.650      735399.726                                  
 18  5 14 15  7 46.0010000  0  8G26G21G29S36G31G25G 5G20
  20839521.596     1467578.447                                  
  21382783.476     1499590.942                                  
  21901616.570     2644159.7793                                 
  38554515.809     1844097.3042                                 
  23148796.728     2859612.9582                                 
  24498119.232     3048425.381                                  
  24359929.998     2255674.093                                  
  23966595.249      737795.987                                  
 18  5 14 15  7 47.0010000  0  8G26G21G29S36G31G25G 5G20
  20840401.410     1472201.612                                  
  21383681.116     1504308.407                                  
  21903144.738     2652187.3612                                 
  38555589.049     1849737.6742                                 
  23150449.054     2868285.0942                                 
  24499869.532     3057624.328                                  
  24361252.986     2262627.245                                  
  23967052.532      740194.114                                  
 18  5 14 15  7 48.0010000  0  8G26G21G16S36G31G25G 5G20
  20841281.084     1476826.009                                  
  21384578.729     1509027.117                                  
  22149576.364      927912.8013                                 
  38556662.430     1855378.7502                                 
  23152100.595     2876958.3282                                 
  24501621.133     3066824.297                                  
  24362575.913     2269581.761                                  
  23967509.431      742593.074                                  
 18  5 14 15  7 49.0010000  0  9G26G21G29G16S36G31G25G 5G20
  20842161.343     1481453.610                                  
  21385477.825     1513749.009                                  
  21906200.690     2668247.4943                                 
  22150150.057      930908.7343                                 
  38557736.255     1861022.4442                                 
  23153751.054     2885633.985                                  
  24503373.614     3076026.930                                  
  24363899.181     2276539.546                                  
  23967966.819      744994.937                                  
 18  5 14 15  7 50.0010000  0  9G26G21G29G16S36G31G25G 5G20
  20843042.928     1486085.287                                  
  21386377.497     1518474.960                                  
  21907730.559     2676282.8643                                 
  22150720.775      933908.4913                                 
  38558811.398     1866669.6052                                 
  23155402.360     2894314.088                                  
  24505125.817     3085233.337                                  
  24365224.149     2283501.502                                  
  23968424.390      747400.538                                  
 18  5 14 15  7 51.0010000  0  9G26G21G29G16S36G31G25G 5G20
  20843924.504     1490720.332                                  
  21387277.396     1523204.271                                  
  21909259.399     2684321.3403                                 
  22151291.476      936911.6083                                 
  38559887.134     1872319.5982                                 
  23157054.991     2902997.8133                                 
  24506878.988     3094442.716                                  
  24366549.188     2290466.932                                  
  23968882.807      749809.153                                  
 18  5 14 15  7 52.0010000  0  7G26G21S36G31G25G 5G20
  20844806.735     1495358.364                                  
  21388177.757     1527936.560                                  
  38560962.303     1877972.0652                                 
  23158707.876     2911683.8092                                 
  24508632.281     3103654.747                                  
  24367875.117     2297435.429                                  
  23969342.236      752220.370                                  
 18  5 14 15  7 53.0010000  0  7G26G21S36G31G25G 5G20
  20845690.388     1499999.230                                  
  21389078.991     1532671.661                                  
  38562038.702     1883627.0032                                 
  23160361.232     2920372.3663                                 
  24510385.897     3112869.246                                  
  24369202.197     2304406.834                                  
  23969802.067      754634.087                                  
 18  5 14 15  7 54.0010000  0  7G26G21S36G31G25G 5G20
  20846574.268     1504644.445                                  
  21389981.194     1537411.106                                  
  38563115.494     1889285.7702                                 
  23162015.050     2929065.1322                                 
  24512140.586     3122087.709                                  
  24370529.714     2311382.710                                  
  23970261.139      757051.814                                  
 18  5 14 15  7 55.0010000  0  7G26G21S36G31G25G 5G20
  20847458.889     1509292.523                                  
  21390883.152     1542153.400                                  
  38564192.696     1894946.9022                                 
  23163669.575     2937760.5623                                 
  24513895.014     3131308.688                                  
  24371857.745     2318361.533                                  
  23970721.606      759472.070                                  
 18  5 14 15  7 56.0010000  0  7G26G21S36G31G25G 5G20
  20848343.205     1513941.984                                  
  21391785.642     1546897.053                                  
  38565269.942     1900608.8732                                 
  23165275.300     2946459.2293                                 
  24515649.947     3140530.647                                  
  24373186.134     2325341.787                                  
  23971181.943      761893.357                                  
 18  5 14 15  7 57.0010000  0  6G26G21S36G25G 5G20
  20849228.507     1518593.727                                  
  21392688.551     1551642.993                                  
  38566347.658     1906272.5842                                 
  24517404.680     3149754.546                                  
  24374515.064     2332324.517                                  
  23971643.152      764316.581                                  
 18  5 14 15  7 58.0010000  0  6G26G21S36G25G 5G20
  20850114.358     1523249.309                                  
  21393592.124     1556392.747                                  
  38567426.335     1911939.6912                                 
  24519160.512     3158981.953                                  
  24375844.134     2339311.085                                  
  23972105.539      766743.277                                  
 18  5 14 15  7 59.0010000  0  6G26G21S36G25G 5G20
  20851000.856     1527908.411                                  
  21394496.918     1561146.003                                  
  38568505.430     1917609.8452                                 
  24520916.859     3168212.406                                  
  24377174.320     2346301.313                                  
  23972567.717      769173.157                                  
 18  5 14 15  8  0.0010000  0  7G26G21G16S36G25G 5G20
  20851887.833     1532568.287                                  
  21395401.738     1565900.022                                  
  22156449.472      964062.6443                                 
  38569584.997     1923280.2322                                 
  24522672.081     3177443.340                                  
  24378503.381     2353292.395                                  
  23973029.851      771603.419                                  
 18  5 14 15  8  1.0010000  0  7G26G21G16S36G25G 5G20
  20852774.644     1537229.280                                  
  21396306.008     1570655.146                                  
  22157021.351      967089.6063                                 
  38570663.891     1928951.2492                                 
  24524428.716     3186675.022                                  
  24379834.091     2360284.681                                  
  23973492.134      774034.472                                  
 18  5 14 15  8  2.0010000  0  7G26G21G16S36G25G 5G20
  20853662.947     1541894.155                                  
  21397211.587     1575414.155                                  
  22157598.700      970120.3392                                 
  38571743.327     1934625.7222                                 
  24526186.101     3195910.225                                  
  24381165.272     2367280.963                                  
  23973955.882      776469.075                                  
 18  5 14 15  8  3.0010000  0  7G26G21G16S36G25G 5G20
  20854550.858     1546563.170                                  
  21398118.562     1580177.274                                  
  22158176.756      973155.0142                                 
  38572823.993     1940303.8682                                 
  24527943.879     3205149.205                                  
  24382497.439     2374281.473                                  
  23974419.936      778907.473                                  
 18  5 14 15  8  4.0010000  0  7G26G21G16S36G25G 5G20
  20855439.894     1551233.782                                  
  21399025.397     1584941.976                                  
  22158755.658      976191.0253                                 
  38573904.702     1945983.1482                                 
  24529701.927     3214389.429                                  
  24383829.633     2381283.641                                  
  23974884.199      781347.098                                  
 18  5 14 15  8  5.0010000  0  7G26G21G16S36G25G 5G20
  20856329.349     1555905.030                                  
  21399932.294     1589707.306                                  
  22159328.810      979227.5243                                 
  38574985.507     1951662.5282                                 
  24531459.574     3223629.899                                  
  24385161.058     2388286.583                                  
  23975347.781      783787.019                                  
 18  5 14 15  8  6.0010000  0  7G26G21S36G31G25G 5G20
  20857218.944     1560578.989                                  
  21400839.653     1594475.352                                  
  38576066.862     1957344.0502                                 
  23181902.601     3033514.5913                                 
  24533218.530     3232872.731                                  
  24386493.618     2395292.344                                  
  23975812.629      786229.308                                  
 18  5 14 15  8  7.0010000  0  7G26G21S36G31G25G 5G20
  20858109.132     1565256.785                                  
  21401747.989     1599247.184                                  
  38577148.540     1963028.8572                                 
  23183562.107     3042237.3803                                 
  24534978.620     3242119.039                                  
  24387826.797     2402301.973                                  
  23976277.721      788675.067                                  
 18  5 14 15  8  8.0010000  0  7G26G21S36G31G25G 5G20
  20858999.809     1569936.760                                  
  21402656.552     1604021.211                                  
  38578230.183     1968715.3042                                 
  23185222.391     3050961.9413                                 
  24536738.265     3251367.116                                  
  24389159.775     2409313.925                                  
  23976743.240      791122.671                                  
 18  5 14 15  8  9.0010000  0  7G26G21S36G31G25G 5G20
  20859891.270     1574618.884                                  
  21403565.316     1608797.388                                  
  38579312.394     1974403.4152                                 
  23186880.380     3059687.9843                                 
  24538498.303     3260616.989                                  
  24390493.827     2416328.072                                  
  23977209.405      793572.087                                  
 18  5 14 15  8 10.0010000  0  7G26G21S36G31G25G 5G20
  20860782.593     1579303.400                                  
  21404474.839     1613575.915                                  
  38580395.572     1980093.3962                                 
  23188541.292     3068416.3623                                 
  24540259.475     3269868.954                                  
  24391828.682     2423344.728                                  
  23977675.928      796023.521                                  
 18  5 14 15  8 11.0010000  0  7G26G21S36G31G25G 5G20
  20861674.595     1583991.631                                  
  21405384.850     1618358.152                                  
  38581478.890     1985786.6382                                 
  23190204.995     3077148.4133                                 
  24542021.004     3279124.214                                  
  24393164.915     2430365.197                                  
  23978143.254      798478.313                                  
 18  5 14 15  8 12.0010000  0  8G26G21G16S36G31G25G 5G20
  20862567.471     1588683.130                                  
  21406295.245     1623143.637                                  
  22163387.024     1000556.7673                                 
  38582562.776     1991482.5982                                 
  23191866.701     3085883.6823                                 
  24543783.424     3288382.357                                  
  24394501.043     2437388.988                                  
  23978610.265      800936.064                                  
 18  5 14 15  8 13.0010000  0  8G26G21G16S36G31G25G 5G20
  20863460.311     1593376.383                                  
  21407206.531     1627930.869                                  
  22163969.670     1003613.7573                                 
  38583646.932     1997179.7592                                 
  23193528.538     3094620.3653                                 
  24545545.259     3297641.919                                  
  24395837.110     2444414.630                                  
  23979078.463      803395.187                                  
 18  5 14 15  8 14.0010000  0  8G26G21G16S36G31G25G 5G20
  20864353.806     1598070.640                                  
  21408117.336     1632719.094                                  
  22164556.695     1006671.4853                                 
  38584731.279     2002877.3792                                 
  23195192.276     3103357.8543                                 
  24547307.652     3306902.126                                  
  24397173.352     2451441.360                                  
  23979546.775      805854.990                                  
 18  5 14 15  8 15.0010000  0  8G26G21G16S36G31G25G 5G20
  20865247.370     1602767.696                                  
  21409028.831     1637510.096                                  
  22165138.921     1009731.8193                                 
  38585815.968     2008577.2112                                 
  23196858.135     3112097.8912                                 
  24549071.154     3316164.720                                  
  24398511.356     2458470.973                                  
  23980015.898      808317.233                                  
 18  5 14 15  8 16.0010000  0  7G26G21G16S36G25G 5G20
  20866142.165     1607468.839                                  
  21409940.762     1642305.164                                  
  22165722.666     1012796.0172                                 
  38586900.917     2014280.5672                                 
  24550834.865     3325431.095                                  
  24399850.233     2465504.778                                  
  23980484.628      810783.215                                  
 18  5 14 15  8 17.0010000  0  7G26G21G16S36G25G 5G20
  20867037.248     1612171.463                                  
  21410853.801     1647101.707                                  
  22166304.369     1015861.5383                                 
  38587986.748     2019984.8672                                 
  24552597.668     3334698.540                                  
  24401188.664     2472540.123                                  
  23980954.030      813250.322                                  
 18  5 14 15  8 18.0010000  0  7G26G21G16S36G25G 5G20
  20867931.990     1616875.805                                  
  21411766.656     1651899.957                                  
  22166886.325     1018928.5313                                 
  38589072.396     2025690.4112                                 
  24554361.746     3343967.354                                  
  24402528.047     2479577.239                                  
  23981424.409      815718.792                                  
 18  5 14 15  8 19.0010000  0  7G26G21G16S36G25G 5G20
  20868827.579     1621583.317                                  
  21412679.957     1656701.343                                  
  22167472.783     1021998.6233                                 
  38590158.533     2031398.6212                                 
  24556126.643     3353239.117                                  
  24403868.180     2486617.572                                  
  23981894.448      818190.054                                  
 18  5 14 15  8 20.0010000  0  8G26G21G16S36G31G25G 5G20
  20869724.032     1626294.829                                  
  21413594.218     1661506.772                                  
  22168057.767     1025072.4942                                 
  38591245.952     2037110.2502                                 
  23205184.646     3155821.6533                                 
  24557892.675     3362514.248                                  
  24405208.078     2493662.141                                  
  23982366.835      820665.142                                  
 18  5 14 15  8 21.0010000  0  8G26G21G16S36G31G25G 5G20
  20870620.676     1631008.681                                  
  21414508.897     1666314.489                                  
  22168643.876     1028148.5403                                 
  38592333.196     2042823.7292                                 
  23206846.265     3164577.4483                                 
  24559660.269     3371791.414                                  
  24406548.097     2500709.127                                  
  23982839.238      823142.087                                  
 18  5 14 15  8 22.0010000  0  8G26G21G16S36G31G25G 5G20
  20871518.734     1635724.467                                  
  21415424.248     1671124.154                                  
  22169229.191     1031226.2683                                 
  38593420.450     2048538.6342                                 
  23208518.903     3173334.8102                                 
  24561425.917     3381070.213                                  
  24407889.347     2507758.214                                  
  23983310.926      825620.582                                  
 18  5 14 15  8 23.0010000  0  9G26G21G29G16S36G31G25G 5G20
  20872416.295     1640443.538                                  
  21416339.835     1675936.979                                  
  21958436.599     2942801.4593                                 
  22169815.885     1034306.9022                                 
  38594508.549     2054256.2232                                 
  23210191.803     3182094.9962                                 
  24563191.059     3390351.805                                  
  24409232.028     2514811.2563                                 
  23983782.152      828101.999                                  
 18  5 14 15  8 24.0010000  0  8G26G21G16S36G31G25G 5G20
  20873315.051     1645166.025                                  
  21417255.779     1680753.324                                  
  22170401.061     1037390.9153                                 
  38595598.027     2059976.8122                                 
  23211857.976     3190858.5403                                 
  24564958.469     3399636.671                                  
  24410575.442     2521867.2203                                 
  23984254.966      830586.518                                  
 18  5 14 15  8 25.0010000  0  8G26G21G16S36G31G25G 5G20
  20874214.217     1649891.900                                  
  21418173.015     1685572.998                                  
  22170988.234     1040478.1213                                 
  38596687.628     2065700.3192                                 
  23213526.225     3199625.2473                                 
  24566726.813     3408924.401                                  
  24411929.011     2528927.8063                                 
  23984727.683      833074.127                                  
 18  5 14 15  8 26.0010000  0  9G26G21G29G16S36G31G25G 5G20
  20875113.889     1654619.949                                  
  21419090.077     1690394.837                                  
  21963088.173     2967159.9763                                 
  22171576.394     1043567.2753                                 
  38597777.211     2071425.4142                                 
  23215193.227     3208393.7903                                 
  24568494.058     3418213.971                                  
  24413278.594     2535989.3153                                 
  23985200.811      835563.515                                  
 18  5 14 15  8 27.0010000  0  9G26G21G29G16S36G31G25G 5G20
  20876013.596     1659350.524                                  
  21420008.778     1695219.182                                  
  21964634.777     2975283.7233                                 
  22172165.016     1046658.7093                                 
  38598867.108     2077152.5022                                 
  23216862.995     3217163.7923                                 
  24570262.916     3427505.688                                  
  24414625.620     2543053.4273                                 
  23985674.410      838055.100                                  
 18  5 14 15  8 28.0010000  0  8G26G21G16S36G31G25G 5G20
  20876914.647     1664085.398                                  
  21420927.541     1700047.834                                  
  22172752.303     1049754.3263                                 
  38599957.633     2082883.3802                                 
  23218536.829     3225939.0433                                 
  24572032.159     3436801.357                                  
  24415968.458     2550122.2583                                 
  23986149.448      840550.639                                  
 18  5 14 15  8 29.0010000  0  8G26G21G16S36G31G25G 5G20
  20877816.125     1668823.484                                  
  21421847.115     1704879.649                                  
  22173342.565     1052853.0173                                 
  38601049.144     2088617.0442                                 
  23220205.305     3234717.2543                                 
  24573801.637     3446099.868                                  
  24417317.045     2557194.1982                                 
  23986624.714      843049.029                                  
 18  5 14 15  8 30.0010000  0  8G26G21G16S36G31G25G 5G20
  20878718.197     1673562.691                                  
  21422766.829     1709712.590                                  
  22173930.647     1055952.6013                                 
  38602139.207     2094351.3462                                 
  23221877.969     3243496.3253                                 
  24575571.412     3455399.132                                  
  24418661.663     2564267.3723                                 
  23987100.259      845548.197                                  
 18  5 14 15  8 31.0010000  0  8G26G21G16S36G31G25G 5G20
  20879620.914     1678302.901                                  
  21423687.956     1714546.497                                  
  22174521.476     1059052.9063                                 
  38603230.473     2100086.2022                                 
  23223550.503     3252275.8973                                 
  24577340.664     3464698.959                                  
  24419998.376     2571341.4942                                 
  23987576.545      848048.037                                  
 18  5 14 15  8 32.0010000  0  8G26G21G16S36G31G25G 5G20
  20880523.719     1683047.031                                  
  21424608.760     1719384.327                                  
  22175114.155     1062156.8593                                 
  38604321.958     2105824.4192                                 
  23225217.671     3261059.2353                                 
  24579110.683     3474002.416                                  
  24421339.888     2578419.7412                                 
  23988053.171      850551.410                                  
 18  5 14 15  8 33.0010000  0  7G26G21G16S36G25G 5G20
  20881427.195     1687795.543                                  
  21425530.830     1724226.535                                  
  22175712.811     1065265.3153                                 
  38605414.674     2111566.5612                                 
  24580881.025     3483309.852                                  
  24422691.180     2585502.4132                                 
  23988530.129      853058.860                                  
 18  5 14 15  8 34.0010000  0  8G26G21G29G16S36G25G 5G20
  20882331.046     1692545.699                                  
  21426453.109     1729070.347                                  
  21975460.464     3032222.9153                                 
  22176300.037     1068375.0952                                 
  38606507.459     2117309.7812                                 
  24582652.266     3492618.591                                  
  24424040.902     2592586.8142                                 
  23989007.480      855567.573                                  
 18  5 14 15  8 35.0010000  0  8G26G21G29G16S36G25G 5G20
  20883234.828     1697297.088                                  
  21427375.335     1733915.419                                  
  21977007.051     3040365.4233                                 
  22176891.748     1071485.9202                                 
  38607601.055     2123053.6822                                 
  24584423.873     3501928.167                                  
  24425387.335     2599672.5652                                 
  23989485.188      858077.203                                  
 18  5 14 15  8 36.0010000  0  8G26G21G29G16S36G25G 5G20
  20884140.137     1702051.458                                  
  21428297.274     1738763.433                                  
  21978554.606     3048510.3563                                 
  22177489.409     1074599.4222                                 
  38608693.639     2128800.1342                                 
  24586195.829     3511240.353                                  
  24426735.321     2606761.3942                                 
  23989963.639      860589.436                                  
 18  5 14 15  8 37.0010000  0  8G26G21G29G16S36G25G 5G20
  20885046.265     1706810.458                                  
  21429220.678     1743616.057                                  
  21980101.393     3056660.0623                                 
  22178077.996     1077717.4422                                 
  38609787.986     2134550.7492                                 
  24587968.370     3520556.847                                  
  24428084.214     2613854.951                                  
  23990441.984      863105.974                                  
 18  5 14 15  8 38.0010000  0  8G26G21G29G16S36G25G 5G20
  20885952.350     1711572.446                                  
  21430144.789     1748471.665                                  
  21981651.749     3064812.2612                                 
  22178673.659     1080838.2952                                 
  38610882.150     2140303.8582                                 
  24589742.638     3529875.948                                  
  24429434.503     2620951.582                                  
  23990921.795      865625.164                                  
 18  5 14 15  8 39.0010000  0  8G26G21G29G16S36G25G 5G20
  20886859.116     1716336.553                                  
  21431069.311     1753329.372                                  
  21983205.220     3072966.3212                                 
  22179268.293     1083960.9772                                 
  38611977.212     2146058.5982                                 
  24591516.409     3539196.728                                  
  24430785.071     2628050.430                                  
  23991401.659      868146.128                                  
 18  5 14 15  8 40.0010000  0  9G26G21G29G16S36G31G25G 5G20
  20887766.458     1721103.208                                  
  21431993.867     1758189.619                                  
  21984751.702     3081122.6022                                 
  22179863.014     1087086.0662                                 
  38613072.867     2151815.3262                                 
  23238595.444     3331398.9623                                 
  24593290.110     3548519.789                                  
  24432136.686     2635151.918                                  
  23991882.683      870669.256                                  
 18  5 14 15  8 41.0010000  0  9G26G21G29G16S36G31G25G 5G20
  20888673.869     1725873.493                                  
  21432919.531     1763053.475                                  
  21986309.038     3089282.2592                                 
  22180458.162     1090214.5232                                 
  38614168.593     2157575.1822                                 
  23240276.859     3340206.5343                                 
  24595064.850     3557846.013                                  
  24433488.572     2642257.126                                  
  23992363.401      873195.684                                  
 18  5 14 15  8 42.0010000  0  9G26G21G29G16S36G31G25G 5G20
  20889582.022     1730646.683                                  
  21433845.431     1767920.192                                  
  21987862.831     3097444.4783                                 
  22181054.340     1093345.7232                                 
  38615265.095     2163337.4662                                 
  23241948.398     3349017.1973                                 
  24596839.999     3567174.872                                  
  24434841.060     2649365.329                                  
  23992843.910      875724.673                                  
 18  5 14 15  8 43.0010000  0  9G26G21G29G16S36G31G25G 5G20
  20890490.777     1735420.050                                  
  21434771.697     1772787.116                                  
  21989416.555     3105606.6213                                 
  22181650.858     1096476.442                                  
  38616362.373     2169099.4582                                 
  23243623.829     3357827.4052                                 
  24598615.088     3576503.467                                  
  24436192.571     2656473.762                                  
  23993325.606      878253.500                                  
 18  5 14 15  8 44.0010000  0  9G26G21G29G16S36G31G25G 5G20
  20891399.200     1740194.888                                  
  21435698.487     1777655.475                                  
  21990969.825     3113769.9452                                 
  22182247.385     1099608.903                                  
  38617458.753     2174862.3092                                 
  23245304.180     3366638.9172                                 
  24600390.587     3585833.131                                  
  24437545.094     2663583.761                                  
  23993806.883      880783.438                                  
 18  5 14 15  8 45.0010000  0  9G26G21G29G16S36G31G25G 5G20
  20892308.514     1744974.065                                  
  21436625.530     1782528.176                                  
  21992525.058     3121937.2932                                 
  22182844.794     1102745.473                                  
  38618556.398     2180629.0652                                 
  23246984.906     3375454.5113                                 
  24602166.391     3595166.861                                  
  24438899.614     2670698.265                                  
  23994288.570      883317.371                                  
 18  5 14 15  8 46.0010000  0  9G26G21G29G16S36G31G25G 5G20
  20893218.708     1749757.024                                  
  21437553.306     1787404.646                                  
  21994079.986     3130108.2572                                 
  22183441.739     1105885.683                                  
  38619654.208     2186399.0302                                 
  23248663.050     3384273.4943                                 
  24603943.617     3604503.912                                  
  24440254.388     2677816.598                                  
  23994771.051      885854.743                                  
 18  5 14 15  8 47.0010000  0  9G26G21G29G16S36G31G25G 5G20
  20894128.650     1754540.938                                  
  21438481.203     1792282.048                                  
  21995635.621     3138279.8102                                 
  22184039.488     1109026.684                                  
  38620752.333     2192169.4102                                 
  23250340.793     3393093.4383                                 
  24605720.660     3613841.606                                  
  24441609.319     2684935.953                                  
  23995254.370      888392.725                                  
 18  5 14 15  8 48.0010000  0  9G26G21G29G16S36G31G25G 5G20
  20895039.124     1759326.285                                  
  21439409.634     1797160.868                                  
  21997190.557     3146452.5182                                 
  22184636.879     1112168.865                                  
  38621850.597     2197940.7152                                 
  23252018.047     3401914.4533                                 
  24607497.676     3623180.346                                  
  24442964.180     2692056.829                                  
  23995737.200      890931.775                                  
 18  5 14 15  8 49.0010000  0  9G26G21G29G16S36G31G25G 5G20
  20895950.392     1764114.551                                  
  21440338.727     1802042.602                                  
  21998745.930     3154627.8502                                 
  22185235.159     1115313.809                                  
  38622948.783     2203714.5092                                 
  23253696.025     3410738.2843                                 
  24609274.911     3632521.636                                  
  24444319.041     2699180.785                                  
  23996221.199      893473.429                                  
 18  5 14 15  8 50.0010000  0  9G26G21G29G16S36G31G25G 5G20
  20896862.689     1768906.708                                  
  21441268.274     1806928.192                                  
  22000302.271     3162806.7992                                 
  22185833.937     1118462.499                                  
  38624048.068     2209491.6562                                 
  23255375.390     3419565.8903                                 
  24611053.621     3641866.481                                  
  24445675.124     2706308.645                                  
  23996705.364      896018.601                                  
 18  5 14 15  8 51.0010000  0  9G26G21G29G16S36G31G25G 5G20
  20897774.873     1773701.346                                  
  21442197.864     1811816.276                                  
  22001859.555     3170987.9262                                 
  22186433.126     1121613.336                                  
  38625147.668     2215270.7912                                 
  23257055.532     3428395.6893                                 
  24612831.606     3651213.392                                  
  24447031.634     2713439.069                                  
  23997190.323      898565.925                                  
 18  5 14 15  8 52.0010000  0  9G26G21G29G16S36G31G25G 5G20
  20898686.935     1778495.846                                  
  21443128.188     1816704.191                                  
  22003415.565     3179168.6082                                 
  22187032.820     1124763.932                                  
  38626247.162     2221049.2152                                 
  23258734.714     3437225.0462                                 
  24614610.324     3660559.772                                  
  24448388.118     2720569.487                                  
  23997674.916      901112.757                                  
 18  5 14 15  8 53.0010000  0  9G26G21G29G16S36G31G25G 5G20
  20899599.014     1783291.356                                  
  21444058.790     1821593.085                                  
  22004972.744     3187350.0762                                 
  22187632.078     1127915.346                                  
  38627346.430     2226828.1062                                 
  23260413.896     3446055.2153                                 
  24616388.519     3669906.793                                  
  24449744.803     2727700.989                                  
  23998159.866      903660.256                                  
 18  5 14 15  8 54.0010000  0  9G26G21G29G16S36G31G25G 5G20
  20900512.289     1788087.823                                  
  21444988.843     1826482.936                                  
  22006529.879     3195532.1572                                 
  22188231.292     1131067.461                                  
  38628445.820     2232607.4272                                 
  23262093.636     3454886.0883                                 
  24618167.376     3679254.458                                  
  24451102.203     2734833.510                                  
  23998644.520      906208.366                                  
 18  5 14 15  8 55.0010000  0  9G26G21G29G16S36G31G25G 5G20
  20901425.886     1792886.350                                  
  21445919.856     1831374.831                                  
  22008087.485     3203715.586                                  
  22188830.908     1134221.477                                  
  38629546.335     2238388.1312                                 
  23263774.389     3463718.8543                                 
  24619946.601     3688603.876                                  
  24452459.978     2741968.199                                  
  23999130.220      908758.212                                  
 18  5 14 15  8 56.0010000  0  8G26G21G29G16S36G25G 5G20
  20902338.995     1797687.449                                  
  21446851.139     1836269.265                                  
  22009645.502     3211901.772                                  
  22189430.916     1137377.855                                  
  38630647.043     2244170.8132                                 
  24621726.235     3697955.435                                  
  24453818.573     2749105.503                                  
  23999616.349      911310.246                                  
 18  5 14 15  8 57.0010000  0  8G26G21G29G16S36G25G 5G20
  20903252.662     1802489.627                                  
  21447783.330     1841164.786                                  
  22011203.824     3220088.720                                  
  22190031.683     1140535.090                                  
  38631747.061     2249954.0632                                 
  24623504.866     3707307.6233                                 
  24455177.343     2756243.995                                  
  24000102.215      913863.006                                  
 18  5 14 15  8 58.0010000  0  8G26G21G29G16S36G25G 5G20
  20904167.219     1807293.455                                  
  21448714.587     1846061.923                                  
  22012760.846     3228277.093                                  
  22190632.538     1143693.805                                  
  38632847.672     2255738.4292                                 
  24625285.346     3716660.9822                                 
  24456535.686     2763384.235                                  
  24000587.558      916417.119                                  
 18  5 14 15  8 59.0010000  0  8G26G21G29G16S36G25G 5G20
  20905081.201     1812097.806                                  
  21449646.123     1850959.581                                  
  22014319.290     3236465.643                                  
  22191233.733     1146852.880                                  
  38633948.860     2261522.8232                                 
  24627065.958     3726014.6382                                 
  24457894.621     2770525.111                                  
  24001073.363      918971.390                                  
 18  5 14 15  9  0.0010000  0  8G26G21G29G16S36G25G 5G20
  20905995.670     1816902.339                                  
  21450578.445     1855857.381                                  
  22015877.044     3244654.100                                  
  22191834.779     1150011.881                                  
  38635049.174     2267306.8172                                 
  24628846.028     3735368.1612                                 
  24459253.775     2777666.198                                  
  24001559.396      921525.446                                  
 18  5 14 15  9  1.0010000  0  8G26G21G29G16S36G25G 5G20
  20906909.783     1821708.428                                  
  21451511.080     1860756.749                                  
  22017435.070     3252843.843                                  
  22192436.114     1153172.308                                  
  38636149.594     2273091.8502                                 
  24630626.570     3744722.7782                                 
  24460612.659     2784808.965                                  
  24002045.463      924080.780                                  
 18  5 14 15  9  2.0010000  0  8G26G21G29G16S36G25G 5G20
  20907824.846     1826517.025                                  
  21452444.004     1865658.587                                  
  22018993.374     3261035.809                                  
  22193037.867     1156335.050                                  
  38637251.147     2278878.8672                                 
  24632407.225     3754079.5922                                 
  24461972.973     2791954.302                                  
  24002531.399      926638.241                                  
 18  5 14 15  9  3.0010000  0  8G26G21G29G16S36G25G 5G20
  20908740.057     1831327.805                                  
  21453377.006     1870562.610                                  
  22020552.804     3269229.695                                  
  22193640.345     1159499.739                                  
  38638352.527     2284667.4712                                 
  24634188.351     3763438.1522                                 
  24463333.601     2799101.892                                  
  24003018.469      929197.599                                  
 18  5 14 15  9  4.0010000  0  8G26G21G29G16S36G25G 5G20
  20909655.566     1836140.373                                  
  21454310.540     1875468.378                                  
  22022111.763     3277425.037                                  
  22194242.238     1162665.998                                  
  38639454.168     2290457.4162                                 
  24635969.705     3772798.1522                                 
  24464693.933     2806251.363                                  
  24003505.636      931758.307                                  
 18  5 14 15  9  5.0010000  0  8G26G21G29G16S36G25G 5G20
  20910571.597     1840954.455                                  
  21455244.528     1880375.665                                  
  22023670.774     3285621.654                                  
  22194844.488     1165833.668                                  
  38640556.315     2296248.3292                                 
  24637751.093     3782159.3352                                 
  24466055.268     2813402.470                                  
  24003993.483      934320.255                                  
 18  5 14 15  9  6.0010000  0  8G26G21G29G16S36G25G 5G20
  20911488.284     1845773.215                                  
  21456179.267     1885287.604                                  
  22025231.853     3293822.644                                  
  22195448.432     1169005.763                                  
  38641659.064     2302043.3712                                 
  24639533.126     3791524.7672                                 
  24467417.624     2820558.311                                  
  24004482.246      936886.504                                  
 18  5 14 15  9  7.0010000  0  9G26G21G29G16S36G31G25G 5G20
  20912406.182     1850596.017                                  
  21457114.729     1890203.576                                  
  22026793.037     3302027.379                                  
  22196052.122     1172181.709                                  
  38642762.109     2307842.0132                                 
  23283955.531     3569808.1633                                 
  24641316.547     3800893.967                                  
  24468780.861     2827718.286                                  
  24004971.210      939456.448                                  
 18  5 14 15  9  8.0010000  0  9G26G21G29G16S36G31G25G 5G20
  20913324.055     1855420.373                                  
  21458050.445     1895121.094                                  
  22028354.299     3310233.383                                  
  22196656.920     1175359.008                                  
  38643865.914     2313641.6612                                 
  23285638.805     3578663.8533                                 
  24643100.038     3810264.235                                  
  24470143.575     2834879.905                                  
  24005460.427      942027.618                                  
 18  5 14 15  9  9.0010000  0  9G26G21G29G16S36G31G25G 5G20
  20914242.390     1860246.400                                  
  21458986.693     1900040.263                                  
  22029915.998     3318440.810                                  
  22197261.570     1178537.830                                  
  38644969.693     2319442.4732                                 
  23287325.177     3587520.8193                                 
  24644884.087     3819635.857                                  
  24471507.117     2842043.289                                  
  24005949.469      944600.123                                  
 18  5 14 15  9 10.0010000  0  9G26G21G29G16S36G31G25G 5G20
  20915161.266     1865077.182                                  
  21459923.595     1904964.166                                  
  22031478.193     3326652.604                                  
  22197867.799     1181721.138                                  
  38646074.213     2325247.5242                                 
  23289015.998     3596382.4563                                 
  24646668.651     3829011.842                                  
  24472872.265     2849211.517                                  
  24006439.881      947177.010                                  
 18  5 14 15  9 11.0010000  0  9G26G21G29G16S36G31G25G 5G20
  20916080.980     1869912.869                                  
  21460861.369     1909892.949                                  
  22033042.344     3334869.142                                  
  22198474.954     1184909.226                                  
  38647179.833     2331056.7372                                 
  23290703.766     3605248.7563                                 
  24648454.480     3838392.388                                  
  24474237.850     2856384.734                                  
  24006930.895      949758.470                                  
 18  5 14 15  9 12.0010000  0  9G26G21G29G16S36G31G25G 5G20
  20917001.785     1874750.314                                  
  21461799.851     1914823.484                                  
  22034606.668     3343087.064                                  
  22199082.186     1188098.873                                  
  38648285.618     2336867.1292                                 
  23292391.786     3614116.5503                                 
  24650240.449     3847774.331                                  
  24475604.123     2863559.798                                  
  24007422.276      952341.332                                  
 18  5 14 15  9 13.0010000  0  9G26G21G29G16S36G31G25G 5G20
  20917922.982     1879589.219                                  
  21462738.594     1919755.461                                  
  22036170.819     3351306.121                                  
  22199690.475     1191289.732                                  
  38649391.212     2342678.4362                                 
  23294078.760     3622985.6432                                 
  24652026.095     3857157.318                                  
  24476970.170     2870736.392                                  
  24007913.770      954925.329                                  
 18  5 14 15  9 14.0010000  0  9G26G21G29G16S36G31G25G 5G20
  20918844.039     1884431.692                                  
  21463677.948     1924690.978                                  
  22037735.213     3359528.568                                  
  22200299.051     1194484.048                                  
  38650497.372     2348492.8282                                 
  23295766.955     3631858.0472                                 
  24653812.866     3866543.512                                  
  24478336.103     2877916.671                                  
  24008405.674      957512.530                                  
 18  5 14 15  9 15.0010000  0  9G26G21G29G16S36G31G25G 5G20
  20919766.196     1889278.582                                  
  21464617.738     1929630.921                                  
  22039301.161     3367755.121                                  
  22200908.133     1197682.564                                  
  38651604.658     2354311.0822                                 
  23297456.616     3640734.6452                                 
  24655600.371     3875933.771                                  
  24479703.354     2885101.421                                  
  24008899.254      960103.813                                  
 18  5 14 15  9 16.0010000  0  9G26G21G29G16S36G31G25G 5G20
  20920689.330     1894128.845                                  
  21465558.165     1934574.196                                  
  22040866.838     3375984.735                                  
  22201517.687     1200884.256                                  
  38652712.861     2360132.2842                                 
  23299146.748     3649614.4132                                 
  24657388.285     3885326.990                                  
  24481070.988     2892289.630                                  
  24009392.990      962698.119                                  
 18  5 14 15  9 17.0010000  0  9G26G21G29G16S36G31G25G 5G20
  20921612.656     1898981.965                                  
  21466499.631     1939520.304                                  
  22042433.562     3384216.963                                  
  22202127.869     1204088.553                                  
  38653821.255     2365955.7122                                 
  23300837.701     3658496.7553                                 
  24659176.871     3894722.6713                                 
  24482439.504     2899480.778                                  
  24009886.980      965294.933                                  
 18  5 14 15  9 18.0010000  0  9G26G21G29G16S36G31G25G 5G20
  20922536.575     1903838.481                                  
  21467441.471     1944469.791                                  
  22044000.984     3392452.225                                  
  22202737.972     1207296.099                                  
  38654929.422     2371782.0302                                 
  23302529.098     3667382.3362                                 
  24660965.719     3904121.4362                                 
  24483808.509     2906675.419                                  
  24010381.336      967894.780                                  
 18  5 14 15  9 19.0010000  0  9G26G21G29G16S36G31G25G 5G20
  20923461.515     1908699.523                                  
  21468383.897     1949423.792                                  
  22045569.105     3400691.702                                  
  22203349.428     1210507.975                                  
  38656039.073     2377612.3382                                 
  23304220.888     3676272.2032                                 
  24662755.274     3913524.3542                                 
  24485178.264     2913874.678                                  
  24010876.529      970498.833                                  
 18  5 14 15  9 20.0010000  0  9G26G21G29G16S36G31G25G 5G20
  20924387.066     1913564.338                                  
  21469327.142     1954381.558                                  
  22047137.356     3408934.715                                  
  22203962.271     1213723.462                                  
  38657149.500     2383445.9472                                 
  23305914.030     3685165.5692                                 
  24664544.855     3922930.6322                                 
  24486548.760     2921077.772                                  
  24011372.874      973106.309                                  
 18  5 14 15  9 21.0010000  0  9G26G21G29G16S36G31G25G 5G20
  20925313.000     1918430.861                                  
  21470271.190     1959341.008                                  
  22048706.314     3417179.207                                  
  22204574.285     1216940.429                                  
  38658260.154     2389280.7102                                 
  23307606.841     3694060.4952                                 
  24666335.160     3932338.2952                                 
  24487919.318     2928282.678                                  
  24011869.202      975715.187                                  
 18  5 14 15  9 22.0010000  0  9G26G21G29G16S36G31G25G 5G20
  20926240.593     1923300.105                                  
  21471215.744     1964303.154                                  
  22050275.856     3425426.060                                  
  22205186.491     1220159.908                                  
  38659370.468     2395117.6182                                 
  23309300.288     3702957.8562                                 
  24668126.032     3941748.2272                                 
  24489291.193     2935490.349                                  
  24012366.254      978326.378                                  
 18  5 14 15  9 23.0010000  0  9G26G21G29G16S36G31G25G 5G20
  20927168.386     1928173.892                                  
  21472161.206     1969269.840                                  
  22051845.773     3433677.225                                  
  22205799.046     1223383.708                                  
  38660481.994     2400958.6272                                 
  23310994.853     3711859.5392                                 
  24669917.969     3951162.3822                                 
  24490664.097     2942702.741                                  
  24012863.900      980941.812                                  
 18  5 14 15  9 24.0010000  0  9G26G21G29G16S36G31G25G 5G20
  20928096.842     1933051.235                                  
  21473106.877     1974240.056                                  
  22053416.886     3441931.582                                  
  22206413.119     1226611.3893                                 
  38661593.939     2406802.6312                                 
  23312688.571     3720764.5452                                 
  24671710.272     3960579.7022                                 
  24492038.546     2949918.660                                  
  24013361.379      983560.442                                  
 18  5 14 15  9 25.0010000  0  9G26G21G29G16S36G31G25G 5G20
  20929024.932     1937930.871                                  
  21474052.844     1979212.538                                  
  22054987.484     3450187.997                                  
  22207028.213     1229840.7302                                 
  38662706.705     2412648.3992                                 
  23314383.135     3729671.083                                  
  24673502.994     3969998.958                                  
  24493411.303     2957137.022                                  
  24013859.574      986180.993                                  
 18  5 14 15  9 26.0010000  0  9G26G21G29G16S36G31G25G 5G20
  20929954.235     1942811.980                                  
  21474999.405     1984186.493                                  
  22056559.173     3458445.537                                  
  22207643.211     1233071.2902                                 
  38663819.785     2418495.1012                                 
  23316079.314     3738579.458                                  
  24675296.196     3979419.297                                  
  24494784.678     2964356.922                                  
  24014358.293      988802.703                                  
 18  5 14 15  9 27.0010000  0  9G26G21G29G16S36G31G25G 5G20
  20930884.497     1947696.897                                  
  21475946.690     1989164.227                                  
  22058130.810     3466706.646                                  
  22208258.200     1236305.4553                                 
  38664932.995     2424345.0462                                 
  23317776.383     3747491.316                                  
  24677089.328     3988843.066                                  
  24496159.232     2971580.703                                  
  24014858.363      991427.894                                  
 18  5 14 15  9 28.0010000  0  9G26G21G29G16S36G31G25G 5G20
  20931814.751     1952585.628                                  
  21476894.673     1994145.771                                  
  22059703.781     3474971.354                                  
  22208874.446     1239543.3362                                 
  38666046.869     2430198.3292                                 
  23319473.783     3756406.846                                  
  24678883.437     3998270.237                                  
  24497533.690     2978808.392                                  
  24015358.094      994056.518                                  
 18  5 14 15  9 29.0010000  0  9G26G21G29G16S36G31G25G 5G20
  20932746.130     1957476.637                                  
  21477842.604     1999129.573                                  
  22061277.032     3483237.922                                  
  22209490.639     1242783.3113                                 
  38667161.013     2436053.3672                                 
  23321171.637     3765324.336                                  
  24680677.311     4007699.373                                  
  24498908.566     2986038.451                                  
  24015858.444      996687.106                                  
 18  5 14 15  9 30.0010000  0  9G26G21G29G16S36G31G25G 5G20
  20933677.038     1962369.233                                  
  21478791.512     2004114.945                                  
  22062851.181     3491505.830                                  
  22210107.086     1246024.5623                                 
  38668275.488     2441909.5062                                 
  23322869.482     3774243.252                                  
  24682470.923     4017129.728                                  
  24500284.333     2993270.149                                  
  24016359.580      999318.901                                  
 18  5 14 15  9 31.0010000  0  9G26G21G29G16S36G31G25G 5G20
  20934609.115     1967265.121                                  
  21479741.292     2009103.574                                  
  22064425.653     3499776.729                                  
  22210724.492     1249268.9073                                 
  38669390.173     2447768.3822                                 
  23324568.618     3783165.213                                  
  24684266.166     4026562.931                                  
  24501659.610     3000505.235                                  
  24016860.933     1001953.657                                  
 18  5 14 15  9 32.0010000  0  9G26G21G29G16S36G31G25G 5G20
  20935541.821     1972164.930                                  
  21480691.282     2014096.124                                  
  22066001.189     3508051.281                                  
  22211342.029     1252516.9933                                 
  38670506.193     2453630.7062                                 
  23326268.583     3792090.874                                  
  24686061.445     4035999.7083                                 
  24503035.482     3007744.368                                  
  24017363.429     1004592.018                                  
 18  5 14 15  9 33.0010000  0  8G26G21G29S36G31G25G 5G20
  20936475.285     1977068.255                                  
  21481642.136     2019092.169                                  
  22067577.459     3516329.098                                  
  38671621.916     2459495.9772                                 
  23327969.421     3801019.860                                  
  24687856.653     4045439.6143                                 
  24504413.333     3014987.006                                  
  24017866.144     1007233.512                                  
 18  5 14 15  9 34.0010000  0  8G26G21G29S36G31G25G 5G20
  20937408.488     1981974.023                                  
  21482593.295     2024090.639                                  
  22069154.365     3524609.043                                  
  38672738.346     2465363.1412                                 
  23329670.329     3809951.5293                                 
  24689652.150     4054881.6752                                 
  24505791.307     3022232.230                                  
  24018368.614     1009877.123                                  
 18  5 14 15  9 35.0010000  0  7G26G21G29S36G25G 5G20
  20938342.720     1986883.404                                  
  21483544.637     2029092.702                                  
  22070731.228     3532892.306                                  
  38673855.911     2471233.3692                                 
  24691448.580     4064326.8912                                 
  24507170.799     3029481.160                                  
  24018872.140     1012524.000                                  
 18  5 14 15  9 36.0010000  0  7G26G21G29S36G25G 5G20
  20939277.398     1991796.149                                  
  21484497.018     2034098.123                                  
  22072308.265     3541178.590                                  
  38674973.475     2477106.4472                                 
  24693245.062     4073775.1082                                 
  24508551.783     3036733.527                                  
  24019377.106     1015173.905                                  
 18  5 14 15  9 37.0010000  0  7G26G21G29S36G25G 5G20
  20940212.834     1996711.852                                  
  21485450.218     2039106.477                                  
  22073885.285     3549467.638                                  
  38676091.659     2482981.9212                                 
  24695042.452     4083225.8373                                 
  24509932.506     3043988.925                                  
  24019881.426     1017826.428                                  
 18  5 14 15  9 38.0010000  0  8G26G21G29S36G31G25G 5G20
  20941148.881     2001629.186                                  
  21486403.140     2044116.448                                  
  22075463.736     3557757.925                                  
  38677210.157     2488858.5302                                 
  23336475.129     3845705.9042                                 
  24696839.868     4092677.8852                                 
  24511313.280     3051246.071                                  
  24020386.479     1020480.215                                  
 18  5 14 15  9 39.0010000  0  9G26G21G29G16S36G31G25G 5G20
  20942085.382     2006548.458                                  
  21487356.838     2049128.335                                  
  22077041.759     3566049.924                                  
  22215685.466     1275327.9883                                 
  38678328.454     2494736.5392                                 
  23338176.403     3854649.4253                                 
  24698636.996     4102131.5343                                 
  24512695.111     3058505.191                                  
  24020891.619     1023135.618                                  
 18  5 14 15  9 40.0010000  0  8G26G21G29G16S36G25G 5G20
  20943022.293     2011471.411                                  
  21488311.626     2054143.882                                  
  22078619.826     3574345.263                                  
  22216305.656     1278597.6853                                 
  38679447.789     2500617.6952                                 
  24700435.660     4111588.4682                                 
  24514077.264     3065768.110                                  
  24021398.216     1025794.350                                  
 18  5 14 15  9 41.0010000  0  8G26G21G29G16S36G25G 5G20
  20943958.977     2016398.134                                  
  21489267.104     2059163.180                                  
  22080198.861     3582644.140                                  
  22216936.909     1281871.1953                                 
  38680567.361     2506502.0432                                 
  24702236.313     4121048.8073                                 
  24515460.237     3073034.847                                  
  24021904.159     1028456.495                                  
 18  5 14 15  9 42.0010000  0  8G26G21G29G16S36G25G 5G20
  20944896.437     2021325.367                                  
  21490222.015     2064182.975                                  
  22081777.704     3590943.202                                  
  22217560.318     1285144.8253                                 
  38681686.713     2512386.3822                                 
  24704036.085     4130509.2543                                 
  24516843.333     3080302.232                                  
  24022410.905     1031118.808                                  
 18  5 14 15  9 43.0010000  0  8G26G21G29G16S36G25G 5G20
  20945834.867     2026253.469                                  
  21491177.319     2069203.625                                  
  22083358.048     3599242.882                                  
  22218180.211     1288419.1453                                 
  38682806.564     2518271.0382                                 
  24705836.049     4139970.2143                                 
  24518227.231     3087570.575                                  
  24022917.389     1033781.669                                  
 18  5 14 15  9 44.0010000  0  8G26G21G29G16S36G31G 5G20
  20946773.139     2031184.476                                  
  21492133.468     2074227.147                                  
  22084937.965     3607545.143                                  
  22218806.927     1291696.0762                                 
  38683926.597     2524158.0652                                 
  23346688.017     3899402.4953                                 
  24519611.766     3094841.886                                  
  24023424.719     1036447.071                                  
 18  5 14 15  9 45.0010000  0  7G26G21G29S36G31G 5G20
  20947712.397     2036119.174                                  
  21493089.199     2079254.363                                  
  22086518.571     3615850.818                                  
  38685047.407     2530048.3142                                 
  23348393.208     3908360.0663                                 
  24520996.528     3102116.956                                  
  24023932.451     1039115.835                                  
 18  5 14 15  9 46.0010000  0  7G26G21G29S36G31G 5G20
  20948652.161     2041055.596                                  
  21494046.841     2084283.254                                  
  22088099.473     3624157.893                                  
  38686168.662     2535939.7942                                 
  23350102.545     3917319.2523                                 
  24522382.058     3109393.820                                  
  24024440.636     1041785.953                                  
 18  5 14 15  9 47.0010000  0  7G26G21G29S36G31G 5G20
  20949591.811     2045994.403                                  
  21495003.881     2089314.530                                  
  22089681.030     3632467.080                                  
  38687290.467     2541833.1352                                 
  23351805.825     3926280.3962                                 
  24523767.282     3116673.187                                  
  24024949.187     1044458.141                                  
 18  5 14 15  9 48.0010000  0  7G26G21G29S36G31G 5G20
  20950532.526     2050936.974                                  
  21495962.020     2094349.547                                  
  22091263.564     3640779.752                                  
  38688412.307     2547729.6832                                 
  23353511.497     3935245.1393                                 
  24525153.379     3123956.367                                  
  24025458.036     1047133.748                                  
 18  5 14 15  9 49.0010000  0  7G26G21G29S36G31G 5G20
  20951473.302     2055883.561                                  
  21496920.779     2099388.559                                  
  22092845.435     3649096.153                                  
  38689535.481     2553629.7722                                 
  23355217.718     3944213.6233                                 
  24526540.122     3131243.690                                  
  24025968.429     1049813.026                                  
 18  5 14 15  9 50.0010000  0  6G26G21G29S36G 5G20
  20952414.838     2060833.658                                  
  21497880.235     2104431.065                                  
  22094428.292     3657415.775                                  
  38690658.804     2559532.9312                                 
  24527928.304     3138534.563                                  
  24026478.655     1052495.471                                  
 18  5 14 15  9 51.0010000  0  6G26G21G29S36G 5G20
  20953357.289     2065785.592                                  
  21498840.416     2109475.387                                  
  22096010.809     3665736.929                                  
  38691782.633     2565437.4822                                 
  24529316.382     3145827.344                                  
  24026989.388     1055179.403                                  
 18  5 14 15  9 52.0010000  0  6G26G21G29S36G 5G20
  20954300.508     2070740.571                                  
  21499800.928     2114522.739                                  
  22097594.180     3674060.856                                  
  38692906.270     2571344.7162                                 
  24530704.093     3153123.279                                  
  24027500.959     1057866.039                                  
 18  5 14 15  9 53.0010000  0  6G26G21G29S36G 5G20
  20955244.294     2075699.229                                  
  21500762.112     2119573.750                                  
  22099177.953     3682388.147                                  
  38694030.832     2577255.1542                                 
  24532092.415     3160422.973                                  
  24028012.896     1060556.008                                  
 18  5 14 15  9 54.0010000  0  6G26G21G29S36G 5G20
  20956188.168     2080661.377                                  
  21501724.091     2124628.247                                  
  22100762.678     3690718.673                                  
  38695156.327     2583168.5312                                 
  24533481.740     3167726.216                                  
  24028524.955     1063249.148                                  
 18  5 14 15  9 55.0010000  0  6G26G21G29S36G 5G20
  20957132.329     2085624.860                                  
  21502686.357     2129684.037                                  
  22102347.463     3699050.233                                  
  38696282.154     2589082.6912                                 
  24534871.214     3175030.870                                  
  24029037.433     1065943.242                                  
 18  5 14 15  9 56.0010000  0  7G26G21G29S36G25G 5G20
  20958077.477     2090590.271                                  
  21503648.823     2134741.767                                  
  22103932.265     3707383.464                                  
  38697407.807     2594998.2462                                 
  24729282.938     4263205.1573                                 
  24536262.057     3182337.578                                  
  24029549.990     1068638.938                                  
 18  5 14 15  9 57.0010000  0  6G26G21G29S36G 5G20
  20959023.523     2095559.945                                  
  21504611.622     2139803.720                                  
  22105518.944     3715720.599                                  
  38698534.157     2600917.5292                                 
  24537653.389     3189648.571                                  
  24030064.666     1071338.572                                  
 18  5 14 15  9 58.0010000  0  6G26G21G29S36G 5G20
  20959969.464     2100533.147                                  
  21505575.136     2144869.175                                  
  22107105.692     3724060.994                                  
  38699661.336     2606839.7842                                 
  24539044.416     3196963.195                                  
  24030578.392     1074041.378                                  
 18  5 14 15  9 59.0010000  0  6G26G21G29S36G 5G20
  20960915.668     2105507.939                                  
  21506538.902     2149936.218                                  
  22108692.458     3732402.699                                  
  38700788.324     2612763.1902                                 
  24540436.917     3204279.508                                  
  24031092.676     1076745.433                                  
 18  5 14 15 10  0.0010000  0  6G26G21G29S36G 5G20
  20961862.848     2110484.932                                  
  21507503.568     2155005.449                                  
  22110279.372     3740746.294                                  
  38701915.774     2618688.3112                                 
  24541829.619     3211598.084                                  
  24031607.039     1079451.319                                  
 18  5 14 15 10  1.0010000  0  6G26G21G29S36G 5G20
  20962811.058     2115464.987                                  
  21508469.045     2160077.712                                  
  22111867.429     3749092.686                                  
  38703043.756     2624616.0192                                 
  24543221.762     3218919.794                                  
  24032122.396     1082159.970                                  
 18  5 14 15 10  2.0010000  0  7G26G21G29S36G31G 5G20
  20963758.893     2120448.561                                  
  21509435.237     2165153.466                                  
  22113455.216     3757442.287                                  
  38704171.973     2630546.6672                                 
  23377446.678     4060998.2003                                 
  24544614.735     3226245.098                                  
  24032638.984     1084871.774                                  
 18  5 14 15 10  3.0010000  0  8G26G21G29S36G31G25G 5G20
  20964706.963     2125433.810                                  
  21510401.796     2170230.887                                  
  22115043.700     3765793.273                                  
  38705300.235     2636478.4322                                 
  23379161.406     4070002.1383                                 
  24741956.900     4329732.8773                                 
  24546009.051     3233572.184                                  
  24033155.318     1087584.898                                  
 18  5 14 15 10  4.0010000  0  8G26G21G29S36G31G25G 5G20
  20965656.403     2130420.500                                  
  21511368.346     2175309.717                                  
  22116632.848     3774145.436                                  
  38706429.299     2642411.0842                                 
  23380876.108     4079007.0573                                 
  24743766.235     4339244.3803                                 
  24547404.030     3240900.757                                  
  24033672.673     1090299.133                                  
 18  5 14 15 10  5.0010000  0  8G26G21G29S36G31G25G 5G20
  20966605.712     2135409.724                                  
  21512335.586     2180391.065                                  
  22118222.990     3782499.809                                  
  38707559.174     2648345.7542                                 
  23382584.668     4088014.5063                                 
  24745578.213     4348758.2263                                 
  24548799.027     3248231.970                                  
  24034189.331     1093015.572                                  
 18  5 14 15 10  6.0010000  0  7G26G21G29S36G31G 5G20
  20967555.816     2140402.257                                  
  21513303.130     2185475.711                                  
  22119813.778     3790857.182                                  
  38708688.578     2654283.2252                                 
  23384304.718     4097025.0313                                 
  24550194.049     3255566.619                                  
  24034707.070     1095734.981                                  
 18  5 14 15 10  7.0010000  0  7G26G21G29S36G31G 5G20
  20968506.277     2145397.209                                  
  21514270.614     2190562.755                                  
  22121404.706     3799216.750                                  
  38709818.244     2660222.5642                                 
  23386022.980     4106037.7222                                 
  24551589.822     3262903.677                                  
  24035224.652     1098456.449                                  
 18  5 14 15 10  8.0010000  0  7G26G21G29S36G31G 5G20
  20969456.459     2150393.585                                  
  21515238.604     2195651.218                                  
  22122995.703     3807577.365                                  
  38710948.879     2666162.8382                                 
  23387739.340     4115051.5743                                 
  24552985.613     3270242.282                                  
  24035743.081     1101179.015                                  
 18  5 14 15 10  9.0010000  0  7G26G21G29S36G25G 5G20
  20970407.696     2155392.069                                  
  21516207.405     2200741.734                                  
  22124587.076     3815939.859                                  
  38712079.313     2672104.7202                                 
  24752828.840     4386836.5183                                 
  24554381.255     3277583.083                                  
  24036261.736     1103903.316                                  
 18  5 14 15 10 10.0010000  0  8G26G21G29S36G31G25G 5G20
  20971359.309     2160394.038                                  
  21517177.131     2205835.746                                  
  22126179.208     3824305.540                                  
  38713210.645     2678049.5392                                 
  23391172.627     4133086.3232                                 
  24754636.891     4396360.9843                                 
  24555778.389     3284927.470                                  
  24036780.714     1106630.798                                  
 18  5 14 15 10 11.0010000  0  8G26G21G29S36G31G25G 5G20
  20972311.480     2165399.025                                  
  21518147.250     2210932.740                                  
  22127771.906     3832673.930                                  
  38714342.109     2683996.8482                                 
  23392888.079     4142108.1253                                 
  24756449.611     4405888.4303                                 
  24557175.847     3292274.863                                  
  24037299.108     1109360.950                                  
 18  5 14 15 10 12.0010000  0  8G26G21G29S36G31G25G 5G20
  20973264.175     2170404.994                                  
  21519117.621     2216030.726                                  
  22129364.326     3841043.013                                  
  38715473.947     2689944.5492                                 
  23394604.273     4151130.6512                                 
  24758260.857     4415416.2523                                 
  24558573.600     3299623.368                                  
  24037819.273     1112091.732                                  
 18  5 14 15 10 13.0010000  0  6G26G21G29S36G 5G20
  20974217.689     2175412.298                                  
  21520088.386     2221129.974                                  
  22130957.356     3849413.079                                  
  38716606.492     2695893.0312                                 
  24559972.183     3306973.306                                  
  24038339.507     1114823.491                                  
 18  5 14 15 10 14.0010000  0  7G26G21G29S36G25G 5G20
  20975171.414     2180423.653                                  
  21521059.447     2226233.293                                  
  22132550.980     3857787.027                                  
  38717739.204     2701845.0762                                 
  24761883.304     4434477.4703                                 
  24561371.446     3314327.354                                  
  24038860.562     1117558.969                                  
 18  5 14 15 10 15.0010000  0  7G26G21G29S36G31G 5G20
  20976125.539     2185438.942                                  
  21522031.075     2231340.517                                  
  22134144.342     3866164.547                                  
  38718872.429     2707800.4432                                 
  23399759.800     4178209.7233                                 
  24562770.421     3321685.397                                  
  24039381.059     1120298.067                                  
 18  5 14 15 10 16.0010000  0  7G26G21G29S36G31G 5G20
  20977080.197     2190456.507                                  
  21523003.663     2236450.009                                  
  22135737.974     3874544.005                                  
  38720006.231     2713757.5272                                 
  23401480.348     4187243.0663                                 
  24564169.972     3329045.812                                  
  24039902.445     1123039.058                                  
 18  5 14 15 10 17.0010000  0  7G26G21G29S36G31G 5G20
  20978035.064     2195475.298                                  
  21523975.893     2241560.654                                  
  22137331.956     3882924.503                                  
  38721140.225     2719715.3032                                 
  23403197.641     4196277.1743                                 
  24565570.902     3336407.583                                  
  24040424.424     1125780.969                                  
 18  5 14 15 10 18.0010000  0  7G26G21G29S36G31G 5G20
  20978990.682     2200496.953                                  
  21524948.568     2246674.211                                  
  22138926.949     3891307.517                                  
  38722274.227     2725675.4422                                 
  23404911.785     4205313.9523                                 
  24566972.006     3343772.228                                  
  24040947.207     1128525.397                                  
 18  5 14 15 10 19.0000000  0  7G26G21G29S36G31G 5G20
  20680153.652     2205521.948                                  
  21226129.015     2251791.079                                  
  21840730.020     3899693.556                                  
  38423615.557     2731638.3952                                 
  23106839.328     4214353.9172                                 
  24268581.458     3351140.294                                  
  23741677.674     1131272.811                                  
 18  5 14 15 10 20.0000000  0  7G26G21G29S36G31G 5G20
  20681110.552     2210549.685                                  
  21227103.610     2256910.668                                  
  21842327.099     3908082.059                                  
  38424750.615     2737603.5082                                 
  23108560.879     4223396.4082                                 
  24269981.454     3358511.1593                                 
  23742200.753     1134022.647                                  
 18  5 14 15 10 21.0000000  0  7G26G21G29G16S36G 5G20
  20682067.775     2215578.160                                  
  21228078.946     2262030.981                                  
  21843922.084     3916471.067                                  
  21942441.136     1414742.6983                                 
  38425886.702     2743568.7542                                 
  24271383.631     3365882.5453                                 
  23742724.879     1136772.836                                  
 18  5 14 15 10 22.0000000  0  6G26G21G29S36G 5G20
  20683025.452     2220608.226                                  
  21229053.165     2267152.842                                  
  21845518.028     3924861.347                                  
  38427021.499     2749534.9992                                 
  24272786.201     3373255.8313                                 
  23743248.272     1139524.312                                  
 18  5 14 15 10 23.0000000  0  6G26G21G29S36G 5G20
  20683982.963     2225640.154                                  
  21230027.786     2272276.573                                  
  21847114.706     3933253.113                                  
  38428156.766     2755502.6832                                 
  24274187.236     3380631.2633                                 
  23743772.773     1142277.328                                  
 18  5 14 15 10 24.0000000  0  6G26G21G29S36G 5G20
  20684941.390     2230673.676                                  
  21231002.686     2277401.870                                  
  21848711.724     3941646.262                                  
  38429292.287     2761471.2912                                 
  24275587.773     3388008.1703                                 
  23744296.419     1145031.566                                  
 18  5 14 15 10 25.0000000  0  5G26G21G29S36G20
  20685899.136     2235708.577                                  
  21231978.537     2282528.520                                  
  21850309.291     3950040.470                                  
  38430428.235     2767440.7002                                 
  23744820.763     1147786.818                                  
 18  5 14 15 10 26.0000000  0  6G26G21G29S36G 5G20
  20686857.790     2240744.251                                  
  21232954.231     2287655.935                                  
  21851906.396     3958435.131                                  
  38431563.921     2773410.3002                                 
  24278397.153     3402766.0613                                 
  23745345.073     1150542.553                                  
 18  5 14 15 10 27.0010000  0  7G26G21G29S36G31G 5G20
  20687816.750     2245786.242                                  
  21233931.261     2292789.736                                  
  21853506.005     3966839.177                                  
  38432701.405     2779386.6132                                 
  23120621.938     4286730.0273                                 
  24279799.592     3410154.0462                                 
  23745870.324     1153301.956                                  
 18  5 14 15 10 28.0010000  0  6G26G21G29S36G 5G20
  20688775.761     2250824.902                                  
  21234907.461     2297920.081                                  
  21855104.070     3975236.259                                  
  38433837.903     2785358.0712                                 
  24281207.040     3417536.4502                                 
  23746394.337     1156059.994                                  
 18  5 14 15 10 29.0010000  0  6G26G21G29S36G 5G20
  20689734.686     2255864.994                                  
  21235884.411     2303051.848                                  
  21856701.655     3983634.487                                  
  38434974.226     2791330.4102                                 
  24282609.732     3424920.3752                                 
  23746919.405     1158819.102                                  
 18  5 14 15 10 30.0010000  0  5G26G21G29S36G20
  20690694.526     2260907.761                                  
  21236861.152     2308186.265                                  
  21858299.484     3992035.073                                  
  38436110.907     2797304.8862                                 
  23747444.343     1161580.551                                  
 18  5 14 15 10 31.0010000  0  5G26G21G29S36G20
  20691654.428     2265953.146                                  
  21237838.731     2313323.282                                  
  21859898.256     4000438.020                                  
  38437248.740     2803281.5082                                 
  23747969.891     1164344.245                                  
 18  5 14 15 10 32.0010000  0  5G26G21G29S36G20
  20692615.036     2271000.486                                  
  21238815.987     2318462.234                                  
  21861496.792     4008842.612                                  
  38438386.407     2809259.4882                                 
  23748496.765     1167109.576                                  
 18  5 14 15 10 33.0010000  0  6G26G21G29G16S36G20
  20693575.802     2276049.617                                  
  21239794.036     2323602.941                                  
  21863096.130     4017248.638                                  
  21950135.286     1455262.7003                                 
  38439524.248     2815238.6612                                 
  23749022.759     1169876.359                                  
 18  5 14 15 10 34.0010000  0  5G26G21G29S36G20
  20694537.562     2281100.084                                  
  21240772.156     2328744.988                                  
  21864696.167     4025655.797                                  
  38440661.723     2821218.6632                                 
  23749549.415     1172644.150                                  
 18  5 14 15 10 35.0010000  0  5G26G21G29S36G20
  20695499.601     2286152.841                                  
  21241750.869     2333889.295                                  
  21866296.308     4034064.959                                  
  38441800.821     2827200.3822                                 
  23750076.647     1175413.854                                  
 18  5 14 15 10 36.0010000  0  6G26G21G29S36G31G20
  20696460.872     2291207.853                                  
  21242730.297     2339035.824                                  
  21867896.301     4042475.992                                  
  38442939.404     2833183.7892                                 
  23136126.997     4368237.4213                                 
  23750604.394     1178185.506                                  
 18  5 14 15 10 37.0010000  0  6G26G21G29S36G31G20
  20697422.336     2296264.423                                  
  21243709.499     2344183.927                                  
  21869498.624     4050888.357                                  
  38444077.830     2839168.2452                                 
  23137856.794     4377304.7973                                 
  23751131.966     1180958.392                                  
 18  5 14 15 10 38.0010000  0  6G26G21G29S36G31G20
  20698385.003     2301322.086                                  
  21244689.520     2349333.050                                  
  21871098.852     4059301.503                                  
  38445217.225     2845153.2792                                 
  23139584.706     4386372.7552                                 
  23751659.739     1183731.972                                  
 18  5 14 15 10 39.0010000  0  5G26G21G29S36G20
  20699348.491     2306381.307                                  
  21245669.289     2354483.728                                  
  21872699.116     4067715.942                                  
  38446356.096     2851139.3702                                 
  23752187.748     1186506.842                                  
 18  5 14 15 10 40.0010000  0  5G26G21G29S36G20
  20700311.184     2311441.764                                  
  21246650.087     2359635.631                                  
  21874299.990     4076131.242                                  
  38447495.281     2857126.2342                                 
  23752717.101     1189282.511                                  
 18  5 14 15 10 41.0010000  0  5G26G21G29S36G20
  20701274.471     2316505.447                                  
  21247631.121     2364790.738                                  
  21875901.824     4084549.510                                  
  38448634.885     2863115.8932                                 
  23753245.624     1192061.151                                  
 18  5 14 15 10 42.0010000  0  5G26G21G29S36G20
  20702238.849     2321571.799                                  
  21248612.949     2369948.488                                  
  21877504.173     4092970.237                                  
  38449774.733     2869107.7782                                 
  23753775.299     1194842.112                                  
 18  5 14 15 10 43.0010000  0  5G26G21G29S36G20
  20703203.252     2326641.064                                  
  21249594.820     2375109.141                                  
  21879107.115     4101393.480                                  
  38450915.646     2875102.0762                                 
  23754304.948     1197625.606                                  
 18  5 14 15 10 44.0010000  0  5G26G21G29S36G20
  20704168.529     2331712.374                                  
  21250578.035     2380271.792                                  
  21880709.586     4109818.530                                  
  38452057.885     2881097.8852                                 
  23754835.348     1200410.835                                  
 18  5 14 15 10 45.0010000  0  5G26G21G29S36G20
  20705133.770     2336784.426                                  
  21251561.259     2385435.172                                  
  21882312.484     4118243.972                                  
  38453199.024     2887093.8522                                 
  23755364.665     1203196.452                                  
 18  5 14 15 10 46.0010000  0  6G26G21G29S36G31G20
  20706099.491     2341857.782                                  
  21252543.863     2390599.850                                  
  21883916.116     4126670.449                                  
  38454340.722     2893090.5822                                 
  23153396.806     4458977.3613                                 
  23755894.995     1205983.048                                  
 18  5 14 15 10 47.0010000  0  6G26G21G29S36G31G20
  20707065.265     2346934.548                                  
  21253527.131     2395767.889                                  
  21885519.817     4135100.006                                  
  38455482.080     2899090.1592                                 
  23155128.880     4468062.3313                                 
  23756426.040     1208772.690                                  
 18  5 14 15 10 48.0010000  0  5G26G21G29S36G20
  20708032.382     2352014.285                                  
  21254511.594     2400938.895                                  
  21887124.844     4143532.283                                  
  38456624.013     2905092.2152                                 
  23756957.809     1211564.977                                  
 18  5 14 15 10 49.0010000  0  5G26G21G29S36G20
  20708999.159     2357096.516                                  
  21255495.908     2406112.389                                  
  21888730.055     4151966.738                                  
  38457766.244     2911096.2592                                 
  23757489.648     1214359.428                                  
 18  5 14 15 10 50.0010000  0  5G26G21G29S36G20
  20709966.721     2362180.622                                  
  21256479.943     2411287.700                                  
  21890337.019     4160402.781                                  
  38458909.146     2917101.6582                                 
  23758021.260     1217155.416                                  
 18  5 14 15 10 51.0010000  0  5G26G21G29S36G20
  20710934.475     2367265.088                                  
  21257465.610     2416463.388                                  
  21891943.574     4168838.904                                  
  38460052.074     2923106.8662                                 
  23758552.959     1219951.420                                  
 18  5 14 15 10 52.0010000  0  5G26G21G29S36G20
  20711902.648     2372352.039                                  
  21258450.596     2421641.517                                  
  21893549.491     4177277.211                                  
  38461195.342     2929113.9342                                 
  23759085.584     1222749.567                                  
 18  5 14 15 10 53.0010000  0  6G26G21G29G16S36G20
  20712870.464     2377441.561                                  
  21259436.455     2426822.197                                  
  21895155.976     4185717.774                                  
  21963105.771     1523333.7353                                 
  38462338.715     2935123.0332                                 
  23759618.705     1225549.946                                  
 18  5 14 15 10 54.0010000  0  6G26G21G29G16S36G20
  20713839.186     2382533.340                                  
  21260422.776     2432005.119                                  
  21896761.980     4194160.250                                  
  21963756.376     1526758.0643                                 
  38463482.560     2941133.8442                                 
  23760151.426     1228352.225                                  
 18  5 14 15 10 55.0010000  0  6G26G21G29G16S36G20
  20714808.502     2387626.146                                  
  21261408.557     2437189.046                                  
  21898368.063     4202603.602                                  
  21964408.578     1530183.1843                                 
  38464626.291     2947145.1502                                 
  23760684.818     1231155.206                                  
 18  5 14 15 10 56.0010000  0  5G26G21G29S36G20
  20715777.687     2392721.080                                  
  21262395.794     2442375.067                                  
  21899974.783     4211048.645                                  
  38465770.397     2953158.1122                                 
  23761218.724     1233959.972                                  
 18  5 14 15 10 57.0010000  0  6G26G21G29S36G 5G20
  20716748.103     2397817.874                                  
  21263382.735     2447562.938                                  
  21901582.585     4219495.332                                  
  38466915.454     2959172.4942                                 
  24322163.626     3632507.0073                                 
  23761752.518     1236766.269                                  
 18  5 14 15 10 58.0010000  0  6G26G21G29S36G31G20
  20717718.169     2402915.941                                  
  21264370.757     2452752.058                                  
  21903189.846     4227942.970                                  
  38468060.110     2965187.6392                                 
  23174167.835     4568109.2013                                 
  23762286.800     1239573.519                                  
 18  5 14 15 10 59.0010000  0  5G26G21G29S36G20
  20718688.654     2408016.534                                  
  21265358.623     2457943.692                                  
  21904797.997     4236392.854                                  
  38469204.085     2971204.7212                                 
  23762821.562     1242382.919                                  
 18  5 14 15 11  0.0010000  0  6G26G21G29S36G 5G20
  20719659.680     2413119.941                                  
  21266346.907     2463138.090                                  
  21906405.904     4244845.202                                  
  38470349.613     2977223.9052                                 
  24326420.432     3654848.1323                                 
  23763356.437     1245194.808                                  
 18  5 14 15 11  1.0010000  0  6G26G21G29S36G 5G20
  20720631.195     2418225.526                                  
  21267335.671     2468334.654                                  
  21908014.666     4253299.435                                  
  38471495.333     2983244.7342                                 
  24327840.120     3662300.0093                                 
  23763892.176     1248008.523                                  
 18  5 14 15 11  2.0010000  0  6G26G21G29S36G 5G20
  20721602.841     2423333.133                                  
  21268324.977     2473533.225                                  
  21909623.681     4261755.452                                  
  38472641.821     2989267.0032                                 
  24329258.352     3669754.0333                                 
  23764427.854     1250823.944                                  
 18  5 14 15 11  3.0010000  0  6G26G21G29S36G 5G20
  20722575.681     2428443.231                                  
  21269314.919     2478734.262                                  
  21911233.219     4270213.680                                  
  38473788.493     2995291.2662                                 
  24330671.680     3677210.4403                                 
  23764963.716     1253641.509                                  
 18  5 14 15 11  4.0010000  0  6G26G21G29S36G 5G20
  20723548.435     2433556.913                                  
  21270305.550     2483938.865                                  
  21912843.263     4278675.102                                  
  38474935.556     3001318.5462                                 
  24332090.252     3684670.6903                                 
  23765500.022     1256462.329                                  
 18  5 14 15 11  5.0010000  0  6G26G21G29S36G 5G20
  20724522.245     2438673.829                                  
  21271296.347     2489146.682                                  
  21914453.517     4287139.516                                  
  38476082.289     3007348.6262                                 
  24333511.773     3692134.2293                                 
  23766036.625     1259286.040                                  
 18  5 14 15 11  6.0010000  0  5G26G21G29S36G20
  20725496.211     2443792.188                                  
  21272287.982     2494355.896                                  
  21916064.408     4295605.066                                  
  38477230.138     3013379.7602                                 
  23766574.659     1262110.849                                  
 18  5 14 15 11  7.0010000  0  5G26G21G29S36G20
  20726470.797     2448911.758                                  
  21273279.390     2499566.317                                  
  21917675.778     4304071.541                                  
  38478378.441     3019411.6372                                 
  23767111.899     1264936.546                                  
 18  5 14 15 11  8.0010000  0  6G26G21G29S36G 5G20
  20727445.287     2454033.026                                  
  21274271.339     2504778.402                                  
  21919287.105     4312539.454                                  
  38479526.403     3025444.6932                                 
  24337773.666     3714533.5883                                 
  23767649.479     1267763.589                                  
 18  5 14 15 11  9.0010000  0  5G26G21G29S36G20
  20728419.934     2459156.693                                  
  21275264.091     2509992.875                                  
  21920898.807     4321009.435                                  
  38480674.994     3031479.6272                                 
  23768187.870     1270592.725                                  
 18  5 14 15 11 10.0010000  0  5G26G21G29S36G20
  20729395.357     2464283.216                                  
  21276257.793     2515210.148                                  
  21922511.618     4329481.956                                  
  38481824.170     3037516.8542                                 
  23768725.904     1273424.309                                  
 18  5 14 15 11 11.0010000  0  5G26G21G29S36G20
  20730371.400     2469410.827                                  
  21277250.798     2520428.489                                  
  21924123.782     4337955.256                                  
  38482973.589     3043554.6352                                 
  23769263.624     1276256.698                                  
 18  5 14 15 11 12.0010000  0  5G26G21G29S36G20
  20731347.758     2474540.029                                  
  21278243.829     2525648.394                                  
  21925735.912     4346429.881                                  
  38484122.346     3049593.4702                                 
  23769803.263     1279090.339                                  
 18  5 14 15 11 13.0010000  0  6G26G21G29S36G 5G20
  20732324.568     2479671.489                                  
  21279237.819     2530870.540                                  
  21927349.176     4354906.453                                  
  38485271.608     3055634.0782                                 
  24344867.493     3751901.5813                                 
  23770343.443     1281925.899                                  
 18  5 14 15 11 14.0010000  0  6G26G21G29S36G 5G20
  20733301.781     2484806.044                                  
  21280232.063     2536095.738                                  
  21928962.588     4363385.800                                  
  38486421.447     3061677.2572                                 
  24346291.571     3759383.3153                                 
  23770884.147     1284764.201                                  
 18  5 14 15 11 15.0010000  0  6G26G21G29S36G 5G20
  20734278.862     2489943.219                                  
  21281226.560     2541323.563                                  
  21930575.590     4371867.502                                  
  38487571.512     3067722.5862                                 
  24347713.571     3766867.2653                                 
  23771424.676     1287604.810                                  
 18  5 14 15 11 16.0010000  0  5G26G21G29S36G20
  20735256.938     2495082.603                                  
  21282221.911     2546553.582                                  
  21932190.189     4380351.115                                  
  38488722.214     3073769.6652                                 
  23771965.319     1290447.268                                  
 18  5 14 15 11 17.0010000  0  5G26G21G29S36G20
  20736235.529     2500224.030                                  
  21283217.036     2551785.598                                  
  21933804.744     4388836.452                                  
  38489873.493     3079818.2172                                 
  23772505.560     1293291.429                                  
 18  5 14 15 11 18.0010000  0  5G26G21G29S36G20
  20737213.989     2505366.451                                  
  21284213.217     2557018.607                                  
  21935419.125     4397322.483                                  
  38491025.102     3085867.0512                                 
  23773046.814     1296136.223                                  
 18  5 14 15 11 19.0010000  0  5G26G21G29S36G20
  20738193.225     2510511.615                                  
  21285209.589     2562254.319                                  
  21937033.916     4405810.957                                  
  38492176.712     3091918.0642                                 
  23773588.739     1298983.484                                  
 18  5 14 15 11 20.0010000  0  6G26G21G29S36G 5G20
  20739173.159     2515660.747                                  
  21286207.410     2567493.981                                  
  21938649.928     4414303.087                                  
  38493328.435     3097972.5062                                 
  24354843.399     3804323.9353                                 
  23774132.078     1301834.334                                  
 18  5 14 15 11 21.0010000  0  6G26G21G29S36G 5G20
  20740153.783     2520813.784                                  
  21287204.306     2572737.528                                  
  21940265.844     4422798.823                                  
  38494480.786     3104030.3902                                 
  24356273.444     3811824.6303                                 
  23774675.661     1304688.734                                  
 18  5 14 15 11 22.0010000  0  7G26G21G29S36G25G 5G20
  20741135.393     2525970.029                                  
  21288202.738     2577984.258                                  
  21941882.546     4431297.518                                  
  38495633.905     3110090.9972                                 
  24586162.831     5086585.5293                                 
  24357701.221     3819328.7963                                 
  23775219.558     1307546.032                                  
 18  5 14 15 11 23.0010000  0  7G26G21G29S36G25G 5G20
  20742116.933     2531128.391                                  
  21289201.780     2583233.105                                  
  21943499.998     4439797.963                                  
  38496787.260     3116153.2162                                 
  24587999.178     5096238.6573                                 
  24359129.486     3826835.1393                                 
  23775762.992     1310405.122                                  
 18  5 14 15 11 24.0010000  0  6G26G21G29S36G 5G20
  20743098.734     2536288.502                                  
  21290200.858     2588483.659                                  
  21945117.136     4448299.867                                  
  38497941.226     3122216.5552                                 
  24360563.266     3834343.3023                                 
  23776306.663     1313265.605                                  
 18  5 14 15 11 25.0010000  0  6G26G21G29S36G 5G20
  20744081.452     2541450.616                                  
  21291199.813     2593736.192                                  
  21946735.827     4456803.562                                  
  38499095.697     3128281.3442                                 
  24362000.283     3841853.4963                                 
  23776851.188     1316127.743                                  
 18  5 14 15 11 26.0010000  0  6G26G21G29S36G 5G20
  20745063.699     2546614.787                                  
  21292199.483     2598990.751                                  
  21948354.849     4465308.954                                  
  38500249.811     3134347.6062                                 
  24363434.699     3849365.7523                                 
  23777396.307     1318991.612                                  
